wall_time_s,elapsed_s,mode,thrust_raw,thrust_percent,roll_cmd_deg,pitch_cmd_deg,yawrate_cmd_deg_s,mocap_x,mocap_y,mocap_z,mocap_qx,mocap_qy,mocap_qz,mocap_qw,yaw_deg,mocap_age_s,mocap_frame_count,drift_x_m,drift_y_m,horizontal_drift_m,velocity_x_m_s,velocity_y_m_s,horizontal_speed_m_s,body_error_x_m,body_error_y_m,body_velocity_x_m_s,body_velocity_y_m_s,battery_v,estimate_z
1779206105.6639302,0.0010356903076171875,hold-xy,0,0.0,0.0,-0.0,0.0,0.0025262227,0.008437492,0.037399255,-0.0,-1.8160521984100342,-8.404655456542969,4.661061683302027e+23,-90.0,0.03238034248352051,240,0.0,0.0,0.0,0.0,0.0,0.0,0.0,0.0,0.0,0.0,4.090909004211426,106.44347381591797
1779206105.6918788,0.02898430824279785,hold-xy,0,0.0,0.00040254317,0.00080745877,0.0,0.002559606,0.008483119,0.03739336,0.008012700825929642,-0.00021407636813819408,-0.6448386311531067,-0.7642767429351807,80.30660486581887,0.005577802658081055,242,3.3383258e-05,4.5627356e-05,5.6535806785942815e-05,0.0001829181,0.00025000764,0.00030977870578526755,-5.059686e-05,2.5224103e-05,0.00027723724,-0.00013821133,4.090909004211426,106.4967269897461
1779206105.7330658,0.07017135620117188,hold-xy,0,0.0,-0.0005590005,7.421976e-05,0.0,0.0025205389,0.00846642,0.037404627,0.008124119602143764,-0.0011402398813515902,-0.6449581980705261,-0.7641737461090088,80.32450338047423,0.016173601150512695,243,-5.6838617e-06,2.892781e-05,2.9480917465298668e-05,-0.00025507784,1.1237484e-05,0.00025532524650321605,-2.756105e-05,-1.0464845e-05,-3.179274e-05,0.00025333813,4.090909004211426,106.4967269897461
1779206105.7735412,0.11064672470092773,hold-xy,0,0.0,-0.00024794563,-0.00028621618,0.0,0.0025252402,0.008446153,0.037413277,0.008863297291100025,-0.002732981462031603,-0.6449121236801147,-0.7642004489898682,80.31785158808177,0.016045331954956055,244,-9.825453e-07,8.6613e-06,8.716852135357112e-06,-0.0001438188,-0.00014187288,0.00020201921408144317,-8.372681e-06,-2.4252267e-06,-0.0001640398,0.000117909745,4.090909004211426,106.48929595947266
1779206105.7957118,0.13281726837158203,hold-xy,0,0.0,0.0005732047,-0.00025837746,0.0,0.0025551952,0.008438079,0.037420318,0.008435419760644436,-0.0021507677156478167,-0.6446583867073059,-0.7644211649894714,80.2796873211906,0.007111787796020508,245,2.8972514e-05,5.867332e-07,2.8978454486616144e-05,0.00018824443,-0.0001771905,0.00025851971260030485,-5.4699954e-06,2.845751e-05,-0.00014286372,-0.00021545857,4.090909004211426,106.48929595947266
1779206105.836535,0.17364048957824707,hold-xy,0,0.0,-0.0005928587,-0.0005281049,0.0,0.0025114138,0.008430972,0.03737857,0.008772055618464947,-0.0025733092334121466,-0.6448288559913635,-0.7642723321914673,80.30532206000858,0.01748967170715332,246,-1.480896e-05,-6.5201893e-06,1.6180796588820152e-05,-0.00029963953,-0.000194063,0.0003569934303709022,8.920872e-06,-1.349949e-05,-0.00024175027,0.00026268064,4.090909004211426,106.48929595947266
1779206105.877479,0.2145845890045166,hold-xy,0,0.0,0.00013816814,-0.00037576334,0.0,0.0025404058,0.008426398,0.037370734,0.008082627318799496,-1.8470667782821693e-05,-0.6448643207550049,-0.7642543911933899,80.31047331131406,0.017167091369628906,247,1.41831115e-05,-1.10939145e-05,1.8006542778307414e-05,1.0185468e-06,-0.0001690941,0.00016909716391069299,8.5485035e-06,1.5847985e-05,-0.0001665104,-2.9464109e-05,4.090909004211426,106.49261474609375
1779206105.8980646,0.2351701259613037,hold-xy,0,0.0,0.00035851548,0.00055569084,0.0,0.0025558127,0.008458464,0.037374493,0.008243671618402004,-0.00038617895916104317,-0.6448664665222168,-0.7642506957054138,80.3107298838887,0.0066852569580078125,248,2.958998e-05,2.0972453e-05,3.626859220179902e-05,0.0001494884,0.00019128091,0.0002427656718108173,-2.5653415e-05,2.5638115e-05,0.0002137119,-0.00011516246,4.090909004211426,106.49261474609375
1779206105.918377,0.25548243522644043,hold-xy,0,0.0,0.0009992189,0.0004404774,0.0,0.0025760727,0.008455388,0.03736932,0.007644627708941698,0.00031652729376219213,-0.6448906660079956,-0.764236569404602,80.31453913229774,0.0067560672760009766,249,4.9849972e-05,1.7896295e-05,5.2965055515155703e-05,0.00040491598,8.830478e-05,0.00041443297678441963,-2.6027927e-05,4.612856e-05,0.00015516888,-0.00038428805,4.090909004211426,106.49261474609375
1779206105.9398284,0.2769339084625244,hold-xy,0,0.0,-0.0007929411,-0.0003221647,0.0,0.0025281888,0.008443862,0.037426937,0.008538893423974514,-0.0017615464748814702,-0.6450503468513489,-0.764090359210968,80.33834535999954,0.007867097854614258,250,1.966022e-06,6.3702464e-06,6.666729392217952e-06,-0.00042279644,-0.00010818367,0.0004364178499832456,-6.609848e-06,8.690197e-07,-0.00017760697,0.00039864308,4.090909004211426,106.49261474609375
1779206105.981672,0.31877756118774414,hold-xy,0,0.0,0.00034194515,0.0009681422,0.0,0.0025852164,0.008497417,0.037350774,0.008110329508781433,-0.0005125217721797526,-0.6448124647140503,-0.764297604560852,80.30264394300735,0.006783485412597656,251,5.8993697e-05,5.992502e-05,8.409081081108479e-05,0.00010258416,0.0002985425,0.0003156756750064517,-6.9005895e-05,4.8056747e-05,0.00031155636,-5.0830706e-05,4.090909004211426,106.50799560546875
1779206106.0031707,0.34027624130249023,hold-xy,0,0.0,-0.0006388566,-0.0013566626,0.0,0.0025476161,0.008440936,0.03739387,0.008741344325244427,-0.00223107379861176,-0.644922137260437,-0.7641950249671936,80.31920030265952,0.007929801940917969,252,2.139341e-05,3.4440309e-06,2.166885800763523e-05,-0.00048243068,-0.00062356715,0.0007884004938830676,-6.9924827e-06,2.050962e-05,-0.0006958125,0.00037070236,4.090909004211426,106.50799560546875
1779206106.045198,0.38230347633361816,hold-xy,0,0.0,-0.00022623665,-0.00020653153,0.0,0.00256328,0.008475739,0.037339147,0.008210350759327412,-0.0006367792375385761,-0.6448767781257629,-0.7642421722412109,80.3122677399755,0.009508132934570312,253,3.7057325e-05,3.8246624e-05,5.325457367561802e-05,-0.0002215259,-0.00017837435,0.00028441366667458724,-4.3937154e-05,3.0092791e-05,-0.00021310865,0.0001883503,4.090909004211426,106.50799560546875
1779206106.0861616,0.423267126083374,hold-xy,0,0.0,-0.000730739,-0.0012151443,0.0,0.002528537,0.008431543,0.03739316,0.008138647302985191,-0.0018569543026387691,-0.645083487033844,-0.7640665173530579,80.3434045410693,0.017153263092041016,254,2.3143366e-06,-5.9492886e-06,6.383587388471153e-06,-0.00046789407,-0.0005228021,0.0007016031316270895,5.4767793e-06,3.2794935e-06,-0.0005938802,0.0003735682,4.090909004211426,106.53466796875
1779206106.112141,0.4492464065551758,hold-xy,0,0.0,-0.0003551104,9.760144e-06,0.0,0.002540458,0.008465113,0.037403744,0.007759761996567249,0.000266511196969077,-0.6450896859169006,-0.7640674114227295,80.34435892224096,0.012752056121826172,255,1.4235266e-05,2.7621165e-05,3.107364836412897e-05,-0.00020980953,-3.446132e-05,0.0002126208380145091,-2.96175e-05,9.40081e-06,-6.916368e-05,0.00020105722,4.090909004211426,106.53466796875
1779206106.1324396,0.4695451259613037,hold-xy,0,0.0,0.0013775362,-0.000687635,0.0,0.002599854,0.008424554,0.03732905,0.0076782130636274815,0.00014077794912736863,-0.6447304487228394,-0.7643714547157288,80.29047974170713,0.002523660659790039,257,7.3631294e-05,-1.2937933e-05,7.475933213354668e-05,0.00043683767,-0.00042271055,0.0006078744798633412,3.3445212e-07,7.475858e-05,-0.00034298137,-0.00050187163,4.090909004211426,106.53466796875
1779206106.1734262,0.5105316638946533,hold-xy,0,0.0,0.00012435523,0.00059023313,0.0,0.0025692675,0.008473681,0.037370246,0.008148622699081898,-0.0004813559935428202,-0.644976019859314,-0.7641592025756836,80.3271642196516,0.013178348541259766,258,4.3044798e-05,3.6189333e-05,5.623630914388778e-05,3.267749e-06,0.00019000043,0.0001900285255955131,-4.290731e-05,3.6352234e-05,0.00018784829,2.8702965e-05,4.090909004211426,106.51508331298828
1779206106.1937664,0.5308718681335449,hold-xy,0,0.0,0.0017806569,0.0012100739,0.0,0.0026431289,0.008492595,0.037357558,0.007385039236396551,0.0012268302962183952,-0.6447156667709351,-0.7643857598304749,80.28860864698983,0.0011742115020751953,260,0.00011690613,5.510263e-05,0.00012924141251541282,0.00068736554,0.0003084248,0.0007533904871371642,-7.403336e-05,0.000105935855,0.00041995355,-0.0006254888,4.090909004211426,106.51508331298828
1779206106.2142522,0.5513577461242676,hold-xy,0,0.0,-0.0017702794,-6.8046415e-05,0.0,0.002555999,0.0084800385,0.03731978,0.008036017417907715,-2.737812428676989e-05,-0.6447766423225403,-0.7643288969993591,80.29733298592207,0.0034296512603759766,261,2.9776245e-05,4.254654e-05,5.193104061305099e-05,-0.00095265306,9.274372e-06,0.0009526982080454968,-4.6956287e-05,2.2179722e-05,-0.00015141393,0.000940589,4.090909004211426,106.51508331298828
1779206106.2345562,0.5716617107391357,hold-xy,0,0.0,0.0006707808,0.0012846999,0.0,0.0026156325,0.008506858,0.037325248,0.007260248064994812,0.0023055272176861763,-0.6447808146476746,-0.7643295526504517,80.29893832926558,0.003453969955444336,262,8.940976e-05,6.936584e-05,0.00011316238103191934,0.0002153109,0.00040323415,0.00045711766980913366,-8.344016e-05,7.6442564e-05,0.00043374958,-0.00014428399,4.090909004211426,106.51508331298828
1779206106.2558901,0.5929956436157227,hold-xy,0,0.0,-0.0017875938,-0.00015737498,0.0,0.0025760774,0.008494921,0.037377685,0.008418369106948376,-0.000958264630753547,-0.6448660492897034,-0.7642486095428467,80.31062969126789,0.014642477035522461,263,4.985463e-05,5.7429075e-05,7.604986851932089e-05,-0.0010189267,-7.0705864e-05,0.0010213770118086545,-6.500069e-05,3.947775e-05,-0.00024118922,0.0009924913,4.090909004211426,106.51508331298828
1779206106.2976217,0.6347272396087646,hold-xy,0,0.0,-0.0011473517,-0.00048294174,0.0,0.0025738925,0.0084656235,0.037343003,0.008192532695829868,-0.00025951844872906804,-0.6447731852531433,-0.7643301486968994,80.29676466940202,0.002173185348510742,265,4.7669746e-05,2.813153e-05,5.535149201251707e-05,-0.0007253419,-0.00021165499,0.0007555916230078576,-3.5763576e-05,4.224635e-05,-0.00033087982,0.0006792917,4.090909004211426,106.51258087158203
1779206106.3203819,0.6574873924255371,hold-xy,0,0.0,-0.0014167909,-0.0004489511,0.0,0.002552528,0.0084641315,0.03738583,0.007817279547452927,0.0007032444118522108,-0.6448906660079956,-0.7642345428466797,80.3146178212547,0.0031392574310302734,267,2.6305206e-05,2.6639551e-05,3.7438342366449125e-05,-0.0008018266,-0.00016869589,0.0008193803841938074,-3.0685376e-05,2.144848e-05,-0.000301189,0.0007620166,4.090909004211426,106.51258087158203
1779206106.3414989,0.6786043643951416,hold-xy,0,0.0,-0.0008180079,-0.0015570767,0.0,0.002550479,0.008429663,0.037405446,0.008584419265389442,-0.0022725623566657305,-0.6449801325798035,-0.7641477584838867,80.32793911592324,0.005827188491821289,268,2.4256296e-05,-7.828698e-06,2.5488358906667956e-05,-0.0005946321,-0.00067918387,0.0009027059832053115,3.6421475e-06,2.5226795e-05,-0.000769433,0.00047207094,4.090909004211426,106.51258087158203
1779206106.3631716,0.7002770900726318,hold-xy,0,0.0,-0.0006175259,0.001863138,0.0,0.0025582053,0.008484079,0.037359256,0.007931049913167953,0.0007514980970881879,-0.6448587775230408,-0.7642602324485779,80.30983825797546,0.015218496322631836,269,3.198255e-05,4.6586618e-05,5.650837437039818e-05,-0.00022751218,0.0008537822,0.0008835756193210796,-5.1305244e-05,2.3684768e-05,0.0008033059,0.00036797486,4.090909004211426,106.51258087158203
1779206106.3843381,0.7214436531066895,hold-xy,0,0.0,-0.00082671683,0.0007940943,0.0,0.0025367783,0.008463321,0.03736059,0.007752890232950449,0.0006251019658520818,-0.6448394656181335,-0.7642784714698792,80.30692581698341,0.0054416656494140625,270,1.055561e-05,2.58293e-05,2.7902932641488616e-05,-0.00036699531,0.00039640281,0.0005402043633921851,-2.7237807e-05,6.0560315e-06,0.00032895262,0.0004284985,4.090909004211426,106.58769989013672
1779206106.405289,0.7423944473266602,hold-xy,0,0.0,0.0013008729,0.0010118909,0.0,0.002593129,0.008466103,0.03736843,0.008245661854743958,-0.0004644935834221542,-0.6448838710784912,-0.7642360329627991,80.31333488023084,0.005673408508300781,271,6.6906214e-05,2.861116e-05,7.276702523842748e-05,0.00055902783,0.00031776173,0.0006430277259123317,-3.946088e-05,6.113819e-05,0.0004072933,-0.000497591,4.090909004211426,106.58769989013672
1779206106.426584,0.7636895179748535,hold-xy,0,0.0,3.1680698e-05,-0.0009456012,0.0,0.0025736839,0.008442292,0.037438944,0.008472329936921597,-0.0013876872835680842,-0.6446528434753418,-0.7644272446632385,80.27869243709836,0.01680898666381836,272,4.746113e-05,4.8000365e-06,4.770324165691921e-05,-0.00018287511,-0.00048068634,0.0005142982206606734,-1.2745206e-05,4.5969107e-05,-0.0005046636,9.908242e-05,4.090909004211426,106.58769989013672
1779206106.4683359,0.8054413795471191,hold-xy,0,0.0,-0.0009937033,-0.001176899,0.0,0.0025042836,0.008421693,0.03738116,0.00861731544137001,-0.002096518874168396,-0.6448836922645569,-0.7642292380332947,80.31341934367883,0.007269620895385742,273,-2.1939166e-05,-1.5798956e-05,2.703579072283231e-05,-0.00053393166,-0.000456963,0.0007027789117378429,1.926516e-05,-1.8968069e-05,-0.0005402866,0.00044943145,4.090909004211426,106.57811737060547
1779206106.4889736,0.8260791301727295,hold-xy,0,0.0,0.000705234,0.00052878255,0.0,0.002551904,0.008454227,0.03738473,0.0088109215721488,-0.0024588152300566435,-0.6448954939842224,-0.7642160654067993,80.3152661120857,0.0075457096099853516,274,2.568122e-05,1.6734935e-05,3.0652619431427054e-05,0.00032786623,0.00015946632,0.0003645898751366401,-2.0816702e-05,2.2499957e-05,0.00021234952,-0.0002963671,4.090909004211426,106.57811737060547
1779206106.5104032,0.8475086688995361,hold-xy,0,0.0,0.0018420612,0.0017005497,0.0,0.0025977073,0.0084862895,0.037346598,0.007650175131857395,0.0017027587164193392,-0.6449714303016663,-0.764166533946991,80.32714664367617,0.00759124755859375,276,7.1484596e-05,4.8797578e-05,8.655201427430974e-05,0.00087209017,0.000561439,0.0010371860944003088,-6.011484e-05,6.226923e-05,0.00069998775,-0.0007653575,4.090909004211426,106.57811737060547
1779206106.5550323,0.8921377658843994,hold-xy,0,0.0,0.00040903632,0.0003264211,0.0,0.0025384063,0.00844516,0.037380874,0.008502296172082424,-0.0021366924047470093,-0.6449520587921143,-0.7641727328300476,80.32370318683708,0.009027481079101562,277,1.2183562e-05,7.66851e-06,1.439601406586127e-05,0.00019858227,0.00010734156,0.00022573686024015475,-9.607244e-06,1.0721293e-05,0.00013919245,-0.00017771493,4.090909004211426,106.57811737060547
1779206106.5774245,0.9145300388336182,hold-xy,0,0.0,0.00042503726,0.0011318999,0.0,0.0025466634,0.008471293,0.037373193,0.008035014383494854,0.00026523045380599797,-0.6449292898178101,-0.7642000913619995,80.32027332304824,0.009793519973754883,279,2.0440668e-05,3.380142e-05,3.950135383445855e-05,0.0002535505,0.00043765595,0.0005057969942295232,-3.6757097e-05,1.44662645e-05,0.0004740572,-0.00017635297,4.090909004211426,106.52253723144531
1779206106.601369,0.9384744167327881,hold-xy,0,0.0,0.0018221,0.0015617941,0.0,0.0026145447,0.008490331,0.037361745,0.007781255524605513,0.000495714892167598,-0.6445627212524414,-0.7645117044448853,80.26540174006428,0.0014994144439697266,281,8.832198e-05,5.2838586e-05,0.00010292078320698945,0.000809165,0.00048351235,0.0009426198667220603,-6.701168e-05,7.8116085e-05,0.0006133678,-0.0007157598,4.090909004211426,106.52253723144531
1779206106.6218278,0.9589333534240723,hold-xy,0,0.0,0.0016825658,0.00032894476,0.0,0.002618609,0.008464074,0.037400085,0.008345055393874645,-0.0023759608156979084,-0.6445783972740173,-0.7644889950752258,80.26778388089593,0.0014996528625488281,282,9.238627e-05,2.6581809e-05,9.613435611088294e-05,0.000626013,-4.6562607e-05,0.000627742241808559,-4.1816565e-05,8.656321e-05,5.993097e-05,-0.0006248749,4.090909004211426,106.52253723144531
1779206106.64291,0.9800155162811279,hold-xy,0,0.0,-0.0013324991,-0.0017305869,0.0,0.0025726408,0.0084398985,0.03739738,0.00844154879450798,-0.0020200989674776793,-0.6446191072463989,-0.7644546031951904,80.27376252936725,0.012420177459716797,283,4.641805e-05,2.4065375e-06,4.648038838435688e-05,-0.0009189014,-0.0007463155,0.0011837933590331808,-1.02138465e-05,4.5344284e-05,-0.000890828,0.00077961024,4.090909004211426,106.52253723144531
1779206106.663526,1.00063157081604,hold-xy,0,0.0,-0.0009880726,-0.0014158088,0.0,0.0025661942,0.008431967,0.037422407,0.008030451834201813,-0.0014229476219043136,-0.6445500254631042,-0.7645186185836792,80.26335621566312,0.002501964569091797,285,3.9971434e-05,-5.5246055e-06,4.0351415931002876e-05,-0.0007065692,-0.00060034456,0.0009271750623846112,-1.3149329e-06,4.0329985e-05,-0.00071119174,0.0005948613,4.090909004211426,106.52253723144531
1779206106.683768,1.0208735466003418,hold-xy,0,0.0,-0.00024248575,0.0014809517,0.0,0.0025892965,0.008500366,0.03738455,0.007690854370594025,0.0006525737699121237,-0.6447352170944214,-0.7643670439720154,80.29131171352866,0.002495288848876953,286,6.307382e-05,6.287359e-05,8.905838026963028e-05,-0.00015231801,0.0005931329,0.0006123785265274588,-7.260981e-05,5.1567546e-05,0.0005589513,0.00025016174,4.090909004211426,106.47117614746094
1779206106.7042277,1.0413331985473633,hold-xy,0,0.0,-0.0035466747,-0.0021827077,0.0,0.0025245138,0.008456269,0.03736332,0.008171243593096733,7.292305963346735e-05,-0.6448560953140259,-0.7642603516578674,80.3092427621372,0.012281417846679688,287,-1.7089769e-06,1.8777326e-05,1.885493481901386e-05,-0.0019274685,-0.0008242177,0.002096298932687173,-1.8221712e-05,-4.8453853e-06,-0.0011369081,0.0017612239,4.090909004211426,106.47117614746094
1779206106.724565,1.0616705417633057,hold-xy,0,0.0,-0.0031130842,-0.0019131607,0.0,0.002496656,0.008443952,0.03739982,0.008559567853808403,-0.0016278334660455585,-0.6449036598205566,-0.7642142176628113,80.31631867965744,0.0019073486328125,289,-2.9566698e-05,6.4596534e-06,3.0264116232722232e-05,-0.001621352,-0.00069727574,0.0017649293747418321,-1.394239e-06,-3.0231982e-05,-0.0009600659,0.0014809621,4.090909004211426,106.47117614746094
1779206106.7472079,1.0843133926391602,hold-xy,0,0.0,-0.00083538936,-0.0013865257,0.0,0.0025374051,0.008435495,0.037379567,0.008656995370984077,-0.002179653150960803,-0.6449413895606995,-0.7641798853874207,80.32208765557625,0.00342559814453125,290,1.118239e-05,-1.9967556e-06,1.1359264131171061e-05,-0.00055625016,-0.0006081863,0.0008241994758465067,8.8473826e-08,1.135892e-05,-0.00069304166,0.000446092,4.090909004211426,106.47117614746094
1779206106.7675161,1.1046216487884521,hold-xy,0,0.0,-0.0003316466,-0.0004504178,0.0,0.0025467034,0.008449251,0.037373327,0.00872094091027975,-0.0022592032328248024,-0.6447489261627197,-0.7643413543701172,80.29324170513442,0.003335714340209961,292,2.0480715e-05,1.1758879e-05,2.3616327339485445e-05,-0.0002526226,-0.0002234232,0.00033724782066613704,-1.5043697e-05,1.8204892e-05,-0.00026281815,0.00021133553,4.090909004211426,106.47117614746094
1779206106.7880023,1.125107765197754,hold-xy,0,0.0,0.001586487,0.00016762523,0.0,0.0026002731,0.008453648,0.03739246,0.008627248927950859,-0.0026892831083387136,-0.644641101360321,-0.7644320130348206,80.27724608899761,0.0034198760986328125,293,7.405039e-05,1.6155653e-05,7.57922512388012e-05,0.0006108781,-9.174398e-05,0.000617728919641392,-2.8429291e-05,7.0258386e-05,1.2739387e-05,-0.00061759754,4.090909004211426,106.47357177734375
1779206106.8094165,1.146522045135498,hold-xy,0,0.0,-0.0014302621,0.0012576054,0.0,0.0025608325,0.008478541,0.037373807,0.00792093575000763,-0.0002874087658710778,-0.6445648074150085,-0.7645086050033569,80.26556040878518,0.014199972152709961,294,3.460981e-05,4.1048974e-05,5.3692243985320954e-05,-0.00068504,0.00063804246,0.0009361506343328064,-4.630984e-05,2.7170861e-05,0.0005130281,0.00078305823,4.090909004211426,106.47357177734375
1779206106.8305874,1.1676928997039795,hold-xy,0,0.0,-0.0013501815,0.000992624,0.0,0.002545218,0.008482965,0.037367616,0.00806477665901184,0.0003446780610829592,-0.6449042558670044,-0.7642208337783813,80.31653280488435,0.004131317138671875,296,1.8995255e-05,4.5472756e-05,4.9280737677070615e-05,-0.0006294781,0.0004891123,0.000797165916119796,-4.8019956e-05,1.1075869e-05,0.0003762621,0.00070278044,4.090909004211426,106.47357177734375
1779206106.8576066,1.1947121620178223,hold-xy,0,0.0,-0.00022515428,-0.0002806071,0.0,0.0025609583,0.008447936,0.037367083,0.008262342773377895,-0.0015033296076580882,-0.6448796987533569,-0.7642379999160767,80.31275521639256,0.009609699249267578,297,3.4735538e-05,1.0443851e-05,3.627163635211396e-05,-0.0002214196,-0.00014546924,0.00026493006103499685,-1.6139878e-05,3.2482854e-05,-0.00018065325,0.00019378428,4.090909004211426,106.47357177734375
1779206106.878979,1.2160844802856445,hold-xy,0,0.0,-0.00038194354,-0.00040605597,0.0,0.0025510155,0.008441979,0.037350766,0.007999343797564507,-0.00013841471809428185,-0.6450408101081848,-0.764106273651123,80.33693232105269,0.007918119430541992,299,2.4792738e-05,4.487112e-06,2.51955161620547e-05,-0.00028432312,-0.0001793098,0.0003361422953288508,-8.585008e-06,2.3687797e-05,-0.0002244905,0.00025019125,4.090909004211426,106.47557830810547
1779206106.9226718,1.259777307510376,hold-xy,0,0.0,0.000376417,0.0012333421,0.0,0.0025973516,0.0085169505,0.037393663,0.0074930572882294655,0.0008279833127744496,-0.6446593999862671,-0.7644327282905579,80.28002011263506,0.006888628005981445,300,7.112883e-05,7.945858e-05,0.00010664415754491202,0.00011179912,0.0003773963,0.00039360768299332246,-9.032682e-05,5.6692515e-05,0.00039085402,-4.6477217e-05,4.090909004211426,106.47557830810547
1779206106.9443855,1.2814910411834717,hold-xy,0,0.0,-0.0002806944,-0.00019896711,0.0,0.0025733793,0.008485626,0.037350398,0.008317439816892147,-0.0005499030812643468,-0.6448690295219421,-0.7642475962638855,80.31109302579944,0.008127212524414062,301,4.7156587e-05,4.8134476e-05,6.738450411212779e-05,-0.00027297973,-0.0001947805,0.00033534664366156343,-5.5384273e-05,3.838299e-05,-0.00023794424,0.00023630468,4.090909004211426,106.47557830810547
1779206106.986061,1.3231666088104248,hold-xy,0,0.0,-3.3368065e-05,-9.535521e-05,0.0,0.0025783004,0.00848278,0.03733722,0.008186454884707928,-0.00011641352466540411,-0.6448091268539429,-0.7642998695373535,80.30217034286513,0.009260416030883789,302,5.2077696e-05,4.5288354e-05,6.901537113434219e-05,-0.00015467124,-0.00015740671,0.0002206809149019132,-5.341377e-05,4.3704582e-05,-0.00018121203,0.00012594549,4.090909004211426,106.48470306396484
1779206107.006458,1.3435635566711426,hold-xy,0,0.0,-0.00091557525,-0.0012731018,0.0,0.0025404897,0.00844671,0.037419736,0.008562455885112286,-0.002230674959719181,-0.6449155807495117,-0.7642025351524353,80.31824925836291,0.0063037872314453125,303,1.42669305e-05,9.218231e-06,1.6985908745298393e-05,-0.0005939869,-0.00057354145,0.0008256937620864574,-1.1486283e-05,1.2513448e-05,-0.0006652666,0.00048907124,4.090909004211426,106.48470306396484
1779206107.047382,1.3844876289367676,hold-xy,0,0.0,-0.0003603542,-0.00018825106,0.0,0.002558195,0.008476673,0.03736283,0.007949586026370525,5.563093873206526e-05,-0.6449533700942993,-0.7641805410385132,80.32385361339466,0.009933948516845703,304,3.1972304e-05,3.918074e-05,5.057033487327488e-05,-0.00027336512,-0.00016045432,0.0003169764697691869,-4.399721e-05,2.4931993e-05,-0.00020411855,0.00024250709,4.090909004211426,106.48470306396484
1779206107.0884576,1.425563097000122,hold-xy,0,0.0,-0.0004693986,-0.0011982804,0.0,0.0025344826,0.008419006,0.037393104,0.008682973682880402,-0.0022256283555179834,-0.6449009776115417,-0.7642135620117188,80.31603649187585,0.006943225860595703,305,8.2599e-06,-1.8485822e-05,2.0247260868782404e-05,-0.0003527882,-0.0005049086,0.0006159482044397951,1.6832984e-05,1.12517655e-05,-0.00055705773,0.00026282872,4.090909004211426,106.4743881225586
1779206107.109871,1.4469764232635498,hold-xy,0,0.0,-0.0010462957,-0.002077207,0.0,0.0025199596,0.008402249,0.037417065,0.008127723820507526,-0.001315762405283749,-0.6447597742080688,-0.7643409371376038,80.29476994763377,0.018180131912231445,306,-6.2631443e-06,-3.524311e-05,3.5795303180489894e-05,-0.0006750899,-0.0008474394,0.0010834666270484457,3.579455e-05,-2.322463e-07,-0.0009491171,0.00052256725,4.090909004211426,106.4743881225586
1779206107.1318583,1.468963861465454,hold-xy,0,0.0,0.0002882132,0.0010027323,0.0,0.0025789216,0.008497123,0.037366334,0.007329402957111597,0.0011054837377741933,-0.6443384289741516,-0.7647045850753784,80.23202849668306,0.009019851684570312,307,5.2698888e-05,5.963072e-05,7.95801197622734e-05,9.533134e-05,0.00032057206,0.0003344465642303604,-6.770707e-05,4.181804e-05,0.00033209848,-3.9561495e-05,4.090909004211426,106.4743881225586
1779206107.153276,1.4903814792633057,hold-xy,0,0.0,-0.00034559952,-0.00032908266,0.0,0.0025476553,0.008457195,0.03743364,0.008145651780068874,-0.0011343423975631595,-0.6446146368980408,-0.7644634246826172,80.27299113894236,0.0009806156158447266,308,2.1432526e-05,1.970306e-05,2.9112948956161723e-05,-0.0002516968,-0.0001822383,0.0003107443896014396,-2.304092e-05,1.77955e-05,-0.00022214363,0.00021728851,4.090909004211426,106.4743881225586
1779206107.2024662,1.539571762084961,hold-xy,0,0.0,-0.00031202778,-0.00041680766,0.0,0.002542071,0.008448706,0.03736067,0.00781300850212574,-0.00012069171498296782,-0.6447491645812988,-0.7643543481826782,80.29322940570356,0.018170595169067383,309,1.5848316e-05,1.1214055e-05,1.941453472405705e-05,-0.00022853923,-0.0002071505,0.0003084501724646109,-1.3725629e-05,1.3730669e-05,-0.0002427179,0.00019034056,4.090909004211426,106.50225830078125
1779206107.248939,1.5860445499420166,hold-xy,0,0.0,-0.00028367233,-0.00043678647,0.0,0.0025358293,0.008440447,0.03735886,0.008331072516739368,-0.0006746274302713573,-0.6448169946670532,-0.7642912864685059,80.3032855382717,0.018560171127319336,310,9.606592e-06,2.9550865e-06,1.0050828392589317e-05,-0.00020061084,-0.00019877093,0.00028240855557812956,-4.5309334e-06,8.97161e-06,-0.00022972056,0.00016426519,4.090909004211426,106.50225830078125
1779206107.2724595,1.609565019607544,hold-xy,0,0.0,0.0009100805,0.0013647899,0.0,0.00257832,0.008485898,0.037402716,0.007847990840673447,-0.0002742270298767835,-0.6446596384048462,-0.7644293904304504,80.27978611012922,0.019869327545166016,311,5.2097254e-05,4.8406422e-05,7.111473606321623e-05,0.00043347813,0.00047475472,0.0006428804794545868,-5.650745e-05,4.3176544e-05,0.00054112636,-0.0003470989,4.090909004211426,106.54789733886719
1779206107.294301,1.631406545639038,hold-xy,0,0.0,-0.00010724086,0.0002459937,0.0,0.0025310833,0.008453136,0.037389107,0.008854669518768787,-0.002595621393993497,-0.6447920799255371,-0.7643024325370789,80.29980152369777,0.0009562969207763672,312,4.8605725e-06,1.5644357e-05,1.638203429391536e-05,-4.4281158e-05,9.116212e-05,0.00010134768205192654,-1.6239657e-05,2.1551189e-06,8.23977e-05,5.9008227e-05,4.090909004211426,106.54789733886719
1779206107.3146431,1.6517486572265625,hold-xy,0,0.0,0.00036702707,-0.00028200352,0.0,0.0025412552,0.008437369,0.037396684,0.008807994425296783,-0.002723514335229993,-0.6448384523391724,-0.7642632722854614,80.30681152810008,0.0010313987731933594,313,1.5032478e-05,-1.2293458e-07,1.5032980545720226e-05,0.000119571625,-0.00016957997,0.00020749636193795117,-2.4098717e-06,1.4838565e-05,-0.00014702644,-0.00014641712,4.090909004211426,106.54789733886719
1779206107.3561082,1.693213701248169,hold-xy,0,0.0,0.00030913902,0.00010763487,0.0,0.0025447002,0.008449903,0.037361663,0.008706323802471161,-0.00257721240632236,-0.6448588371276855,-0.7642477750778198,80.30983159511781,0.009717464447021484,314,1.847744e-05,1.2410805e-05,2.2258568071881387e-05,0.000115229144,-3.9946026e-06,0.00011529836424353755,-1.534386e-05,1.612482e-05,1.5457787e-05,-0.00011425747,4.090909004211426,106.54789733886719
1779206107.3978107,1.7349162101745605,hold-xy,0,0.0,0.0008607156,0.00031947735,0.0,0.0025760047,0.008455375,0.037397902,0.008206367492675781,-0.0018567700171843171,-0.6447715163230896,-0.7643290758132935,80.29661214490919,0.013245105743408203,315,4.9781986e-05,1.7883256e-05,5.289666243999459e-05,0.00032666948,4.020944e-05,0.00032913485154772694,-2.6018046e-05,4.60556e-05,9.469356e-05,-0.0003152188,4.090909004211426,106.55805969238281
1779206107.4182847,1.7553901672363281,hold-xy,0,0.0,0.00019085576,-0.00015722992,0.0,0.002559714,0.008445418,0.037419934,0.00843571312725544,-0.002459451090544462,-0.6446763277053833,-0.7644051313400269,80.28247598827589,0.012617826461791992,316,3.349129e-05,7.926486e-06,3.441650365344005e-05,-2.9390503e-06,-0.000113410555,0.00011344863415526912,-1.346578e-05,3.1672836e-05,-0.00011227941,-1.6245784e-05,4.090909004211426,106.55805969238281
1779206107.45903,1.796135425567627,hold-xy,0,0.0,0.0002363716,0.0002885226,0.0,0.0025657322,0.00846393,0.037350103,0.00809548795223236,2.025823278017924e-06,-0.644817590713501,-0.7642935514450073,80.30346674344946,0.012403249740600586,317,3.9509498e-05,2.6438385e-05,4.7539337823257304e-05,4.2021507e-05,5.619837e-05,7.017167393865386e-05,-3.2715252e-05,3.449204e-05,6.247317e-05,-3.19557e-05,4.090909004211426,106.55805969238281
1779206107.479337,1.8164424896240234,hold-xy,0,0.0,-0.00016053932,-1.6509308e-05,0.0,0.0025536334,0.00845813,0.03738132,0.008244271390140057,-0.00037328992038965225,-0.6448270678520203,-0.7642839550971985,80.30482376748957,0.012371063232421875,318,2.7410686e-05,2.0638108e-05,3.431147278452853e-05,-0.00014904008,-4.6214107e-05,0.0001560406626454954,-2.4959483e-05,2.354361e-05,-7.065336e-05,0.00013912868,4.090909004211426,106.61168670654297
1779206107.5008588,1.8379642963409424,hold-xy,0,0.0,-0.0004854401,-0.00025727207,0.0,0.0025351942,0.008449516,0.037378784,0.008777848444879055,-0.001934647443704307,-0.6448177099227905,-0.7642835378646851,80.30345593499217,0.002992391586303711,319,8.97143e-06,1.2024306e-05,1.5002349483433305e-05,-0.0002833472,-0.00011597773,0.0003061641417405967,-1.3363579e-05,6.818008e-06,-0.00016204498,0.00025976507,4.090909004211426,106.61168670654297
1779206107.5413623,1.8784677982330322,hold-xy,0,0.0,-0.0006459951,-0.0011819978,0.0,0.0025155805,0.008410802,0.03741628,0.008465548977255821,-0.00190374453086406,-0.6449899673461914,-0.7641417980194092,80.32933434336086,0.01296687126159668,320,-1.0642223e-05,-2.6689842e-05,2.8733335773935377e-05,-0.00039108083,-0.0004616173,0.0006050080615218878,2.8098299e-05,-6.007508e-06,-0.00052075315,0.00030797877,4.090909004211426,106.61168670654297
1779206107.5616763,1.8987817764282227,hold-xy,0,0.0,-0.00085066434,-0.000672481,0.0,0.0025012586,0.008421407,0.037415534,0.008286588825285435,-0.001365376403555274,-0.6449335217475891,-0.764192521572113,80.3208017988575,0.002512693405151367,321,-2.4964102e-05,-1.6084872e-05,2.9697298351971726e-05,-0.00041339977,-0.00021973005,0.00046816734503013686,2.005315e-05,-2.1904354e-05,-0.00028610762,0.00037057127,4.090909004211426,106.61168670654297
1779206107.5819607,1.9190661907196045,hold-xy,0,0.0,0.003291544,0.0007917159,0.0,0.0025663618,0.008431181,0.03741717,0.008306304924190044,-0.00195718533359468,-0.6446725130081177,-0.764411211013794,80.2817760981693,0.012397289276123047,322,4.013907e-05,-6.3106418e-06,4.063212228301778e-05,0.0015886292,0.00012814286,0.001593789023129679,-5.5550845e-07,4.0628325e-05,0.00039446919,-0.0015442012,4.090909004211426,106.5486831665039
1779206107.60279,1.9398956298828125,hold-xy,0,0.0,0.0019135483,0.00026011775,0.0,0.002546208,0.008422475,0.03736281,0.008708490058779716,-0.0023289585951715708,-0.6448211669921875,-0.7642803192138672,80.30409674803015,0.0025343894958496094,323,1.9985251e-05,-1.5016645e-05,2.4998197967116197e-05,0.0009150484,4.603804e-06,0.0009150600109829276,1.14362465e-05,2.2228858e-05,0.00015864949,-0.00090120203,4.090909004211426,106.5486831665039
1779206107.6232677,1.9603731632232666,hold-xy,0,0.0,0.0027462847,0.002822166,0.0,0.002598444,0.008491654,0.03740286,0.007850735448300838,0.00018941260350402445,-0.644679069519043,-0.7644129991531372,80.28276483545184,0.002674102783203125,324,7.222127e-05,5.4161996e-05,9.027421567924174e-05,0.0014110593,0.0010236659,0.001743267087837045,-6.557485e-05,6.204331e-05,0.0012471459,-0.0012180341,4.090909004211426,106.5486831665039
1779206107.6436708,1.980776309967041,hold-xy,0,0.0,-0.0018395617,-0.0016273942,0.0,0.0025292682,0.008444745,0.037383914,0.008150974288582802,5.322955530573381e-06,-0.6450355648994446,-0.7641090750694275,80.33614550763048,0.012897729873657227,325,3.0454248e-06,7.25314e-06,7.866552725345618e-06,-0.0010509357,-0.0006658819,0.001244132020918133,-7.661443e-06,1.7846422e-06,-0.0008328507,0.0009242425,4.090909004211426,106.5486831665039
1779206107.6644552,2.001560688018799,hold-xy,0,0.0,-0.00038173064,-0.0008042217,0.0,0.0025679423,0.008451616,0.037409723,0.007436851505190134,0.0011890330351889133,-0.6446640491485596,-0.764428973197937,80.28085239402775,0.0027713775634765625,327,4.1719526e-05,1.4124438e-05,4.404564212516976e-05,-0.00036030856,-0.00039942883,0.0005379271870296651,-2.0964751e-05,3.873626e-05,-0.00045452273,0.00028770597,4.090909004211426,106.5486831665039
1779206107.7056713,2.0427768230438232,hold-xy,0,0.0,5.5382538e-05,0.00013674507,0.0,0.0025868202,0.0084826555,0.0373536,0.007772938814014196,0.0010956056648865342,-0.6448134779930115,-0.7642996311187744,80.30318226415417,0.0033998489379882812,328,6.0597435e-05,4.5163557e-05,7.557642440022511e-05,-0.000112681635,-5.0177376e-05,0.0001233487701697545,-5.4725002e-05,5.212456e-05,-6.843997e-05,0.00010262013,4.090909004211426,106.55734252929688
1779206107.7264996,2.0636050701141357,hold-xy,0,0.0,-0.0015349386,-0.00039552522,0.0,0.0025363015,0.008474257,0.03737162,0.008254331536591053,-7.535430631833151e-05,-0.6447799205780029,-0.7643237113952637,80.29778712893828,0.0036401748657226562,330,1.0078773e-05,3.676489e-05,3.812136869996501e-05,-0.0008150175,-0.00015750661,0.0008300975195660418,-3.7937592e-05,3.738723e-06,-0.0002926066,0.0007768161,4.090909004211426,106.55734252929688
1779206107.7670755,2.1041810512542725,hold-xy,0,0.0,4.5592576e-05,0.0005740351,0.0,0.0025860835,0.008498289,0.037321188,0.007715385872870684,0.0018773364135995507,-0.6448332071304321,-0.7642821073532104,80.30650696124812,0.013840198516845703,331,5.986076e-05,6.0796738e-05,8.532030150324594e-05,-7.88538e-05,0.00012708947,0.00014956489009622826,-7.000792e-05,4.8769303e-05,0.00011199777,9.912697e-05,4.090909004211426,106.56375122070312
1779206107.7874463,2.124551773071289,hold-xy,0,0.0,0.0006614561,0.0007896463,0.0,0.0026103305,0.00850581,0.03732946,0.00780404731631279,0.0013781208544969559,-0.6447610259056091,-0.7643431425094604,80.29543155556613,0.003580331802368164,332,8.410774e-05,6.83181e-05,0.00010835808851926403,0.00018228049,0.00016262784,0.0002442826104052452,-8.1518345e-05,7.138793e-05,0.0001910273,-0.00015225823,4.090909004211426,106.56375122070312
1779206107.8085575,2.145663022994995,hold-xy,0,0.0,-0.00033754425,-0.00015576038,0.0,0.0025802301,0.008486437,0.037339486,0.007610189728438854,0.002143286168575287,-0.6448121070861816,-0.7643002271652222,80.30350350577939,0.004265785217285156,334,5.4007396e-05,4.8944727e-05,7.288611114888943e-05,-0.00031449678,-0.00017070325,0.0003578376949205176,-5.734191e-05,4.499212e-05,-0.00022123496,0.00028125243,4.090909004211426,106.56375122070312
1779206107.8292003,2.1663057804107666,hold-xy,0,0.0,0.00024397614,-0.001289016,0.0,0.0025834283,0.00846471,0.037353117,0.00788410846143961,0.000242823371081613,-0.6448996067047119,-0.7642265558242798,80.31583461829483,0.014124155044555664,335,5.7205558e-05,2.7217902e-05,6.335053389400485e-05,-0.00013118131,-0.0007238889,0.000735679073201598,-3.645299e-05,5.181187e-05,-0.00073564047,7.5415956e-06,4.090909004211426,106.56375122070312
1779206107.850143,2.187248468399048,hold-xy,0,0.0,-0.0006172874,-0.0013808064,0.0,0.0025446936,0.008449123,0.037411477,0.008154871873557568,-0.0014048019656911492,-0.6447804570198059,-0.7643229961395264,80.29787732869802,0.004073381423950195,337,1.847092e-05,1.1631288e-05,2.1828004007144072e-05,-0.00046675737,-0.0006575923,0.000806405652267949,-1.4577756e-05,1.624656e-05,-0.0007268476,0.0003492601,4.090909004211426,106.56375122070312
1779206107.8706207,2.207726240158081,hold-xy,0,0.0,-0.0030796598,-0.0032028854,0.0,0.00249743,0.0084212655,0.03738114,0.008671584539115429,-0.0016739401035010815,-0.6448586583137512,-0.7642508149147034,80.30955975236064,0.014340877532958984,338,-2.8792769e-05,-1.6226433e-05,3.305027501176164e-05,-0.0017154397,-0.0012788349,0.0021396616857338674,2.0841448e-05,-2.5650628e-05,-0.001549339,0.0014757033,4.090909004211426,106.5852279663086
1779206107.91292,2.250025510787964,hold-xy,0,0.0,-0.0013102808,-0.001007858,0.0,0.002564272,0.008489007,0.0373371,0.008448679000139236,-0.0005436147330328822,-0.6447967886924744,-0.7643071413040161,80.30024302545183,0.003167390823364258,340,3.8049184e-05,5.1515177e-05,6.404337407797607e-05,-0.0008258021,-0.0005151314,0.000973298230302289,-5.718945e-05,2.8825696e-05,-0.0006469026,0.0007272046,4.090909004211426,106.5852279663086
1779206107.9333131,2.270418643951416,hold-xy,0,0.0,0.0005041259,-0.00096675276,0.0,0.0025846139,0.008480022,0.037319817,0.008324183523654938,-0.0009885190520435572,-0.6448292136192322,-0.7642807364463806,80.30512319651805,0.013375043869018555,341,5.839113e-05,4.2529777e-05,7.223784487074042e-05,2.1084095e-05,-0.0006252452,0.0006256006066723475,-5.175553e-05,5.0395156e-05,-0.0006127652,-0.00012607506,4.090909004211426,106.5852279663086
1779206107.9539273,2.2910327911376953,hold-xy,0,0.0,-0.00020457484,-0.0021770499,0.0,0.002558833,0.008438033,0.037397385,0.009068593382835388,-0.0030159703455865383,-0.6448545455932617,-0.7642455697059631,80.30929808263993,0.013654232025146484,342,3.261026e-05,5.410984e-07,3.261474785013586e-05,-0.00036558424,-0.0010571273,0.001118557070367595,-6.0226434e-06,3.2053853e-05,-0.0011035815,0.00018242205,4.090909004211426,106.5852279663086
1779206107.9745557,2.3116612434387207,hold-xy,0,0.0,0.0012850615,0.0012765434,0.0,0.0026333872,0.00854055,0.037394606,0.007208583410829306,0.002168577164411545,-0.6445355415344238,-0.7645372152328491,80.26209201381698,0.0036115646362304688,343,0.000107164495,0.00010305829,0.00014867831148113563,0.00047332005,0.00026275095,0.0005413593494166709,-0.00011969937,8.818901e-05,0.00033902325,-0.00042205825,4.090909004211426,106.65320587158203
1779206107.994845,2.3319504261016846,hold-xy,0,0.0,-0.0015794643,-0.004170895,0.0,0.0025793584,0.008466659,0.03733528,0.00817699171602726,-0.0005642767646349967,-0.64485102891922,-0.7642643451690674,80.30841448704912,0.013730287551879883,344,5.3135678e-05,2.916716e-05,6.0614550002211675e-05,-0.0012623743,-0.0019956552,0.002361404007500411,-3.7695998e-05,4.7467205e-05,-0.0021796876,0.00090840016,4.090909004211426,106.65320587158203
1779206108.0159197,2.353025197982788,hold-xy,0,0.0,-0.0006690141,-0.00281613,0.0,0.0025945622,0.008466057,0.037407298,0.00839648675173521,-0.0022007045336067677,-0.6446107029914856,-0.7644616961479187,80.27256129370282,0.0033936500549316406,345,6.833952e-05,2.8564595e-05,7.406906331289819e-05,-0.00073845516,-0.0014027135,0.0015852195835507382,-3.970065e-05,6.2530664e-05,-0.0015073166,0.0004908337,4.090909004211426,106.65320587158203
1779206108.057775,2.394880533218384,hold-xy,0,0.0,-0.0009617607,-0.0014414808,0.0,0.0025688382,0.008495051,0.03734979,0.008038816042244434,-0.0004211033519823104,-0.6448134183883667,-0.7642976641654968,80.30280293608962,0.0035414695739746094,346,4.261546e-05,5.755946e-05,7.161821758084506e-05,-0.00070195046,-0.0007733409,0.0010444091791311492,-6.391523e-05,3.2311174e-05,-0.0008805285,0.0005616583,4.090909004211426,106.65320587158203
1779206108.0986629,2.4357683658599854,hold-xy,0,0.0,0.0006934057,-0.001401435,0.0,0.0026182663,0.008466475,0.037352443,0.007862529717385769,-0.00011058120435336605,-0.644717276096344,-0.764380693435669,80.28844310152088,0.013841867446899414,347,9.204354e-05,2.8982759e-05,9.649877399538242e-05,-6.5772037e-06,-0.00082161743,0.0008216437650690196,-4.409408e-05,8.5835454e-05,-0.0008109527,-0.0001321142,4.090909004211426,106.62342071533203
1779206108.1198835,2.456989049911499,hold-xy,0,0.0,-0.0004996698,-0.0019964797,0.0,0.0025661495,0.00843071,0.037424434,0.008295848965644836,-0.001553923706524074,-0.6447831392288208,-0.7643190026283264,80.29828003722353,0.004387378692626953,348,3.992673e-05,-6.781891e-06,4.0498616203168776e-05,-0.00051430106,-0.00092490675,0.0010582807483017426,-4.35125e-08,4.049859e-05,-0.0009983486,0.00035108137,4.090909004211426,106.62342071533203
1779206108.1608942,2.497999668121338,hold-xy,1000,1.525902189669642,0.00080623454,0.00048156147,0.0,0.0026266063,0.008502874,0.037353255,0.007527576293796301,0.0020750665571540594,-0.6444855332374573,-0.7645766139030457,80.25451756387301,0.012247323989868164,349,0.000100383535,6.538164e-05,0.00011979821881462211,0.0001870986,5.6156423e-06,0.00018718285198270196,-8.143025e-05,8.786767e-05,3.720512e-05,-0.00018344808,4.090909004211426,106.62342071533203
1779206108.1812341,2.5183396339416504,hold-xy,1000,1.525902189669642,0.00015857082,0.00015831494,0.0,0.0026030699,0.008494543,0.037373092,0.007723088376224041,0.000597576901782304,-0.6445176005363464,-0.7645503878593445,80.25867427328124,0.0020933151245117188,350,7.684715e-05,5.705096e-05,9.570943799498333e-05,-0.000100582154,-7.802636e-05,0.00012729840049658395,-6.923094e-05,6.6086104e-05,-9.391988e-05,8.5929845e-05,4.090909004211426,106.59105682373047
1779206108.2223048,2.559410333633423,hold-xy,1000,1.525902189669642,0.00047810812,0.0006471981,0.0,0.0026167566,0.008510034,0.03734566,0.007276584394276142,0.002594072138890624,-0.6447650194168091,-0.7643418312072754,80.29675830340447,0.012578725814819336,351,9.053387e-05,7.254165e-05,0.00011601151838834592,6.384053e-05,9.732411e-05,0.00011639414046235953,-8.6762906e-05,7.701214e-05,0.0001066918,-4.6523717e-05,4.090909004211426,106.59105682373047
1779206108.2429411,2.5800466537475586,hold-xy,1000,1.525902189669642,-0.00032572728,-0.00028925246,0.0,0.0025792047,0.008480001,0.03731418,0.007409975863993168,0.00221008132211864,-0.6448317170143127,-0.7642855048179626,80.3065003231637,0.002097606658935547,352,5.298201e-05,4.2509288e-05,6.79274103408924e-05,-0.0003173452,-0.00022141199,0.0003869512054644612,-5.082335e-05,4.5067954e-05,-0.0002716846,0.00027553353,4.090909004211426,106.59105682373047
1779206108.2841299,2.6212353706359863,hold-xy,1000,1.525902189669642,-0.00030526356,-0.000948998,0.0,0.002567825,0.0084482,0.037392173,0.007595554459840059,0.0007485227542929351,-0.6447756886482239,-0.7643336653709412,80.29741663026432,0.012881040573120117,353,4.160218e-05,1.0708347e-05,4.2958236078739034e-05,-0.0003344231,-0.00046875892,0.0005758244041901239,-1.7566548e-05,3.920238e-05,-0.00051841536,0.00025063774,4.090909004211426,106.62214660644531
1779206108.3044236,2.641529083251953,hold-xy,1000,1.525902189669642,-0.0020857202,-0.0013210854,0.0,0.0025087735,0.008438011,0.037385684,0.008732972666621208,-0.002129026921465993,-0.6448275446891785,-0.7642752528190613,80.30498883533845,0.012610912322998047,354,-1.744926e-05,5.187467e-07,1.7456968706152806e-05,-0.0010955808,-0.00047678442,0.0011948308021221205,2.4271794e-06,-1.728741e-05,-0.0006544747,0.0009996416,4.090909004211426,106.62214660644531
1779206108.3255045,2.6626100540161133,hold-xy,1000,1.525902189669642,0.00064302015,0.0008822819,0.0,0.0026065167,0.008495986,0.03736441,0.007894827052950859,-0.0003186121175531298,-0.6446131467819214,-0.7644680738449097,80.27280644806564,0.003070354461669922,355,8.0293976e-05,5.849451e-05,9.934148092981536e-05,0.00019068684,0.00023424116,0.0003020436894777028,-7.12198e-05,6.925655e-05,0.00026309147,-0.0001483687,4.090909004211426,106.62214660644531
1779206108.3662546,2.703360080718994,hold-xy,1000,1.525902189669642,2.5007583e-05,0.0005524568,0.0,0.0025786348,0.008491934,0.03738328,0.008419071324169636,-0.0010697899851948023,-0.6448535919189453,-0.7642590403556824,80.30876825933478,0.003153562545776367,356,5.241204e-05,5.4442324e-05,7.557108290172528e-05,-7.220486e-05,0.00013407576,0.0001522821395969975,-6.2488354e-05,4.2499338e-05,0.00012000753,9.374455e-05,4.090909004211426,106.62214660644531
1779206108.4069688,2.7440743446350098,hold-xy,2000,3.051804379339284,0.0010182674,0.0008218418,0.0,0.0026183017,0.008499137,0.037396155,0.007616385817527771,0.00026647295453585684,-0.6446611881256104,-0.7644304037094116,80.28012779105157,0.013475418090820312,357,9.207893e-05,6.164517e-05,0.00011080910252367696,0.000341004,0.00016495153,0.0003788043387209878,-7.630605e-05,8.0349506e-05,0.00022015578,-0.0003082599,4.090909004211426,106.60771942138672
1779206108.4279964,2.765101909637451,hold-xy,2000,3.051804379339284,-0.0005306274,-9.5813826e-05,0.0,0.002555293,0.008475911,0.037371453,0.008242242969572544,-0.0005736518651247025,-0.6449712514877319,-0.7641621828079224,80.32643168183209,0.001966714859008789,358,2.9070303e-05,3.841892e-05,4.817775171215818e-05,-0.00034226698,-9.869115e-05,0.00035621150003389216,-4.2757463e-05,2.2201244e-05,-0.00015480057,0.0003208168,4.090909004211426,106.60771942138672
1779206108.469123,2.8062283992767334,hold-xy,2000,3.051804379339284,-0.00075243815,-0.00030753523,0.0,0.0025367113,0.008466594,0.037358332,0.008003789000213146,0.00023739312018733472,-0.6448785662651062,-0.7642431259155273,80.31266449881446,0.012691736221313477,359,1.0488555e-05,2.9101968e-05,3.0934354843289625e-05,-0.00042295054,-0.00016102297,0.0004525655351662192,-3.0451918e-05,5.441963e-06,-0.00022989741,0.00038982398,4.090909004211426,106.5835952758789
1779206108.4894564,2.82656192779541,hold-xy,2000,3.051804379339284,-0.0006341783,0.00048971147,0.0,0.0025366237,0.008485931,0.0373482,0.0082046864554286,-0.0003480612940620631,-0.6448712944984436,-0.7642470598220825,80.31146239465164,0.012766122817993164,360,1.04010105e-05,4.843902e-05,4.9543107255782296e-05,-0.00029736175,0.00017362947,0.00034434169201214454,-4.949855e-05,2.1007545e-06,0.00012110936,0.00032234102,4.090909004211426,106.5835952758789
1779206108.509769,2.846874475479126,hold-xy,3000,4.577706569008926,-0.0009944014,-0.001914127,0.0,0.002509539,0.008422218,0.0373949,0.008674445562064648,-0.002266857773065567,-0.6450037956237793,-0.7641267776489258,80.33146934959697,0.012816429138183594,361,-1.6683713e-05,-1.527369e-05,2.261928044830744e-05,-0.000609166,-0.00082178117,0.0010229406302749906,1.7858736e-05,-1.3881549e-05,-0.00091241667,0.00046249683,4.090909004211426,106.5835952758789
1779206108.530926,2.8680315017700195,hold-xy,3000,4.577706569008926,-0.00034028516,0.00031624828,0.0,0.0025360463,0.008486908,0.037383564,0.007818329147994518,0.00016013978165574372,-0.6450474262237549,-0.7641025185585022,80.33799333780294,0.003466367721557617,362,9.8235905e-06,4.9415976e-05,5.038295028160393e-05,-0.0001657492,6.0897204e-05,0.00017658217794997767,-5.036376e-05,1.3904773e-06,3.2214743e-05,0.00017361877,4.090909004211426,106.5835952758789
1779206108.5530467,2.8901522159576416,hold-xy,3000,4.577706569008926,-0.0012440983,-0.0035283465,0.0,0.002510433,0.008430595,0.03738407,0.008533145301043987,-0.00225071026943624,-0.6448109745979309,-0.7642911076545715,80.30257607058147,0.015407323837280273,363,-1.5789643e-05,-6.897375e-06,1.7230397518298277e-05,-0.00087085285,-0.0016169405,0.0018365405278425913,9.458506e-06,-1.4402196e-05,-0.001740527,0.00058604364,4.090909004211426,106.5835952758789
1779206108.5735419,2.910647392272949,hold-xy,3000,4.577706569008926,0.0005155859,-0.0012728003,0.0,0.002575064,0.008469448,0.03739076,0.0076110451482236385,0.0006642095977440476,-0.6445946097373962,-0.7644863724708557,80.27024614106415,0.0053212642669677734,365,4.884135e-05,3.195647e-05,5.836688782081945e-05,2.4428999e-05,-0.00075070455,0.00075110192819719,-3.9751052e-05,4.2738124e-05,-0.0007357778,-0.00015094761,4.090909004211426,106.59632110595703
1779206108.5938997,2.9310052394866943,hold-xy,3000,4.577706569008926,-0.0009803703,-0.00070233084,0.0,0.0025356729,0.008479963,0.037373,0.00805976614356041,0.00029931357130408287,-0.644894003868103,-0.764229416847229,80.31498436647944,0.00540924072265625,366,9.45013e-06,4.2471103e-05,4.350976530641655e-05,-0.0005659012,-0.00036987354,0.0006760552094457257,-4.3455595e-05,2.170461e-06,-0.0004598044,0.00049561134,4.090909004211426,106.59632110595703
1779206108.6141775,2.9512829780578613,hold-xy,3000,4.577706569008926,-0.00058654806,-0.003262948,0.0,0.0025297236,0.008436082,0.03739979,0.008604339323937893,-0.0021862362045794725,-0.6449902057647705,-0.7641392350196838,80.32941942056023,0.015533924102783203,367,3.5008416e-06,-1.4100224e-06,3.7741296639685006e-06,-0.00057191896,-0.0015555003,0.0016573088532654953,8.0190307e-07,3.6879542e-06,-0.0016294692,0.00030249392,4.090909004211426,106.59632110595703
1779206108.6358364,2.9729418754577637,hold-xy,3000,4.577706569008926,0.000900057,-0.0013178587,0.0,0.0025888644,0.0084660575,0.037381466,0.00793205201625824,-0.0005420588422566652,-0.6447838544845581,-0.7643236517906189,80.29837902549464,0.006405830383300781,369,6.264169e-05,2.8565526e-05,6.884744144936026e-05,0.00017594732,-0.0007967572,0.0008159530947927801,-3.8713206e-05,5.6932044e-05,-0.00075571233,-0.00030769838,4.090909004211426,106.59632110595703
1779206108.6567419,2.993847370147705,hold-xy,3000,4.577706569008926,-0.0008180902,-0.00075377506,0.0,0.0025431896,0.008477297,0.03735024,0.00814890582114458,0.00012166523083578795,-0.6448469161987305,-0.7642682790756226,80.30787746281582,0.0056383609771728516,370,1.6966835e-05,3.9804727e-05,4.326996252189128e-05,-0.0005090742,-0.00040215557,0.0006487569968840047,-4.2093012e-05,1.0023383e-05,-0.00048212006,0.00043410357,4.090909004211426,106.59632110595703
1779206108.6771786,3.014284133911133,hold-xy,4000,6.103608758678568,-0.0010995719,-0.0030012606,0.0,0.002515329,0.008407531,0.037378695,0.008674388751387596,-0.0026394135784357786,-0.6447483897209167,-0.7643411755561829,80.29330211193327,0.005755901336669922,372,-1.089368e-05,-2.9960647e-05,3.1879659669819106e-05,-0.00076769415,-0.001311549,0.0015197088994711094,3.1368447e-05,-5.6862204e-06,-0.0014222092,0.00053557043,4.090909004211426,106.5875015258789
1779206108.7180784,3.0551838874816895,hold-xy,4000,6.103608758678568,-0.00039174303,-0.0015938672,0.0,0.0025347136,0.008427178,0.037421994,0.00785045139491558,-0.0009945813799276948,-0.6447842717170715,-0.7643235921859741,80.29845601719374,0.015852689743041992,373,8.490868e-06,-1.03143975e-05,1.3359701802488931e-05,-0.00034859352,-0.00072674314,0.0008060229425112808,8.736045e-06,1.010758e-05,-0.0007750935,0.00022114046,4.090909004211426,106.5875015258789
1779206108.7389946,3.0761001110076904,hold-xy,4000,6.103608758678568,0.0007934888,0.00012199256,0.0,0.0025868453,0.008471255,0.037412476,0.007452000863850117,0.00043347853352315724,-0.644724428653717,-0.7643786668777466,80.28966437939337,0.005097627639770508,375,6.062258e-05,3.3763237e-05,6.939058789994553e-05,0.0002497919,-9.120346e-05,0.0002659211511119428,-4.350455e-05,5.4059296e-05,-4.7765097e-05,-0.00026159617,4.090909004211426,106.5875015258789
1779206108.7599752,3.097080707550049,hold-xy,4000,6.103608758678568,0.0002718767,-0.0011308437,0.0,0.0025701523,0.008436421,0.03742746,0.007962669245898724,-0.0014073019847273827,-0.644636869430542,-0.7644462585449219,80.27638386085574,0.005736589431762695,376,4.3929555e-05,-1.071021e-06,4.3942609766474374e-05,-7.1335715e-05,-0.00057758077,0.0005819693493724123,-6.363876e-06,4.347935e-05,-0.0005813315,-2.7239977e-05,4.090909004211426,106.5875015258789
1779206108.7804108,3.117516279220581,hold-xy,4000,6.103608758678568,-0.00068187696,-0.00027892,0.0,0.0025458466,0.008455366,0.037374623,0.008015967905521393,0.00020465836860239506,-0.6448237299919128,-0.7642892599105835,80.30443433509565,0.005842924118041992,377,1.9623898e-05,1.7873943e-05,2.6543834990077027e-05,-0.00040861533,-0.00012473436,0.00042722961234868895,-2.0923562e-05,1.6333395e-05,-0.0001917689,0.00038177197,4.090909004211426,106.5941390991211
1779206108.8212166,3.1583220958709717,hold-xy,5000,7.629510948348211,-0.0008122913,-0.00036109905,0.0,0.0025301706,0.008449951,0.037396476,0.008754472248256207,-0.0029122086707502604,-0.6448163986206055,-0.7642818093299866,80.30359496609984,0.01622796058654785,378,3.9478764e-06,1.2459233e-05,1.3069744476440088e-05,-0.00044062265,-0.00014071219,0.0004625453774997971,-1.2946171e-05,1.7929995e-06,-0.00021291495,0.00041062813,4.090909004211426,106.5941390991211
1779206108.8419278,3.1790332794189453,hold-xy,5000,7.629510948348211,-0.00064316683,-0.00024804758,0.0,0.0025269836,0.008449892,0.037385933,0.008564799092710018,-0.0025589950382709503,-0.6448139548301697,-0.7642872929573059,80.30312188715483,0.006437063217163086,380,7.6089054e-07,1.2399629e-05,1.2422952283141705e-05,-0.0003397811,-9.908477e-05,0.00035393360528962123,-1.23506325e-05,-1.3385206e-06,-0.00015490036,0.00031823711,4.090909004211426,106.5941390991211
1779206108.8626564,3.1997618675231934,hold-xy,5000,7.629510948348211,0.0016584535,0.0020830776,0.0,0.002565452,0.008478852,0.037363395,0.008250927552580833,-0.00016262379358522594,-0.6447484493255615,-0.7643502950668335,80.29305780183222,0.016977548599243164,381,3.922917e-05,4.1360036e-05,5.700508890014722e-05,0.0008948945,0.0007834121,0.0011893571934443099,-4.738227e-05,3.169386e-05,0.00092308305,-0.0007499921,4.090909004211426,106.5941390991211
1779206108.8834164,3.220521926879883,hold-xy,5000,7.629510948348211,-0.00020187334,0.0005655712,0.0,0.0025021285,0.008449811,0.03737716,0.00855313055217266,-0.0024215278681367636,-0.64475017786026,-0.7643417716026306,80.29351404699729,0.006998300552368164,383,-2.4094246e-05,1.2318604e-05,2.7060686171063865e-05,8.421834e-06,0.00026495886,0.0002650926610987703,-8.079942e-06,-2.5826252e-05,0.00026258573,3.6371046e-05,4.090909004211426,106.61266326904297
1779206108.90399,3.241095542907715,hold-xy,5000,7.629510948348211,0.0006010359,0.00038200346,0.0,0.0025242837,0.0084452685,0.037388284,0.008318675681948662,-0.0014608715428039432,-0.6450037360191345,-0.7641327381134033,80.33133892239488,0.0072634220123291016,384,-1.9390136e-06,7.7765435e-06,8.014636334877747e-06,0.00033317556,0.00011837523,0.0003535797566685509,-7.340424e-06,-3.217543e-06,0.00017265067,-0.0003085618,4.090909004211426,106.61266326904297
1779206108.9244275,3.26153302192688,hold-xy,5000,7.629510948348211,0.0006239643,0.00073942344,0.0,0.0025324626,0.0084574055,0.037384406,0.007834237068891525,0.000507888849824667,-0.6449455618858337,-0.7641881704330444,80.32279259731328,0.0074005126953125,385,6.2398612e-06,1.991354e-05,2.086827558515716e-05,0.00035409065,0.0002622237,0.0004406148540201352,-2.0679081e-05,2.8036595e-06,0.00031801403,-0.000304973,4.090909004211426,106.61266326904297
1779206108.9652317,3.302337169647217,hold-xy,5000,7.629510948348211,0.0009358991,0.00071831886,0.0,0.0025587855,0.008461676,0.037368,0.008102526888251305,0.0001012915454339236,-0.6448372602462769,-0.7642770409584045,80.30643355459546,0.00717616081237793,387,3.2562762e-05,2.4183653e-05,4.056085128264887e-05,0.00044033624,0.00021477963,0.0004899247712835132,-2.9321243e-05,2.8025832e-05,0.00028585634,-0.00039788499,4.085630416870117,106.61266326904297
1779206108.9856014,3.322706937789917,hold-xy,6000,9.155413138017853,-0.0008863139,-0.001261327,0.0,0.0025289916,0.008437459,0.037408806,0.008285194635391235,-0.001397718209773302,-0.6449204087257385,-0.7642036080360413,80.31884069537769,0.017129182815551758,388,2.768822e-06,-3.259629e-08,2.7690138795566808e-06,-0.0005498236,-0.000547077,0.0007756282962661581,-4.3348754e-07,2.7348724e-06,-0.0006317472,0.00044999414,4.085630416870117,106.66134643554688
1779206109.0263264,3.363431930541992,hold-xy,6000,9.155413138017853,0.000506807,-8.168863e-06,0.0,0.0025923336,0.008471439,0.037341554,0.007706359960138798,0.0011866505956277251,-0.6448952555656433,-0.7642312049865723,80.31548614467366,0.01731133460998535,389,6.6110864e-05,3.3946708e-05,7.431706124722874e-05,8.3827996e-05,-0.00013152129,0.0001559646791439224,-4.4584296e-05,5.94581e-05,-0.000115545176,-0.000104758255,4.085630416870117,106.66134643554688
1779206109.0675538,3.4046592712402344,hold-xy,6000,9.155413138017853,0.0005341987,-0.00022135972,0.0,0.0025948193,0.008453675,0.037403706,0.008233015425503254,-0.0020605914760380983,-0.6445509195327759,-0.7645144462585449,80.26359108348424,0.006621360778808594,391,6.8596564e-05,1.6182661e-05,7.047954995745385e-05,7.304301e-05,-0.00019471301,0.0002079625873083116,-2.7550326e-05,6.487177e-05,-0.00017955567,-0.00010491995,4.090909004211426,106.66134643554688
1779206109.108041,3.4451465606689453,hold-xy,7000,10.681315327687495,1.406268e-06,0.0010222006,0.0,0.0025838232,0.008502242,0.037368387,0.008186274208128452,-0.0003793682553805411,-0.644733726978302,-0.7643633484840393,80.2908377549829,0.0166323184967041,392,5.760044e-05,6.47502e-05,8.666256062158925e-05,-5.711251e-05,0.00034178543,0.0003465243451145158,-7.3536896e-05,4.585547e-05,0.00032725802,0.000113935545,4.090909004211426,106.67062377929688
1779206109.150208,3.4873135089874268,hold-xy,7000,10.681315327687495,0.00017770939,0.00037547637,0.0,0.0025853636,0.00847878,0.037374184,0.007885237224400043,-0.00013792510435450822,-0.6448525190353394,-0.764266312122345,80.30871223298324,0.017965078353881836,393,5.9140846e-05,4.1288324e-05,7.212742647136102e-05,-2.8661714e-05,6.688043e-05,7.276321693490501e-05,-5.0654842e-05,5.1346397e-05,6.1101084e-05,3.9511302e-05,4.090909004211426,106.67062377929688
1779206109.1743548,3.511460304260254,hold-xy,7000,10.681315327687495,0.0008305133,0.00024455448,0.0,0.0026118224,0.008470064,0.03737817,0.007303417194634676,0.0006924066692590714,-0.6447407007217407,-0.7643661499023438,80.29218706356731,0.008476734161376953,394,8.559972e-05,3.2572076e-05,9.158740017536977e-05,0.00021592995,-3.0926043e-05,0.00021813335877473377,-4.6539808e-05,7.8881545e-05,5.92773e-06,-0.0002180528,4.085630416870117,106.65520477294922
1779206109.196339,3.533444404602051,hold-xy,7000,10.681315327687495,0.0007261486,0.0018338105,0.0,0.0026206719,0.00851712,0.037340477,0.007551773451268673,0.0018494821852073073,-0.6447897553443909,-0.764320433139801,80.29999152036989,0.009238958358764648,395,9.444915e-05,7.962808e-05,0.00012353651831648095,0.00027624963,0.00064355216,0.0007003379677771478,-9.440337e-05,7.968236e-05,0.0006808968,-0.00016386842,4.085630416870117,106.65520477294922
1779206109.2391026,3.5762081146240234,hold-xy,7000,10.681315327687495,0.00046199275,0.0005893251,0.0,0.0026045386,0.008474885,0.037360553,0.007671637926250696,-0.00018927693599835038,-0.6446703672409058,-0.7644221186637878,80.28142565979154,0.00868844985961914,396,7.831585e-05,3.73926e-05,8.678466982184584e-05,8.1633356e-05,0.00015795801,0.0001778053409516581,-5.007639e-05,7.0879716e-05,0.00016947158,-5.3797095e-05,4.085630416870117,106.65520477294922
1779206109.260894,3.5979995727539062,hold-xy,7000,10.681315327687495,-0.0016208922,-0.00046360612,0.0,0.0025405325,0.008457557,0.03739964,0.008147369138896465,-0.001005104393698275,-0.6444922685623169,-0.7645667791366577,80.25464097058227,0.009852886199951172,397,1.4309771e-05,2.0065345e-05,2.4645235648772606e-05,-0.0008737629,-0.00014143751,0.0008851362237729802,-2.2198008e-05,1.0706824e-05,-0.00028729808,0.0008372132,4.085630416870117,106.65520477294922
1779206109.3018436,3.638949155807495,hold-xy,7000,10.681315327687495,-0.00053764245,0.0002369554,0.0,0.0025674803,0.00847475,0.037384067,0.007692321203649044,0.0005827993736602366,-0.6443516612052917,-0.7646905183792114,80.2338047703062,0.020140647888183594,398,4.125759e-05,3.725849e-05,5.5591221867710886e-05,-0.00034797235,6.921414e-05,0.0003547891566864715,-4.371699e-05,3.4339606e-05,9.18522e-06,0.00035467025,4.085630416870117,106.62628173828125
1779206109.3435626,3.6806681156158447,hold-xy,8000,12.207217517357137,0.00020038823,-0.00041041776,0.0,0.0025885887,0.008437512,0.03740348,0.008366351015865803,-0.0020634159445762634,-0.6446003317832947,-0.764471173286438,80.27097317804281,0.020127058029174805,399,6.2366016e-05,2.0489097e-08,6.236601848301843e-05,-9.18399e-05,-0.00021924046,0.00023769928791022148,-1.0559349e-05,6.14656e-05,-0.00023160725,5.3469892e-05,4.085630416870117,106.62628173828125
