wall_time_s,elapsed_s,mode,thrust_raw,thrust_percent,roll_cmd_deg,pitch_cmd_deg,yawrate_cmd_deg_s,mocap_x,mocap_y,mocap_z,mocap_qx,mocap_qy,mocap_qz,mocap_qw,yaw_deg,mocap_age_s,mocap_frame_count,drift_x_m,drift_y_m,horizontal_drift_m,velocity_x_m_s,velocity_y_m_s,horizontal_speed_m_s,body_error_x_m,body_error_y_m,body_velocity_x_m_s,body_velocity_y_m_s,battery_v,estimate_z
1779205689.2969177,0.0006439685821533203,hold-xy,0,0.0,0.0,-0.0,0.0,0.0037804348,0.0048526344,0.03773494,0.002244368428364396,-0.01825663261115551,0.6471084356307983,0.7621760368347168,80.68215190959039,0.05545377731323242,51,0.0,0.0,0.0,0.0,0.0,0.0,0.0,0.0,0.0,0.0,4.1331377029418945,106.18640899658203
1779205689.3193443,0.023070573806762695,hold-xy,0,0.0,-0.00026689854,0.00010428928,0.0,0.0037618894,0.0048636077,0.037761882,0.0021408512257039547,-0.019414769485592842,0.6473965644836426,0.761902928352356,80.730070484808,0.005572080612182617,52,-1.8545426e-05,1.0973308e-05,2.154869692481133e-05,-7.694314e-05,4.5527173e-05,8.940341564912966e-05,-7.842595e-06,-2.0070875e-05,3.2538155e-05,8.327208e-05,4.1331377029418945,106.18640899658203
1779205689.401354,0.10508036613464355,hold-xy,0,0.0,4.08918e-05,0.00025486256,0.0,0.003784651,0.004873808,0.03776217,0.0020096004009246826,-0.018946342170238495,0.6473485231399536,0.761955976486206,80.72102175067158,0.006334781646728516,53,4.2160973e-06,2.1173619e-05,2.158929375770354e-05,3.0185362e-05,6.953305e-05,7.580238421331109e-05,-2.1576372e-05,7.4685795e-07,7.349035e-05,-1.8578754e-05,4.1331377029418945,106.17352294921875
1779205689.482468,0.18619418144226074,hold-xy,0,0.0,-0.0004994427,6.610851e-05,0.0,0.0037418585,0.004869313,0.03777294,0.002239273162558675,-0.020072489976882935,0.6472126841545105,0.7620419859886169,80.70508385213236,0.010016202926635742,54,-3.8576312e-05,1.667859e-05,4.2027457829419635e-05,-0.00014466292,3.1257834e-05,0.0001480013935949468,-1.0228899e-05,-4.0763673e-05,7.4820055e-06,0.00014781216,4.1331377029418945,106.14816284179688
1779205689.5889099,0.2926361560821533,hold-xy,0,0.0,-0.00029942553,0.00018890022,0.0,0.0037535373,0.0048789466,0.037755553,0.0020694248378276825,-0.019838280975818634,0.6474442481994629,0.7618517279624939,80.73900637423219,0.018990278244018555,55,-2.6897527e-05,2.6312191e-05,3.762722896307343e-05,-6.531748e-05,5.1532093e-05,8.319813517195536e-05,-2.1640553e-05,-3.0781404e-05,4.034873e-05,7.2759256e-05,4.1331377029418945,106.17822265625
1779205689.6701026,0.3738288879394531,hold-xy,0,0.0,0.00035272044,0.00022703083,0.0,0.0038049808,0.0048758634,0.03775156,0.0016750841168686748,-0.018440930172801018,0.6472809910774231,0.7620265483856201,80.70901774437132,0.012857913970947266,56,2.4545938e-05,2.3229048e-05,3.379484804674252e-05,0.00013100862,2.5480516e-05,0.00013346353774238182,-2.6887214e-05,2.0473628e-05,4.6297384e-05,-0.00012517614,4.1331377029418945,106.2040023803711
1779205689.8202858,0.5240120887756348,hold-xy,0,0.0,0.00029097026,0.00020279651,0.0,0.0038065333,0.0048760194,0.03774293,0.001713968231342733,-0.018645064905285835,0.6473218202590942,0.7619867920875549,80.71593445372946,0.00704646110534668,57,2.6098453e-05,2.3385044e-05,3.504268094585601e-05,9.469174e-05,1.8136365e-05,9.641293577189217e-05,-2.7289163e-05,2.1983884e-05,3.3175347e-05,-9.052541e-05,4.1331377029418945,106.17108917236328
1779205689.8611906,0.5649168491363525,hold-xy,0,0.0,0.00029144052,0.00021680654,0.0,0.0038089594,0.004877023,0.037753843,0.001995928818359971,-0.019027849659323692,0.6473073363304138,0.7619889974594116,80.71515534916585,0.01724839210510254,58,2.8524548e-05,2.4388544e-05,3.752933401294728e-05,8.998981e-05,2.2500742e-05,9.276016768577474e-05,-2.8671246e-05,2.4215915e-05,3.6725156e-05,-8.5180465e-05,4.1331377029418945,106.17108917236328
1779205689.9470885,0.6508147716522217,hold-xy,0,0.0,6.788118e-05,-0.00012119926,0.0,0.0037894435,0.004851968,0.03771876,0.0020948832388967276,-0.020010357722640038,0.647082507610321,0.7621544599533081,80.68530469010446,0.008455038070678711,59,9.008683e-06,-6.663613e-07,9.03329474366405e-06,1.1628799e-06,-6.362819e-05,6.363881742112008e-05,-8.0054286e-07,8.997752e-06,-6.2600986e-05,-1.144621e-05,4.1331377029418945,106.13988494873047
1779205690.05066,0.7543861865997314,hold-xy,0,0.0,9.6391545e-05,-0.00025818383,0.0,0.0037900247,0.0048360797,0.037688106,0.0020528296008706093,-0.017924243584275246,0.6469264030456543,0.7623389959335327,80.6536018981403,0.015300989151000977,60,9.589829e-06,-1.6554724e-05,1.9131746165473007e-05,2.616474e-06,-9.381848e-05,9.385496111789408e-05,1.4777536e-05,1.2151055e-05,-9.2148075e-05,-1.7818136e-05,4.1331377029418945,106.15122985839844
1779205690.1528275,0.8565537929534912,hold-xy,0,0.0,0.00016269514,0.00010054782,0.0,0.0038015088,0.004862407,0.03775001,0.0018730650190263987,-0.01902688853442669,0.6471554040908813,0.762118399143219,80.69234953587467,0.01581263542175293,61,2.1073967e-05,9.772833e-06,2.3229729839268008e-05,3.5722725e-05,1.2023127e-05,3.7691758963953325e-05,-1.3052576e-05,1.9215895e-05,1.764247e-05,-3.3307835e-05,4.1331377029418945,106.13201141357422
1779205690.2336922,0.9374184608459473,hold-xy,0,0.0,0.00030798814,-0.0005333758,0.0,0.00380655,0.0048100604,0.03772385,0.0022051117848604918,-0.018347399309277534,0.6468731164932251,0.762373685836792,80.64713244528853,0.014089584350585938,62,2.6115216e-05,-4.2574015e-05,4.994548260099273e-05,4.331825e-05,-0.0001817338,0.00018682518499450293,3.7763944e-05,3.2686934e-05,-0.00017227803,-7.2276736e-05,4.1331377029418945,106.1715316772461
1779205690.316506,1.0202322006225586,hold-xy,0,0.0,6.0465645e-05,-0.00017986106,0.0,0.0037925243,0.004834503,0.037711143,0.0016734428936615586,-0.01716577634215355,0.6471218466758728,0.7621914744377136,80.68034668123079,0.0039691925048828125,63,1.2089498e-05,-1.8131454e-05,2.179232799226096e-05,-1.4953548e-05,-4.83108e-05,5.0572148244254264e-05,1.5934322e-05,1.4866169e-05,-5.0094724e-05,6.9326015e-06,4.1331377029418945,106.21228790283203
1779205690.418462,1.1221883296966553,hold-xy,0,0.0,-0.00012349934,-0.00039570476,0.0,0.003771551,0.0048147645,0.03772495,0.002055393299087882,-0.01786917820572853,0.6471043825149536,0.7621892094612122,80.68015468419784,0.0015778541564941406,64,-8.883886e-06,-3.7869904e-05,3.889798216117482e-05,-7.076617e-05,-9.05658e-05,0.00011493482681796931,3.8808717e-05,-2.6337502e-06,-0.00010083058,5.5165292e-05,4.1331377029418945,106.26870727539062
1779205690.5004487,1.2041749954223633,hold-xy,0,0.0,-0.0004389243,-0.0005150697,0.0,0.0037412425,0.004804992,0.037666783,0.0017494350904598832,-0.017392510548233986,0.6466724872589111,0.762567400932312,80.61358722877603,0.0016558170318603516,65,-3.9192382e-05,-4.7642272e-05,6.169140122652988e-05,-0.00016054466,-9.918847e-05,0.0001887139155673884,5.339635e-05,-3.0897558e-05,-0.00012404397,0.00014221825,4.1331377029418945,106.22013854980469
1779205690.6017735,1.305499792098999,hold-xy,0,0.0,0.00015657512,-0.0001369302,0.0,0.003791999,0.00482487,0.03769949,0.0017712422413751483,-0.017205312848091125,0.647101104259491,0.7622079849243164,80.6773359077349,0.001218557357788086,66,1.1564232e-05,-2.7764589e-05,3.0076632728457937e-05,3.725198e-05,-1.08314525e-05,3.87947202927219e-05,2.5524527e-05,1.590919e-05,-4.6537843e-06,-3.851458e-05,4.1331377029418945,106.20606231689453
1779205690.6834855,1.387211799621582,hold-xy,0,0.0,0.00016320118,-0.00014869185,0.0,0.0037938869,0.0048235324,0.03767227,0.0018258418422192335,-0.01757790334522724,0.6471829414367676,0.7621298432350159,80.69097354078094,0.018525362014770508,67,1.3452023e-05,-2.9101968e-05,3.206059024136471e-05,3.4869732e-05,-1.3811541e-05,3.750542496852781e-05,2.6542712e-05,1.7982376e-05,-7.989143e-06,-3.664465e-05,4.1331377029418945,106.21138763427734
1779205690.744806,1.4485323429107666,hold-xy,0,0.0,0.0001980984,9.4529794e-05,0.0,0.003800935,0.004840348,0.037681345,0.0018771062605082989,-0.017959490418434143,0.6470160484313965,0.7622624635696411,80.66727435622977,0.00875544548034668,68,2.0500273e-05,-1.2286473e-05,2.390017933913235e-05,5.4152253e-05,6.129289e-05,8.178805273330099e-05,8.799363e-06,2.2221382e-05,6.9263304e-05,-4.349574e-05,4.1331377029418945,106.21138763427734
1779205690.846995,1.5507214069366455,hold-xy,0,0.0,0.00013720247,1.691551e-06,0.0,0.0037971884,0.0048364,0.03766922,0.0020412281155586243,-0.01816660538315773,0.6470591425895691,0.762220561504364,80.67447353281135,0.016954421997070312,69,1.6753562e-05,-1.623435e-05,2.3328864826579197e-05,2.5947726e-05,3.0304089e-05,3.98951410377062e-05,1.3304985e-05,1.916281e-05,3.4108238e-05,-2.0694211e-05,4.1331377029418945,106.22260284423828
1779205690.9097745,1.6135008335113525,hold-xy,0,0.0,-2.084879e-05,5.0219533e-05,0.0,0.0037877234,0.0048429477,0.037713945,0.0020710218232125044,-0.01762145757675171,0.6470676064491272,0.7622262239456177,80.67370439914417,0.013082027435302734,70,7.2885305e-06,-9.686686e-06,1.2122481578959252e-05,-2.4438721e-05,5.0683913e-05,5.626819939231479e-05,8.377487e-06,8.761979e-06,4.6053483e-05,3.2329343e-05,4.1331377029418945,106.2515869140625
1779205690.9916453,1.6953716278076172,hold-xy,0,0.0,-0.00043984962,0.000115324205,0.0,0.0037512016,0.004857128,0.037710533,0.00198752386495471,-0.019899999722838402,0.6473401784896851,0.7619388103485107,80.7236408789467,0.0017559528350830078,71,-2.9233284e-05,4.4936314e-06,2.9576640093405488e-05,-0.00013467055,8.112507e-05,0.00015721779546129324,2.7744136e-07,-2.9575338e-05,5.8355705e-05,0.00014598647,4.1331377029418945,106.28302764892578
1779205691.0990746,1.8028008937835693,hold-xy,1000,1.525902189669642,0.00010751887,-7.394847e-05,0.0,0.0037884656,0.004837451,0.037722234,0.0017545854207128286,-0.01680031418800354,0.6470975875854492,0.762220025062561,80.67537654217848,0.01698589324951172,72,8.030795e-06,-1.5183352e-05,1.7176374340796614e-05,2.6981223e-05,-7.2378134e-06,2.793514493102991e-05,1.3681509e-05,1.0384804e-05,-2.7704632e-06,-2.7797425e-05,4.1331377029418945,106.24172973632812
1779205691.1819992,1.885725498199463,hold-xy,1000,1.525902189669642,-1.526258e-05,-0.00017704556,0.0,0.0037775086,0.004829691,0.03772389,0.0018630432896316051,-0.017039606347680092,0.6470742225646973,0.7622343301773071,80.67267092792537,0.0016384124755859375,73,-2.9262155e-06,-2.2943597e-05,2.3129448772334874e-05,-1.4562143e-05,-2.875655e-05,3.223344882556624e-05,2.3114513e-05,8.31046e-07,-3.0736497e-05,9.708905e-06,4.1331377029418945,106.18611145019531
1779205691.2682898,1.9720160961151123,hold-xy,2000,3.051804379339284,-0.00017804696,-3.5803012e-05,0.0,0.003765313,0.0048420536,0.03773357,0.0019655092619359493,-0.017322460189461708,0.6471090316772461,0.7621980905532837,80.67888107856885,0.002343893051147461,74,-1.5121885e-05,-1.0580756e-05,1.8455996503524587e-05,-5.2942767e-05,2.3205668e-05,5.780518635453019e-05,1.2890303e-05,-1.3208478e-05,1.4324252e-05,5.600228e-05,4.1331377029418945,106.18611145019531
1779205691.370416,2.0741422176361084,hold-xy,3000,4.577706569008926,-0.00027113222,3.8241884e-05,0.0,0.0037555331,0.004850991,0.037738692,0.0018796504009515047,-0.01725378818809986,0.6471711993217468,0.7621471285820007,80.68801223497582,0.010947227478027344,75,-2.4901703e-05,-1.6433187e-06,2.4955867352574224e-05,-6.8431385e-05,4.491325e-05,8.18538620545426e-05,5.6510144e-06,-2.4307641e-05,3.3248478e-05,7.479701e-05,4.1331377029418945,106.1528091430664
1779205691.5573647,2.2610909938812256,hold-xy,4000,6.103608758678568,-0.00039176331,1.43023535e-05,0.0,0.0037353467,0.00485382,0.03771635,0.0021422570571303368,-0.01981743983924389,0.646975040435791,0.762250542640686,80.66832451693156,0.005690574645996094,76,-4.508812e-05,1.1855736e-06,4.510370302501893e-05,-7.940954e-05,3.5854693e-05,8.712883648924053e-05,6.141126e-06,-4.4683675e-05,2.2503991e-05,8.417247e-05,4.1331377029418945,106.13162994384766
1779205691.6587198,2.3624460697174072,hold-xy,5000,7.629510948348211,-0.0005219544,0.00017291342,0.0,0.0037222542,0.0048710443,0.0377319,0.001808947417885065,-0.01922883838415146,0.6475818157196045,0.761751115322113,80.7573184167239,0.014983415603637695,77,-5.8180653e-05,1.8409919e-05,6.102387565426154e-05,-9.825086e-05,8.1226666e-05,0.00012747941920800403,-8.8261295e-06,-6.0382226e-05,6.439139e-05,0.0001100216,4.1331377029418945,106.1206283569336
1779205691.720268,2.423994302749634,hold-xy,5000,7.629510948348211,0.00047461817,0.0001730413,0.0,0.0037941635,0.004862381,0.03776005,0.0013931036228314042,-0.01736646518111229,0.6474722027778625,0.7618898749351501,80.73385664666527,0.00019431114196777344,78,1.3728626e-05,9.746756e-06,1.6836699152960257e-05,0.00021382248,2.2813088e-05,0.00021503602151195215,-1.1830164e-05,1.1980053e-05,5.694524e-05,-0.00020735894,4.1331377029418945,106.09505462646484
1779205691.8016565,2.505382776260376,hold-xy,5000,7.629510948348211,-8.809249e-05,0.00030615035,0.0,0.003765069,0.0048792847,0.037751377,0.0017382592195644975,-0.019149143248796463,0.6474214196205139,0.761889636516571,80.73289662466601,0.01448369026184082,79,-1.5365891e-05,2.6650261e-05,3.076275346523984e-05,1.9594154e-05,9.154472e-05,9.361820281385088e-05,-2.382795e-05,-1.9457024e-05,9.3505296e-05,-4.5963116e-06,4.1331377029418945,106.04875183105469
1779205691.8838787,2.5876049995422363,hold-xy,6000,9.155413138017853,-0.00022900145,-7.643017e-06,0.0,0.0037501492,0.0048598167,0.037742227,0.0019409096566960216,-0.019349465146660805,0.6473771333694458,0.7619216442108154,80.7269616183463,0.009999752044677734,80,-3.0285679e-05,7.1823597e-06,3.1125690175611084e-05,-3.790599e-05,-3.2768876e-06,3.804736572011718e-05,-2.2082818e-06,-3.1047257e-05,-9.342213e-06,3.6882586e-05,4.127859115600586,106.11089324951172
1779205691.967786,2.6715123653411865,hold-xy,7000,10.681315327687495,-6.3901316e-05,0.00016402658,0.0,0.0037646666,0.0048719984,0.03776862,0.0020113533828407526,-0.019222993403673172,0.6473736763000488,0.7619276642799377,80.72590601159497,0.002485036849975586,81,-1.5768223e-05,1.9364059e-05,2.4972056647227884e-05,2.1104599e-05,3.7680216e-05,4.318799464012063e-05,-1.6569775e-05,-1.8682776e-05,4.0588857e-05,-1.47562805e-05,4.127859115600586,106.1710205078125
1779205692.0291204,2.732846736907959,hold-xy,7000,10.681315327687495,-0.00029916834,0.00027174,0.0,0.0037525054,0.0048820265,0.037733886,0.0018440654966980219,-0.01876041293144226,0.6474754810333252,0.7618531584739685,80.73945035459461,0.012230157852172852,82,-2.7929433e-05,2.9392075e-05,4.054561875950786e-05,-5.5946228e-05,8.469072e-05,0.00010150122368691925,-2.4514475e-05,-3.229532e-05,7.458381e-05,6.884586e-05,4.127859115600586,106.1710205078125
1779205692.112828,2.816554307937622,hold-xy,7000,10.681315327687495,0.00041389943,-9.9468474e-05,0.0,0.00380525,0.004844779,0.037693173,0.0018645337549969554,-0.017636461183428764,0.6469065546989441,0.762363076210022,80.64962046570561,0.004602193832397461,83,2.481509e-05,-7.85524e-06,2.602870541807172e-05,0.00013408191,-6.305876e-05,0.00014817006179753038,3.7191248e-06,2.576163e-05,-4.0436425e-05,-0.00014254564,4.127859115600586,106.15413665771484
1779205692.2141988,2.9179251194000244,hold-xy,8000,12.207217517357137,5.933707e-05,-0.0003230088,0.0,0.00377753,0.00482656,0.0376962,0.0021113664843142033,-0.017930788919329643,0.6471493244171143,0.762149453163147,80.68712186717181,0.0063250064849853516,84,-2.904795e-06,-2.6074238e-05,2.6235543587498455e-05,1.0403921e-05,-9.89912e-05,9.953641957268094e-05,2.6200634e-05,1.352972e-06,-9.600281e-05,-2.6286105e-05,4.127859115600586,106.14942169189453
1779205692.318341,3.0220673084259033,hold-xy,9000,13.733119707026779,0.00022864444,-4.900788e-05,0.0,0.003796352,0.004842436,0.037702404,0.002141715493053198,-0.018054204061627388,0.6471245884895325,0.7621674537658691,80.6838536905367,0.019056320190429688,85,1.5917234e-05,-1.0198448e-05,1.890414409696587e-05,6.905449e-05,-1.7191316e-05,7.116223913723918e-05,7.4872196e-06,1.7358232e-05,-5.7858906e-06,-7.092664e-05,4.122580528259277,106.13577270507812
1779205692.3994975,3.1032238006591797,hold-xy,9000,13.733119707026779,0.0010973406,-0.0012567884,0.0,0.0038575646,0.0047255,0.037669055,0.003789187641814351,-0.01982160098850727,0.6470338702201843,0.7621941566467285,80.67650478594412,0.0076787471771240234,86,7.712981e-05,-0.00012713438,0.0001487015717415731,0.00024679233,-0.00039114596,0.0004624950041393082,0.00011295917,9.670772e-05,-0.00034599623,-0.000306901,4.117301940917969,106.11932373046875
1779205692.501934,3.205660343170166,hold-xy,10000,15.259021896696423,0.0051918067,-0.0002675214,0.0,0.0042408835,0.004730949,0.037809595,0.007814444601535797,-0.010401279665529728,0.6460047364234924,0.7632225751876831,80.49143107922974,0.015411376953125,87,0.00046044867,-0.00012168521,0.00047625650875138487,0.0013870198,-0.0002565405,0.0014105449248233142,4.3949498e-05,0.00047422433,-2.3886954e-05,-0.0014103426,4.122580528259277,106.07279968261719
1779205692.595062,3.29878830909729,hold-xy,10000,15.259021896696423,0.0038916017,-0.0005963894,0.0,0.0041956156,0.004707678,0.03787232,0.008585980162024498,-0.012078162282705307,0.6464921236038208,0.7627767324447632,80.56808045645487,0.0102996826171875,88,0.0004151808,-0.00014495617,0.00043975833500945377,0.0008326768,-0.0002506422,0.0008695815900716085,7.495852e-05,0.00043332277,-0.000110798384,-0.00086249394,4.117301940917969,106.03384399414062
1779205692.6771,3.380826234817505,hold-xy,11000,16.784924086366065,0.0042545674,-0.00093465,0.0,0.0042612236,0.0046625994,0.0378014,0.008978651836514473,-0.011060584336519241,0.6459422707557678,0.763253390789032,80.48303913410527,0.008899688720703125,89,0.00048078876,-0.00019003497,0.0005169826929438862,0.0008187663,-0.0003375298,0.0008856097514744895,0.00010792607,0.0005055918,-0.00019750983,-0.00086330436,4.117301940917969,106.0281982421875
1779205692.7651684,3.4688947200775146,hold-xy,11000,16.784924086366065,0.0043066223,-0.0005883128,0.0,0.0043145,0.004674241,0.03785658,0.009909509681165218,-0.011032425798475742,0.6460071802139282,0.7631872892379761,80.49239011054931,0.0011734962463378906,90,0.00053406507,-0.00017839344,0.0005630716747710682,0.0007399817,-0.0001998131,0.0007664843251748728,8.7726854e-05,0.00055619574,-7.483926e-05,-0.00076282193,4.117301940917969,106.0281982421875
1779205692.8685188,3.5722451210021973,hold-xy,12000,18.310826276035705,0.003724198,-0.0004230015,0.0,0.0043056756,0.0046860776,0.03781824,0.009891387075185776,-0.011043449863791466,0.6459288001060486,0.7632536292076111,80.48064862292073,0.015117645263671875,91,0.0005252408,-0.0001665568,0.0005510163886490743,0.0004883776,-0.000100151665,0.0004985408882712429,7.7398574e-05,0.00054555334,-1.8004313e-05,-0.00049821567,4.106744766235352,106.00399017333984
1779205692.9554088,3.659135103225708,hold-xy,13000,19.83672846570535,0.004192341,-0.0010440984,0.0,0.0043585654,0.0046249577,0.03790418,0.01091680582612753,-0.012555613182485104,0.6456902027130127,0.7634181976318359,80.447870346054,0.019916772842407227,92,0.0005781306,-0.0002276767,0.0006213466518385491,0.0005351495,-0.00029346813,0.0006103347518960252,0.00012858215,0.0006078966,-0.00020059386,-0.0005764292,4.106744766235352,106.00399017333984
1779205693.0211432,3.7248694896698,hold-xy,13000,19.83672846570535,0.0035683957,-0.0009741185,0.0,0.004335654,0.004624891,0.037856814,0.010458688251674175,-0.012158878147602081,0.6460035443305969,0.7631658911705017,80.49416072154996,0.003226757049560547,93,0.0005552191,-0.0002277433,0.0006001127299947176,0.0002912138,-0.00020567005,0.00035651879396360895,0.0001329227,0.00058520667,-0.00015475253,-0.0003211811,4.096187591552734,105.99059295654297
1779205693.1024508,3.8061771392822266,hold-xy,14000,21.36263065537499,0.0034026334,-0.00064447423,0.0,0.0043409644,0.0046434235,0.03787409,0.01022275723516941,-0.01100468635559082,0.645967423915863,0.7632172703742981,80.48624543747714,0.0027620792388916016,94,0.00056052953,-0.0002092109,0.0005982997264771196,0.00022333206,-7.597883e-05,0.00023590250376336692,0.00011368664,0.0005873993,-3.8020517e-05,-0.00023281845,4.096187591552734,105.97323608398438
1779205693.1640666,3.867792844772339,hold-xy,14000,21.36263065537499,0.0034190007,-0.0006628009,0.0,0.0043508466,0.004638841,0.037918948,0.011226475238800049,-0.012643953785300255,0.6457606554031372,0.763352632522583,80.45853454235906,0.003320455551147461,95,0.0005704118,-0.00021379348,0.0006091611259348349,0.0002048881,-7.570126e-05,0.00021842576488486815,0.0001162836,0.0005979593,-4.0691473e-05,-0.000214602,4.096187591552734,105.97323608398438
1779205693.2449985,3.9487247467041016,hold-xy,15000,22.888532845044633,0.0032184888,-0.00080908847,0.0,0.004342852,0.004626235,0.03796079,0.011628106236457825,-0.013107826001942158,0.6458577513694763,0.7632566690444946,80.47409791385932,0.0025653839111328125,96,0.0005624173,-0.0002263994,0.0006062754528427209,0.00011406151,-9.928682e-05,0.00015122136538964887,0.00013020117,0.0005921297,-7.904131e-05,-0.00012892003,4.085630416870117,105.97834777832031
1779205693.3466218,4.0503480434417725,hold-xy,15000,22.888532845044633,0.003262708,-0.00073498057,0.0,0.004353797,0.004626807,0.037901916,0.010607934556901455,-0.011584436520934105,0.645916759967804,0.7632462382316589,80.47975046129994,0.009986400604248047,97,0.0005733622,-0.00022582756,0.0006162323798801798,0.00011469859,-6.76797e-05,0.00013317773245533605,0.00012788537,0.00060281646,-4.7776855e-05,-0.00012431284,4.085630416870117,105.85061645507812
1779205693.448982,4.152708292007446,hold-xy,16000,24.414435034714273,0.0029599892,-0.00076612545,0.0,0.004333336,0.004624874,0.03787222,0.01056536752730608,-0.012107242830097675,0.6457754373550415,0.7633583545684814,80.45974242774565,0.020048141479492188,98,0.00055290107,-0.00022776052,0.0005979752802905941,1.3783632e-05,-5.3658536e-05,5.540060354052097e-05,0.00013297233,0.0005830033,-5.06319e-05,-2.248639e-05,4.080351829528809,105.69883728027344
1779205693.531811,4.23553729057312,hold-xy,16000,24.414435034714273,0.0028850893,-0.0008470887,0.0,0.0043268586,0.0046167504,0.03787531,0.010917019098997116,-0.01214634533971548,0.6459676027297974,0.7631900906562805,80.48854911901066,0.01832723617553711,99,0.0005464237,-0.00023588398,0.0005951639556570507,-1.3334388e-05,-6.6384644e-05,6.771061084063068e-05,0.00014234756,0.00057789043,-6.7675464e-05,2.181364e-06,4.069794654846191,105.63275146484375
1779205693.6194005,4.323126792907715,hold-xy,17000,25.940337224383917,0.0034286045,-0.0006396164,0.0,0.0043767616,0.0046233777,0.037900336,0.010793179273605347,-0.011888443492352962,0.6459348201751709,0.7632237076759338,80.48307792091526,0.010163068771362305,100,0.0005963268,-0.0002292567,0.0006388773613275632,0.00014701416,-2.5705685e-05,0.00014924457935427038,0.00012750538,0.0006260245,-1.0447366e-06,-0.00014924092,4.0750732421875,105.60871124267578
1779205693.9130592,4.616785526275635,hold-xy,18000,27.466239414053558,0.00307087,-0.0006200224,0.0,0.004339952,0.004632149,0.03787728,0.0106358015909791,-0.012156291864812374,0.6458383202552795,0.7633033394813538,80.46927109587936,0.019154071807861328,101,0.0005595172,-0.0002204855,0.0006013928246225915,6.411774e-05,-8.750365e-06,6.471208028805825e-05,0.0001247992,0.00058830134,1.9868112e-06,-6.4681575e-05,4.059237480163574,105.36569213867188
1779205693.9982743,4.702000617980957,hold-xy,19000,28.9921416037232,0.003300477,-0.00052974495,0.0,0.0043627955,0.0046358877,0.0379122,0.010680065490305424,-0.011439306661486626,0.6458544731140137,0.7633001208305359,80.47004708134727,0.02162957191467285,102,0.00058236066,-0.0002167467,0.0006213880242033433,0.00012770908,7.4309924e-06,0.00012792508634026838,0.000117337935,0.0006102089,2.8472363e-05,-0.0001247163,4.059237480163574,105.29200744628906
1779205694.0609705,4.764696836471558,hold-xy,19000,28.9921416037232,0.003136603,-0.0006130154,0.0,0.004354989,0.004631927,0.037931655,0.011137053370475769,-0.011970007792115211,0.6459129452705383,0.7632359266281128,80.4798409872546,0.00567173957824707,103,0.0005745543,-0.00022070762,0.0006154872246847648,5.9621612e-05,-9.9059125e-06,6.0438926109151436e-05,0.00012263973,0.00060314505,9.160976e-08,-6.0438855e-05,4.059237480163574,105.29200744628906
1779205694.1426375,4.84636378288269,hold-xy,19000,28.9921416037232,0.0030084522,-0.0005211937,0.0,0.0043488564,0.0046402994,0.03788047,0.011105445213615894,-0.012911546044051647,0.6456440091133118,0.7634485960006714,80.44173275628268,0.006353139877319336,104,0.00056842156,-0.00021233503,0.0006067859867928187,1.9017152e-05,2.4080988e-05,3.068462258750691e-05,0.000115000534,0.00059578865,2.6904485e-05,-1.47544815e-05,4.048680305480957,105.2635269165039
1779205694.2285974,4.932323694229126,hold-xy,20000,30.518043793392845,0.0033886763,-0.00079592114,0.0,0.004375078,0.0046159388,0.037909318,0.011240694671869278,-0.01266101561486721,0.6459088921546936,0.7632266879081726,80.48083088484637,0.01759028434753418,105,0.00059464294,-0.00023669563,0.0006400195661030643,0.00011858669,-8.094726e-05,0.00014358016014080402,0.0001350958,0.000625599,-6.0221064e-05,-0.00013034066,4.048680305480957,105.29463195800781
1779205694.3112457,5.014971971511841,hold-xy,20000,30.518043793392845,0.0030853753,-0.00047189894,0.0,0.004359697,0.004644145,0.037939116,0.010907592251896858,-0.012100434862077236,0.6458083391189575,0.7633257508277893,80.46452843189005,0.00583958625793457,106,0.00057926215,-0.0002084896,0.0006156399611621599,3.4130517e-05,3.2975717e-05,4.745829887571221e-05,0.00010964943,0.0006057966,3.8174097e-05,-2.8196246e-05,4.03812313079834,105.24281311035156
1779205694.4124908,5.116217136383057,hold-xy,21000,32.043945983062486,0.0031565106,-0.0005335136,0.0,0.004366666,0.0046396046,0.03790903,0.010912597179412842,-0.012102886103093624,0.6458461880683899,0.7632936835289001,80.47021651012022,0.015550374984741211,107,0.00058623124,-0.0002130298,0.0006237377257699599,4.6732246e-05,8.202697e-06,4.744667548500273e-05,0.00011303331,0.0006134104,1.58265e-05,-4.4729288e-05,4.03812313079834,105.2185287475586
1779205694.4980478,5.2017741203308105,hold-xy,21000,32.043945983062486,0.0033611546,-0.000553431,0.0,0.0043865135,0.004635267,0.03790174,0.011363671161234379,-0.013151132501661777,0.6457298398017883,0.7633681297302246,80.45511431213917,0.00736546516418457,108,0.00060607865,-0.00021736743,0.0006438788048123612,9.622979e-05,-8.139745e-06,9.657343588359911e-05,0.00011385811,0.000633732,7.929786e-06,-9.624732e-05,4.027565956115723,105.14396667480469
1779205694.587144,5.290870189666748,hold-xy,21000,32.043945983062486,0.003627173,-0.00041845842,0.0,0.0044151964,0.0046422803,0.037860062,0.010816029272973537,-0.01252329908311367,0.6456948518753052,0.7634162902832031,80.44853236353234,0.00994729995727539,109,0.0006347615,-0.0002103541,0.0006687084810640734,0.00016682266,1.8621848e-05,0.00016785879173556448,0.000102109756,0.0006608666,4.6045163e-05,-0.00016142002,4.032844543457031,105.0405044555664
1779205694.6891065,5.3928327560424805,hold-xy,22000,33.56984817273213,0.003405471,-0.0004106155,0.0,0.004405061,0.004647199,0.03792218,0.011370825581252575,-0.012799383141100407,0.6458134651184082,0.7633032202720642,80.46678551367918,0.020111560821533203,110,0.00062462594,-0.00020543532,0.0006575418216729574,8.365243e-05,2.9110035e-05,8.857269767615142e-05,9.914809e-05,0.0006500238,4.256248e-05,-7.7675984e-05,4.022287368774414,105.0323486328125
1779205694.7707908,5.474517107009888,hold-xy,23000,35.09575036240177,0.0035563312,-0.00040844124,0.0,0.004422305,0.004646787,0.037943624,0.011037237010896206,-0.011892581358551979,0.6458942890167236,0.7632544040679932,80.47690214841029,0.010460615158081055,111,0.0006418703,-0.00020584743,0.0006740702111424844,0.000115197574,1.9023408e-05,0.00011675774401629648,9.68163e-05,0.00066708116,3.782013e-05,-0.0001104627,4.011730194091797,104.92591094970703
1779205694.8720186,5.575744867324829,hold-xy,23000,35.09575036240177,0.0040793642,-0.0006450522,0.0,0.0044703735,0.004619482,0.037888587,0.01064711157232523,-0.010852761566638947,0.6457800269126892,0.7633721828460693,80.45762742279776,0.017132282257080078,112,0.00068993866,-0.00023315242,0.0007282687803786946,0.00023314572,-7.331467e-05,0.00024440124166667294,0.000115550414,0.0007190434,-3.365005e-05,-0.00024207364,4.011730194091797,104.88595581054688
1779205694.9556086,5.659334897994995,hold-xy,24000,36.62165255207141,0.0035453911,-0.00074289006,0.0,0.0044371765,0.0046151904,0.037896883,0.010989164933562279,-0.011414160951972008,0.6457569003105164,0.7633787989616394,80.4552215817234,0.01667475700378418,113,0.0006567417,-0.00023744395,0.0006983475130511167,4.4708395e-05,-6.663851e-05,8.024669198566623e-05,0.00012525701,0.0006870225,-5.830251e-05,-5.5139353e-05,4.011730194091797,104.88595581054688
1779205695.016781,5.720507383346558,hold-xy,24000,36.62165255207141,0.004261077,-0.00056380033,0.0,0.004493857,0.0046165856,0.03791529,0.011465145274996758,-0.011212505400180817,0.6458368301391602,0.7633069753646851,80.46659676017117,0.00687098503112793,114,0.00071342196,-0.00023604883,0.000751458561366585,0.0002708702,-4.0750107e-05,0.000273918305542872,0.00011463002,0.00074266404,4.6749046e-06,-0.0002738784,4.00117301940918,104.89075469970703
1779205695.1022658,5.805992126464844,hold-xy,25000,38.147554741741054,0.0038891193,-0.00087878574,0.0,0.0044732075,0.004594651,0.037929967,0.011929218657314777,-0.012622296810150146,0.6460087895393372,0.7631323337554932,80.49544782057995,0.01109170913696289,115,0.0006927727,-0.00025798334,0.0007392492061902624,0.000113378774,-0.000109500055,0.0001576229927036162,0.00014004711,0.0007258624,-8.927511e-05,-0.00012990367,4.00117301940918,104.8504409790039
1779205695.1873915,5.891117811203003,hold-xy,25000,38.147554741741054,0.00423694,-0.00081621564,0.0,0.0045067333,0.004589805,0.03791872,0.01169425155967474,-0.011206867173314095,0.6460751891136169,0.7631019353866577,80.50229223112021,0.01700901985168457,116,0.0007262984,-0.00026282948,0.0007723915677749455,0.0002063432,-9.500468e-05,0.00022716383464166877,0.0001393815,0.0007597115,-5.9654063e-05,-0.00021919124,3.9906158447265625,104.77021026611328
1779205695.249604,5.9533302783966064,hold-xy,26000,39.6734569314107,0.0028486894,-0.00067812135,0.0,0.004415146,0.0046130554,0.037967786,0.01145503856241703,-0.013429569080471992,0.6463084816932678,0.7628720998764038,80.54270923758973,0.007283926010131836,117,0.00063471124,-0.000239579,0.0006784220253737323,-0.00023750431,3.0457762e-05,0.00023944930703167757,0.00013203183,0.00066545024,-8.981102e-06,0.00023928082,3.9906158447265625,104.77021026611328
1779205695.3542302,6.0579564571380615,hold-xy,27000,41.19935912108034,0.004158033,-0.0005621374,0.0,0.00451653,0.004605366,0.03791068,0.011906995438039303,-0.012929105199873447,0.6457477807998657,0.7633485198020935,80.45701357953261,0.019649028778076172,118,0.000736095,-0.00024726847,0.0007765162820867706,0.00016341073,-3.6829551e-06,0.0001634522329669998,0.00012181127,0.0007669026,2.345947e-05,-0.00016175995,3.9800586700439453,104.7050552368164
1779205695.4443228,6.1480491161346436,hold-xy,27000,41.19935912108034,0.003920901,0.00017925166,0.0,0.0045154197,0.0046724393,0.037880823,0.0113242007791996,-0.012141289189457893,0.6458835005760193,0.7632554173469543,80.4757402600722,0.017043352127075195,119,0.0007349849,-0.00018019509,0.0007567516496156117,0.000110794776,0.0002144918,0.00024141708940608029,5.6096804e-05,0.0007546696,0.00022986784,-7.3776624e-05,3.9800586700439453,104.6384048461914
1779205695.525945,6.229671239852905,hold-xy,28000,42.72526131074998,0.0042048655,0.00026385707,0.0,0.004546973,0.004686546,0.03787863,0.011484548449516296,-0.012162486091256142,0.645504891872406,0.7635728716850281,80.41887636497134,0.005094051361083984,120,0.0007665381,-0.00016608834,0.0007843251615633751,0.0001787193,0.00019537199,0.0002647844419912413,3.618597e-05,0.00078348996,0.00022239346,-0.00014370785,3.969501495361328,104.61283111572266
1779205695.6275868,6.331313133239746,hold-xy,29000,44.25116350041962,0.004015206,-0.00025051762,0.0,0.0045327256,0.0046557942,0.037918836,0.01171460933983326,-0.011813128367066383,0.6457878947257996,0.7633355855941772,80.46046852447365,0.01530599594116211,121,0.0007522907,-0.00019684015,0.0007776164776965534,7.835502e-05,3.585755e-05,8.617002544459472e-05,6.944245e-05,0.0007745096,4.834732e-05,-7.132888e-05,3.958944320678711,104.58712005615234
1779205695.7096245,6.413350820541382,hold-xy,29000,44.25116350041962,0.0041249045,-0.00033074204,0.0,0.0045450423,0.0046495725,0.037951395,0.012181834317743778,-0.013094170019030571,0.6461147665977478,0.7630308270454407,80.51242657064634,0.0063664913177490234,122,0.00076460745,-0.00020306185,0.0007911122934808202,9.546334e-05,4.5840407e-06,9.557333897931853e-05,7.425118e-05,0.00078762014,2.0256914e-05,-9.340193e-05,3.9536657333374023,104.57267761230469
1779205695.820287,6.52401328086853,hold-xy,29000,44.25116350041962,0.005367219,-0.004750167,0.0,0.004595102,0.0042372174,0.038071997,0.014042363502085209,-0.013967240229249,0.6460787057876587,0.7630138397216797,80.50840839093078,0.018045425415039062,123,0.000814667,-0.000615417,0.0010209899225661634,0.00021854512,-0.0012465604,0.0012655728898424748,0.00047265095,0.00090499804,-0.001193456,-0.00042111456,3.9536657333374023,104.4475326538086
1779205695.903397,6.607123374938965,hold-xy,30000,45.777065690089266,0.0061073196,-0.009351521,0.0,0.0046056844,0.0037643807,0.038144037,0.013719279319047928,-0.012088174000382423,0.6467999815940857,0.7624405026435852,80.61230362680777,0.007709980010986328,124,0.0008252496,-0.0010882537,0.0013657719601511847,0.0001869563,-0.0023905996,0.0023978989099965693,0.0009390691,0.0009917067,-0.0023280876,-0.00057439297,3.9536657333374023,104.2354965209961
1779205696.0116243,6.71535062789917,hold-xy,30000,45.777065690089266,0.016282639,-0.009615686,0.0,0.0055086724,0.0034623817,0.03852007,0.01697273924946785,-0.008944953791797161,0.6463180184364319,0.7628269791603088,80.53238000077184,0.01877617835998535,125,0.0017282376,-0.0013902527,0.002218018894872238,0.0029189866,-0.0026058892,0.003912945360789421,0.0010870376,0.0019333798,-0.002090249,-0.0033078697,3.943108558654785,104.22366333007812
1779205696.0743074,6.77803373336792,hold-xy,30000,45.777065690089266,0.036760237,-0.010321131,0.0,0.0070001464,0.0030742101,0.038701486,0.019418753683567047,-0.01500280573964119,0.6457000374794006,0.7631967663764954,80.45142098173655,0.019114017486572266,126,0.0032197116,-0.0017784243,0.0036782245410476072,0.0092201345,-0.00369197,0.009931843634469814,0.0012196868,0.0034701154,-0.002111348,-0.00970483,3.943108558654785,104.24239349365234
1779205696.176023,6.879749298095703,hold-xy,30000,45.777065690089266,0.068955764,-0.013824564,0.0,0.010377475,0.0020335447,0.038966127,0.021527918055653572,-0.007566187065094709,0.6442571878433228,0.7644684910774231,80.21903386882477,0.01802682876586914,127,0.00659704,-0.0028190897,0.00717413457832387,0.016309848,-0.005621259,0.01725136770085182,0.0016573932,0.0069800615,-0.0027687992,-0.017027726,3.943108558654785,104.2762222290039
1779205696.237463,6.941189289093018,hold-xy,30000,45.777065690089266,0.11304815,-0.014525477,0.0,0.014304985,0.0011334708,0.03989657,0.021861184388399124,-0.013419704511761665,0.6421579718589783,0.7661430239677429,79.91474459145026,0.008703470230102539,128,0.01052455,-0.0037191636,0.01116236217926711,0.028067505,-0.007750729,0.02911801177332782,0.0018187066,0.011013202,-0.0027159718,-0.02899107,3.943108558654785,104.2762222290039
1779205696.3203087,7.0240349769592285,hold-xy,30000,45.777065690089266,0.16965872,-0.021449981,0.0,0.019755844,-0.0005473504,0.0405037,0.02079201675951481,-0.004778297618031502,0.6409015655517578,0.7673266530036926,79.71481441342563,0.017102718353271484,129,0.015975408,-0.005399985,0.016863377428288633,0.04161281,-0.012198787,0.043364000664373695,0.0024608397,0.01668286,-0.0045728916,-0.04312221,3.9378299713134766,104.27412414550781
1779205696.4046087,7.108335018157959,hold-xy,30000,45.777065690089266,0.23793331,-0.0262001,0.0,0.027123496,-0.0026272973,0.040091183,0.020961279049515724,-0.01279845554381609,0.638370931148529,0.769336998462677,79.34836761102629,0.01956653594970703,130,0.02334306,-0.0074799317,0.024512197434740025,0.056137733,-0.016163941,0.058418474698976534,0.003036384,0.02432341,-0.0055090906,-0.05815813,3.9378299713134766,104.26185607910156
1779205696.4654646,7.169190883636475,hold-xy,30000,45.777065690089266,0.29925966,-0.033586428,0.0,0.033998024,-0.004795472,0.039770998,0.021926386281847954,-0.018291857093572617,0.6371666789054871,0.7701969146728516,79.18352292071646,0.009256362915039062,131,0.030217588,-0.009648107,0.03172047555744474,0.06827594,-0.020454686,0.07127410914740086,0.0038059452,0.031491324,-0.007278352,-0.07090151,3.9378299713134766,104.26185607910156
1779205696.576408,7.280134201049805,hold-xy,30000,45.777065690089266,0.3852065,-0.043726366,0.0,0.045121744,-0.008627227,0.038523894,0.01662975177168846,-0.013402756303548813,0.633307933807373,0.7736051678657532,78.6001019258535,0.020093202590942383,132,0.04134131,-0.0134798605,0.04348345017777593,0.08112883,-0.025801316,0.08513280596124387,0.005042582,0.043190077,-0.009256728,-0.08462805,3.9272727966308594,104.14833068847656
1779205696.6582894,7.362015724182129,hold-xy,31000,47.30296787975891,0.4587678,-0.06540106,0.0,0.055092804,-0.013392268,0.039853673,0.01597248576581478,-0.019091231748461723,0.6298502087593079,0.7763177156448364,78.10587732515128,0.010352134704589844,133,0.05131237,-0.018244902,0.054459483919238875,0.08943844,-0.0336631,0.09556379198887517,0.00727751,0.05397104,-0.0145067535,-0.0944563,3.9272727966308594,104.14833068847656
1779205696.7597477,7.4634740352630615,hold-xy,32000,48.82887006942855,0.52247244,-0.10071042,0.0,0.064590245,-0.019131493,0.04175258,0.015955563634634018,-0.018029578030109406,0.6312482357025146,0.7752071022987366,78.30886926813571,0.019844770431518555,134,0.06080981,-0.023984127,0.06536873426530194,0.09358838,-0.042286023,0.10269806659033769,0.011164318,0.0644083,-0.022444418,-0.10021547,3.921994209289551,104.07646179199219
1779205696.8249753,7.528701543807983,hold-xy,32000,48.82887006942855,0.59006613,-0.14285783,0.0,0.07399097,-0.025625616,0.045243062,0.01250187773257494,-0.020971696823835373,0.6320754885673523,0.7745221257209778,78.44460715404729,0.0014028549194335938,135,0.07021054,-0.03047825,0.07654047084664024,0.09921854,-0.052885152,0.11243290423595426,0.015796263,0.07489274,-0.031938262,-0.10780123,3.9272727966308594,104.0299301147461
1779205697.0138218,7.717548131942749,hold-xy,33000,50.35477225909819,0.61960673,-0.162994,0.0,0.083898194,-0.032367676,0.051864184,0.010620089247822762,-0.013154384680092335,0.6321958899497986,0.774624228477478,78.43817643367615,0.019785165786743164,136,0.08011776,-0.03722031,0.08834142575143115,0.0868887,-0.048884954,0.09969646722946761,0.020407459,0.085951984,-0.030478349,-0.09492342,3.9008798599243164,104.29523468017578
1779205697.0348718,7.738598108291626,hold-xy,33000,50.35477225909819,0.8169502,-0.26700243,0.0,0.09331379,-0.039570246,0.06127501,0.005690690595656633,-0.012551686726510525,0.6318120360374451,0.7749991416931152,78.38212542367683,0.008941650390625,137,0.08953336,-0.04442288,0.09994805950318918,0.14938809,-0.101969056,0.1808714732826093,0.025482222,0.09664508,-0.06979566,-0.16686238,3.9008798599243164,104.29523468017578
1779205697.116887,7.820613384246826,hold-xy,33000,50.35477225909819,0.8530217,-0.28560293,0.0,0.102549024,-0.046097413,0.0728366,0.003667115233838558,-0.0018909504869952798,0.6322578191757202,0.7747470736503601,78.43387747971431,0.017516613006591797,138,0.09876859,-0.050950047,0.11113569292783868,0.14229713,-0.09804149,0.17280222301725476,0.030112479,0.10697841,-0.06752027,-0.15906483,3.906158447265625,104.50747680664062
1779205697.2060304,7.909756660461426,hold-xy,33000,50.35477225909819,0.84992665,-0.28745067,0.0,0.10950103,-0.051026776,0.08330553,0.004171729553490877,-0.019157670438289642,0.6326841711997986,0.7741618156433105,78.53268972088752,0.019748926162719727,139,0.105720595,-0.05587941,0.11957990070795595,0.12360497,-0.08564426,0.15037661648196193,0.033745773,0.114719555,-0.0593609,-0.13816443,3.906158447265625,104.88877868652344
1779205697.2674017,7.971127986907959,hold-xy,33000,50.35477225909819,0.87305486,-0.3001789,0.0,0.11668328,-0.055818103,0.09596429,0.006689567118883133,-0.02365480363368988,0.6345006823539734,0.7725312113761902,78.81979508741665,0.010151386260986328,140,0.11290285,-0.060670737,0.12817172820777956,0.11688434,-0.080204904,0.14175604581848875,0.037627995,0.12252398,-0.056019448,-0.1302175,3.9008798599243164,105.29615020751953
1779205697.3497286,8.053454875946045,hold-xy,33000,50.35477225909819,0.8800739,-0.304374,0.0,0.12269996,-0.060030796,0.10728914,0.011643762700259686,-0.02187378890812397,0.6346604824066162,0.7723938226699829,78.83215609471023,0.014374732971191406,141,0.11891953,-0.06488343,0.1354685020884497,0.10492944,-0.07232462,0.12744033199164462,0.04062202,0.12923454,-0.050631955,-0.1169506,3.9008798599243164,105.29615020751953
1779205697.4111836,8.114909887313843,hold-xy,33000,50.35477225909819,0.894097,-0.30592507,0.0,0.1286016,-0.06373417,0.117379,0.005724790971726179,-0.014372805133461952,0.6347072720527649,0.7725977897644043,78.81576228799902,0.00012111663818359375,142,0.12482116,-0.068586804,0.14242356558302233,0.096836194,-0.06530206,0.1167972902781781,0.04307337,0.13575403,-0.0452791,-0.10766341,3.9008798599243164,105.70732879638672
1779205697.5227966,8.22652292251587,hold-xy,33000,50.35477225909819,0.9173646,-0.30181995,0.0,0.13567512,-0.06749488,0.12774763,0.004932070150971413,-0.00868537649512291,0.6334550976753235,0.7737150192260742,78.617574267774,0.016811609268188477,143,0.13189468,-0.072347514,0.15043393663236196,0.090141,-0.057597056,0.1069711157754189,0.04489427,0.14357881,-0.0386743,-0.09973525,3.906158447265625,105.95820617675781
1779205697.6046815,8.3084077835083,hold-xy,33000,50.35477225909819,0.944254,-0.2915516,0.0,0.14253877,-0.07027404,0.13451856,0.005959371104836464,-0.019012723118066788,0.6319538354873657,0.7747498750686646,78.42309306011305,0.01022028923034668,144,0.13875833,-0.07512668,0.15779065887464105,0.086371586,-0.04974137,0.09967072785251534,0.04575187,0.15101211,-0.03139613,-0.094596714,3.9008798599243164,106.12870788574219
1779205697.8285997,8.532325983047485,hold-xy,33000,50.35477225909819,0.98375684,-0.2777846,0.0,0.15421975,-0.07437606,0.13814463,0.0028984714299440384,-0.019993549212813377,0.6288512945175171,0.7772631049156189,77.97032258262959,0.009079694747924805,145,0.1504393,-0.0792287,0.17002697139019746,0.07603067,-0.04028689,0.08604473500182229,0.04613452,0.16364834,-0.023556,-0.082757555,3.9008798599243164,106.30654907226562
1779205697.8976214,8.60134768486023,hold-xy,33000,50.35477225909819,0.9946449,-0.26987392,0.0,0.15815967,-0.07591926,0.13587265,0.0024301614612340927,-0.01783471740782261,0.6274996399879456,0.7784087657928467,77.76317773605317,0.013347387313842773,146,0.15437923,-0.0807719,0.17423274065300895,0.07147483,-0.03535035,0.07973893950298142,0.046215627,0.16799156,-0.019397885,-0.07734352,3.895601272583008,106.28731536865234
1779205697.981917,8.685643196105957,hold-xy,33000,50.35477225909819,0.9831223,-0.25796917,0.0,0.16094387,-0.07678278,0.13002077,0.0041835433803498745,-0.023581622168421745,0.6260607242584229,0.7794064879417419,77.57428881840893,0.008327007293701172,147,0.15716343,-0.081635416,0.17710077092389562,0.059384104,-0.027645674,0.06550385413724273,0.045905754,0.17104778,-0.014220204,-0.063941695,3.9008798599243164,106.29054260253906
1779205698.0627406,8.766466856002808,hold-xy,33000,50.35477225909819,0.95873946,-0.24396205,0.0,0.16205166,-0.07685267,0.12206183,0.0028982788790017366,-0.02516702003777027,0.6246011853218079,0.7805328965187073,77.3684055257853,0.0027234554290771484,148,0.15827122,-0.08170531,0.17811663884064555,0.04541418,-0.019594582,0.0494610487659958,0.045116775,0.17230791,-0.009189087,-0.048599962,3.9008798599243164,106.29054260253906
1779205698.165917,8.869643211364746,hold-xy,33000,50.35477225909819,0.9241508,-0.23392428,0.0,0.16170165,-0.076313466,0.11226546,0.0029473991598933935,-0.021647147834300995,0.624980628490448,0.7803345322608948,77.40756966714075,0.013132572174072266,149,0.15792121,-0.0811661,0.17755857093986285,0.030658016,-0.011972468,0.03291282423677276,0.04478462,0.17181787,-0.0050005913,-0.032530725,3.895601272583008,106.29629516601562
1779205698.2544587,8.958184957504272,hold-xy,33000,50.35477225909819,0.8827435,-0.22789755,0.0,0.15998636,-0.07532895,0.10128448,0.0029301634058356285,-0.018962593749165535,0.6265982389450073,0.7791062593460083,77.63443436729595,0.003563404083251953,150,0.15620592,-0.08018159,0.17558296464179168,0.016215667,-0.0053703217,0.01708180970994337,0.04487024,0.16975288,-0.0017731786,-0.016989527,3.895601272583008,106.31786346435547
1779205698.3561254,9.05985164642334,hold-xy,33000,50.35477225909819,0.83208007,-0.22863537,0.0,0.15690672,-0.07399482,0.090518735,0.005515148863196373,-0.02067001909017563,0.6308640241622925,0.775598406791687,78.26873938474345,0.013393163681030273,151,0.15312628,-0.07884746,0.17223408425427786,0.0012908373,0.00059892633,0.0014230156649147588,0.046066623,0.16595916,0.000848871,-0.0011420997,3.895601272583008,106.26985931396484
1779205698.4374874,9.141213655471802,hold-xy,33000,50.35477225909819,0.7910117,-0.22868699,0.0,0.15394992,-0.07283816,0.0828018,0.007629321422427893,-0.018479852005839348,0.6339120864868164,0.7731467485427856,78.71022440828071,0.01307368278503418,152,0.15016948,-0.077690795,0.16907610819091148,-0.009956186,0.0046674525,0.010995942121302185,0.046788596,0.16247325,0.0026280012,0.010677282,3.890322685241699,106.21336364746094
1779205698.4998415,9.203567743301392,hold-xy,33000,50.35477225909819,0.7472566,-0.2230413,0.0,0.15049395,-0.07134174,0.07670256,0.001488027162849903,-0.017603596672415733,0.6356381177902222,0.7717849612236023,78.96611773069009,0.0036122798919677734,153,0.14671351,-0.076194376,0.16531919372073314,-0.021406189,0.009518317,0.02342697741806956,0.046706438,0.15858419,0.0052454444,0.022832183,3.895601272583008,106.1109619140625
1779205698.6048565,9.308582782745361,hold-xy,33000,50.35477225909819,0.7102687,-0.21035121,0.0,0.14650281,-0.06906918,0.07279307,-0.0008994946838356555,-0.018307825550436974,0.6362283229827881,0.7712830901145935,79.05734799396737,0.017293453216552734,154,0.14272237,-0.073921815,0.16072992762445018,-0.028093845,0.014127396,0.031445945043302975,0.045485273,0.15415965,0.008537574,0.030264786,3.890322685241699,105.7621841430664
1779205698.686124,9.389850378036499,hold-xy,33000,50.35477225909819,0.66526425,-0.18249336,0.0,0.14156672,-0.0653674,0.072433025,-0.0031169867143034935,-0.018835602328181267,0.6350445747375488,0.7722395658493042,78.88446037371844,0.006004810333251953,155,0.13778628,-0.07022004,0.1546477119735191,-0.035664886,0.021887645,0.04184558694794417,0.042339183,0.14873905,0.014601275,0.039215505,3.895601272583008,105.38822174072266
1779205698.7685723,9.472298622131348,hold-xy,33000,50.35477225909819,0.60690284,-0.12828228,0.0,0.13636898,-0.059822366,0.07493025,-0.0011723254574462771,-0.02274286560714245,0.6326998472213745,0.7740622162818909,78.55306849402903,0.016989707946777344,156,0.13258854,-0.064675,0.14752144235398065,-0.04678534,0.038599167,0.060652813215386486,0.037074998,0.14278662,0.02854636,0.05351513,3.890322685241699,105.19596099853516
1779205698.852676,9.556402206420898,hold-xy,33000,50.35477225909819,0.5590398,-0.0810026,0.0,0.13060534,-0.053162806,0.07958202,0.0005235383869148791,-0.018322663381695747,0.6311841607093811,0.775416374206543,78.30935885780936,0.009109020233154297,157,0.1268249,-0.05801544,0.1394644973028733,-0.051547416,0.04873909,0.07094106588034663,0.03111377,0.13594955,0.037283126,0.060353983,3.890322685241699,105.19596099853516
1779205698.9547517,9.658478021621704,hold-xy,33000,50.35477225909819,0.5160546,-0.03262578,0.0,0.124688484,-0.045594648,0.08545851,0.004006592556834221,-0.02012302353978157,0.6285816431045532,0.7774730324745178,77.93048162696729,0.008428573608398438,158,0.12090805,-0.05044728,0.1310102461323196,-0.05335763,0.056212828,0.07750431502542864,0.024050448,0.12878378,0.04381323,0.06393215,3.8850440979003906,105.29579162597656
1779205699.0562396,9.759965896606445,hold-xy,33000,50.35477225909819,0.47023857,0.014983818,0.0,0.11883612,-0.037907906,0.09191026,0.007599048316478729,-0.025141410529613495,0.6270591616630554,0.7785286903381348,77.72632573239123,0.017271757125854492,159,0.11505569,-0.04276054,0.12274475700860397,-0.05630134,0.064240016,0.08542026029079061,0.017324472,0.121516,0.050803088,0.06867071,3.890322685241699,105.47211456298828
1779205699.1381717,9.841897964477539,hold-xy,33000,50.35477225909819,0.43410036,0.049577396,0.0,0.113440916,-0.030876068,0.09866878,0.00871355552226305,-0.02560076117515564,0.627396285533905,0.7782304286956787,77.7774104582991,0.005979776382446289,160,0.109660484,-0.035728704,0.11533413222141095,-0.056772992,0.06759684,0.08827516885084719,0.011702586,0.11473888,0.054045163,0.069797024,3.890322685241699,105.55253601074219
1779205699.1989622,9.90268850326538,hold-xy,33000,50.35477225909819,0.4012082,0.08043861,0.0,0.10941351,-0.025472416,0.10432483,0.010769326239824295,-0.02336665242910385,0.6297072172164917,0.776406466960907,78.10599343457054,0.005610227584838867,161,0.10563308,-0.03032505,0.10989975217940094,-0.059496157,0.073823564,0.0948140880464925,0.007902816,0.10961524,0.059976343,0.07343398,3.890322685241699,105.73507690429688
1779205699.2812908,9.98501706123352,hold-xy,33000,50.35477225909819,0.38651633,0.100152366,0.0,0.10567304,-0.019849874,0.10962203,0.008296924643218517,-0.0159247275441885,0.6325651407241821,0.7742989659309387,78.5017075516489,0.0061647891998291016,162,0.101892605,-0.024702508,0.10484424890834393,-0.055369794,0.07230362,0.09106935687323359,0.0038956013,0.10477185,0.059815187,0.06867147,3.890322685241699,105.88916778564453
1779205699.3835158,10.087242126464844,hold-xy,33000,50.35477225909819,0.3750162,0.12158613,0.0,0.1021696,-0.0139231505,0.113194525,0.010327651165425777,-0.020184118300676346,0.6341397762298584,0.7728859782218933,78.74883792487316,0.016582727432250977,163,0.09838917,-0.018775785,0.1001646561970621,-0.0502071,0.069979414,0.08612706669091173,-0.00078179315,0.100161605,0.058838584,0.06289589,3.8850440979003906,106.0560073852539
1779205699.4657423,10.169468641281128,hold-xy,33000,50.35477225909819,0.37453452,0.13340692,0.0,0.09987061,-0.009533986,0.11387847,0.012063533999025822,-0.01889888197183609,0.6346389651298523,0.7724835276603699,78.81692177550414,0.017015457153320312,164,0.096090175,-0.01438662,0.09716119215448352,-0.043577135,0.065083995,0.07832555955448169,-0.0045227204,0.09705587,0.05539666,0.055372402,3.8850440979003906,106.15096282958984
1779205699.5472248,10.250951051712036,hold-xy,33000,50.35477225909819,0.37613967,0.14899868,0.0,0.09811691,-0.0051276237,0.11247551,0.010985799133777618,-0.017009835690259933,0.6348705291748047,0.7723531126976013,78.8454157498963,0.01639389991760254,165,0.09433648,-0.009980258,0.09486293807585174,-0.03691183,0.061659224,0.07186336293552568,-0.008458309,0.0944851,0.053353567,0.04814291,3.8850440979003906,106.15096282958984
1779205699.6495578,10.353284120559692,hold-xy,33000,50.35477225909819,0.39078727,0.1476574,0.0,0.09739022,-0.0021779109,0.10955736,0.008577058091759682,-0.009920137003064156,0.6343186497688293,0.7729604244232178,78.74651548155131,0.016931533813476562,166,0.09360979,-0.0070305453,0.09387343446610955,-0.027979907,0.051854517,0.05892169492522577,-0.0113725765,0.093182,0.04539725,0.037561357,3.890322685241699,106.1568603515625
1779205699.7104533,10.414179563522339,hold-xy,34000,51.880674448767834,0.39988935,0.18435732,0.0,0.09736814,0.0021225726,0.1030454,0.003908578772097826,-0.006962410174310207,0.6329321265220642,0.7741661071777344,78.5377955223725,0.016780853271484375,167,0.09358771,-0.0027300618,0.0936275218571779,-0.019694421,0.0574321,0.060715041887158455,-0.015922276,0.09226372,0.05237297,0.030714627,3.8850440979003906,106.17398071289062
1779205699.815908,10.519634246826172,hold-xy,35000,53.40657663843748,0.4111313,0.19784316,0.0,0.09760358,0.0060822936,0.09671706,0.0028345687314867973,-0.017807168886065483,0.6304296851158142,0.7760369181632996,78.19495123424907,0.018917083740234375,168,0.09382315,0.0012296592,0.09383121092340749,-0.013102466,0.05170009,0.05333454724571956,-0.020398207,0.09158716,0.047926065,0.023402264,3.8744869232177734,106.21444702148438
1779205699.9035366,10.60726284980774,hold-xy,35000,53.40657663843748,0.411076,0.22425807,0.0,0.09745862,0.010630187,0.093416095,0.00531037338078022,-0.025411587208509445,0.627952516078949,0.777818500995636,77.8609845649131,0.020009756088256836,169,0.09367819,0.0057775523,0.09385619010589338,-0.009674264,0.051956557,0.0528495532998086,-0.025347423,0.09036864,0.048760474,0.0203836,3.8586511611938477,106.19155883789062
1779205699.9846902,10.688416481018066,hold-xy,35000,53.40657663843748,0.4026398,0.24721238,0.0,0.09677983,0.015125601,0.09611454,0.0048479801043868065,-0.026584580540657043,0.6240692734718323,0.7809016704559326,77.29622069546593,0.006562471389770508,170,0.0929994,0.010272967,0.09356506803736733,-0.008924583,0.05062552,0.05140614247238369,-0.030473035,0.08846364,0.0474236,0.019839196,3.8586511611938477,106.1486587524414
1779205700.0858617,10.78958797454834,hold-xy,35000,53.40657663843748,0.387449,0.26586503,0.0,0.09549221,0.019354701,0.1047874,0.003806118154898286,-0.015058369375765324,0.621762216091156,0.7830520272254944,76.91120696253606,0.016556262969970703,171,0.091711774,0.014502067,0.09285127987977099,-0.01048385,0.04935278,0.05045401842026841,-0.03489443,0.08604498,0.04569643,0.021387953,3.8586511611938477,106.15941619873047
1779205700.1690168,10.872743129730225,hold-xy,35000,53.40657663843748,0.3699196,0.2720598,0.0,0.09382542,0.022299942,0.118210554,0.004503275267779827,-0.011479138396680355,0.61881422996521,0.7854406833648682,76.47088096696676,0.018054962158203125,172,0.09004499,0.017447308,0.09171972685298578,-0.013462342,0.04536755,0.04732281883537029,-0.038028248,0.083464734,0.04095928,0.02370204,3.8586511611938477,106.16229248046875
1779205700.2502553,10.953981637954712,hold-xy,35000,53.40657663843748,0.35198516,0.25578016,0.0,0.0913326,0.02352998,0.13420637,0.008412015624344349,-0.02061920426785946,0.6172659397125244,0.7864393591880798,76.27082328535755,0.007421255111694336,173,0.08755217,0.018677346,0.08952220618921479,-0.017563716,0.03577386,0.03985289288786516,-0.038922712,0.08061792,0.030583296,0.025552206,3.8586511611938477,106.16229248046875
