wall_time_s,elapsed_s,mode,thrust_raw,thrust_percent,roll_cmd_deg,pitch_cmd_deg,yawrate_cmd_deg_s,mocap_x,mocap_y,mocap_z,mocap_qx,mocap_qy,mocap_qz,mocap_qw,mocap_age_s,mocap_frame_count,drift_x_m,drift_y_m,horizontal_drift_m,battery_v,estimate_z
1779198412.7486155,0.0008261203765869141,guard-only,0,0.0,0.0,0.0,0.0,0.002828557,0.0066032894,0.037743833,0.0011158002307638526,-0.01452019065618515,0.6622343063354492,0.7491552829742432,0.06372666358947754,63,4.373584e-05,3.312435e-05,5.48638880529054e-05,4.127859115600586,105.04505157470703
1779198412.7706153,0.022825956344604492,guard-only,0,0.0,0.0,0.0,0.0,0.0028288616,0.0066320472,0.037774615,0.0013553801691159606,-0.014849133789539337,0.6622960567474365,0.7490938305854797,9.655952453613281e-05,64,4.4040382e-05,6.1882194e-05,7.595367870393699e-05,4.127859115600586,105.04505157470703
1779198412.87346,0.1256706714630127,guard-only,0,0.0,0.0,0.0,0.0,0.00283645,0.0066257003,0.03773896,0.0010202692355960608,-0.014708380214869976,0.6623309254646301,0.7490663528442383,0.010208845138549805,65,5.16288e-05,5.553523e-05,7.582674292346175e-05,4.127859115600586,105.07372283935547
1779198412.9543273,0.20653796195983887,guard-only,0,0.0,0.0,0.0,0.0,0.0028224792,0.0065988284,0.03773762,0.0006406117463484406,-0.013882181607186794,0.6623730659484863,0.7490452527999878,0.00013208389282226562,66,3.765803e-05,2.8663315e-05,4.7325602347725624e-05,4.122580528259277,105.05072021484375
1779198413.0353677,0.2875783443450928,guard-only,0,0.0,0.0,0.0,0.0,0.002826807,0.0066614947,0.037787102,0.0002890472824219614,-0.012310637161135674,0.66229248046875,0.7491441965103149,0.004015207290649414,67,4.1985884e-05,9.132968e-05,0.00010051828538188662,4.127859115600586,105.00798034667969
1779198413.1165154,0.3687260150909424,guard-only,0,0.0,0.0,0.0,0.0,0.0028364416,0.0066444036,0.0377837,0.0002459002716932446,-0.011917170137166977,0.6622046828269958,0.749228298664093,0.0018596649169921875,68,5.1620416e-05,7.423852e-05,9.042137082587964e-05,4.127859115600586,105.00798034667969
1779198413.1991518,0.45136237144470215,guard-only,0,0.0,0.0,0.0,0.0,0.002803089,0.006645961,0.037740637,0.000881397514604032,-0.014509733766317368,0.6622881889343262,0.7491081953048706,0.002729654312133789,69,1.8267892e-05,7.579615e-05,7.796648380167096e-05,4.127859115600586,105.0704574584961
1779198413.2819288,0.5341393947601318,guard-only,0,0.0,0.0,0.0,0.0,0.0027865432,0.0066496655,0.037788495,0.0003087272052653134,-0.012706642039120197,0.6621716618537903,0.7492443323135376,0.00391697883605957,70,1.7220154e-06,7.950049e-05,7.951913606372352e-05,4.127859115600586,105.13760375976562
1779198413.3638554,0.6160659790039062,guard-only,0,0.0,0.0,0.0,0.0,0.0028003259,0.006601062,0.03772737,0.0007868183893151581,-0.014220576733350754,0.6622616648674011,0.749137282371521,0.02008533477783203,71,1.5504658e-05,3.0897092e-05,3.4569129954713786e-05,4.127859115600586,105.14037322998047
1779198413.4260032,0.6782138347625732,guard-only,0,0.0,0.0,0.0,0.0,0.0028255535,0.0066492166,0.03777839,0.00016162484826054424,-0.011755459941923618,0.6622814536094666,0.7491629719734192,0.009571552276611328,72,4.0732324e-05,7.905159e-05,8.89284920605522e-05,4.127859115600586,105.14037322998047
1779198413.497429,0.7496395111083984,guard-only,0,0.0,0.0,0.0,0.0,0.00283477,0.006675905,0.037755333,7.505426765419543e-05,-0.01195030752569437,0.6623371839523315,0.7491106390953064,0.0005345344543457031,73,4.9948692e-05,0.00010574004,0.0001169436940646827,4.122580528259277,105.14007568359375
1779198413.6042662,0.8564767837524414,guard-only,0,0.0,0.0,0.0,0.0,0.0028257659,0.0065979576,0.037734486,0.001206141198053956,-0.015266288071870804,0.6624384522438049,0.7489597797393799,0.013108253479003906,74,4.0944666e-05,2.7792528e-05,4.948626275779864e-05,4.127859115600586,105.12422943115234
1779198413.7098718,0.9620823860168457,guard-only,0,0.0,0.0,0.0,0.0,0.0027819704,0.0065729115,0.03779207,-1.8040043869405054e-05,-0.011616109870374203,0.6624472737312317,0.7490184903144836,0.015468835830688477,75,-2.8507784e-06,2.7464703e-06,3.9585396864220186e-06,4.122580528259277,105.14087677001953
1779198413.7927983,1.045008897781372,guard-only,0,0.0,0.0,0.0,0.0,0.0028201155,0.006645826,0.03778498,0.00021874913363717496,-0.012311715632677078,0.6624372601509094,0.7490162253379822,0.009789466857910156,76,3.529433e-05,7.566111e-05,8.348828466065696e-05,4.127859115600586,105.12283325195312
1779198413.8959627,1.1481733322143555,guard-only,0,0.0,0.0,0.0,0.0,0.0027649654,0.0066268397,0.037778813,0.00024896764080040157,-0.012079335749149323,0.6623219847679138,0.749121904373169,0.01879143714904785,77,-1.9855797e-05,5.6674704e-05,6.0052265671385804e-05,4.122580528259277,105.10554504394531
1779198413.9618142,1.2140247821807861,guard-only,0,0.0,0.0,0.0,0.0,0.0028290562,0.0065875626,0.03770413,0.00046169760753400624,-0.013328800909221172,0.662377119064331,0.7490518689155579,0.0011801719665527344,78,4.423503e-05,1.7397571e-05,4.753328413919889e-05,4.122580528259277,105.07803344726562
1779198414.0639436,1.3161542415618896,guard-only,0,0.0,0.0,0.0,0.0,0.0027740384,0.0065756855,0.037730183,0.0009347371524199843,-0.014804807491600513,0.6625223159790039,0.7488952875137329,0.009773492813110352,79,-1.0782853e-05,5.5204146e-06,1.2113830691156531e-05,4.122580528259277,105.08059692382812
1779198414.1650085,1.4172191619873047,guard-only,0,0.0,0.0,0.0,0.0,0.0027846824,0.0066245534,0.037793834,-0.00012009903002763167,-0.011341037228703499,0.6624274253845215,0.7490402460098267,0.009093046188354492,80,-1.3876706e-07,5.4388307e-05,5.4388485129248746e-05,4.122580528259277,105.09049987792969
1779198414.2680888,1.5202994346618652,guard-only,0,0.0,0.0,0.0,0.0,0.002793815,0.0066331113,0.03779758,0.00024036575632635504,-0.012346557341516018,0.6624811291694641,0.7489768266677856,0.019999027252197266,81,8.993782e-06,6.294623e-05,6.358550199666121e-05,4.122580528259277,105.07518768310547
1779198414.330337,1.582547664642334,guard-only,0,0.0,0.0,0.0,0.0,0.0027880082,0.0066256886,0.03779118,0.00027702172519639134,-0.011912861838936806,0.6625357270240784,0.7489355206489563,0.01787734031677246,82,3.1869859e-06,5.552359e-05,5.561498051333885e-05,4.122580528259277,105.07518768310547
1779198414.4114625,1.6636731624603271,guard-only,0,0.0,0.0,0.0,0.0,0.002769676,0.0066145835,0.03780193,0.00038439224590547383,-0.012589070945978165,0.6623058319091797,0.7491277456283569,0.019800186157226562,83,-1.5145168e-05,4.44185e-05,4.6929512760372686e-05,4.122580528259277,105.10293579101562
1779198414.4728944,1.7251050472259521,guard-only,0,0.0,0.0,0.0,0.0,0.0027603358,0.006583886,0.037760597,0.0009239895734935999,-0.014475339092314243,0.6624830365180969,0.7489364743232727,0.006119251251220703,84,-2.4485402e-05,1.37211755e-05,2.8067874848916137e-05,4.122580528259277,105.09355163574219
1779198414.5754836,1.8276941776275635,guard-only,0,0.0,0.0,0.0,0.0,0.0027542645,0.0065802606,0.037742566,0.0012311891186982393,-0.015643373131752014,0.6625235080718994,0.7488767504692078,0.016101837158203125,85,-3.0556694e-05,1.0095537e-05,3.218122680147676e-05,4.122580528259277,105.12088012695312
1779198414.6368272,1.889037847518921,guard-only,0,0.0,0.0,0.0,0.0,0.0027944036,0.006602376,0.037737425,0.0010925441747531295,-0.014913267455995083,0.6625719666481018,0.7488489747047424,0.0060880184173583984,86,9.582378e-06,3.2210723e-05,3.360584192411578e-05,4.122580528259277,105.15074157714844
1779198414.7177365,1.969947099685669,guard-only,0,0.0,0.0,0.0,0.0,0.0027908748,0.006598102,0.037749697,0.0012361276894807816,-0.015228119678795338,0.6625997424125671,0.7488178610801697,0.015636920928955078,87,6.0535967e-06,2.7936883e-05,2.858523196310506e-05,4.122580528259277,105.15074157714844
1779198414.8825803,2.1347908973693848,guard-only,0,0.0,0.0,0.0,0.0,0.0027691014,0.006610658,0.03774003,0.0007222577114589512,-0.01416353601962328,0.662476122379303,0.748948872089386,0.014928102493286133,88,-1.5719794e-05,4.0492974e-05,4.3437229931313116e-05,4.122580528259277,105.16350555419922
1779198414.9044933,2.1567039489746094,guard-only,0,0.0,0.0,0.0,0.0,0.0027584052,0.0066332845,0.037790276,0.00052862917073071,-0.012946749106049538,0.6623552441596985,0.7490778565406799,0.016112089157104492,89,-2.6416034e-05,6.3119456e-05,6.842421111955669e-05,4.122580528259277,105.16350555419922
1779198414.9902322,2.2424428462982178,guard-only,0,0.0,0.0,0.0,0.0,0.0027826326,0.00656551,0.037760437,9.58779564825818e-05,-0.01211582962423563,0.6625490188598633,0.7489205598831177,0.00742030143737793,90,-2.188608e-06,-4.655216e-06,5.144029544666777e-06,4.127859115600586,105.14053344726562
1779198415.0917463,2.34395694732666,guard-only,0,0.0,0.0,0.0,0.0,0.0027891416,0.00664696,0.037792224,0.00043800557614304125,-0.013286277651786804,0.6624422669410706,0.7489951252937317,0.016859054565429688,91,4.3204054e-06,7.6795e-05,7.691643100005687e-05,4.122580528259277,105.13878631591797
1779198415.1738224,2.4260330200195312,guard-only,0,0.0,0.0,0.0,0.0,0.002769187,0.006640588,0.037783522,0.00034457253059372306,-0.012559517286717892,0.6623988151550293,0.7490460872650146,0.007056474685668945,92,-1.5634112e-05,7.042289e-05,7.21374278389824e-05,4.122580528259277,105.17204284667969
1779198415.276021,2.528231620788574,guard-only,0,0.0,0.0,0.0,0.0,0.0027870229,0.006632629,0.03777692,0.00012169160618213937,-0.01198392454534769,0.6624689102172852,0.7489936351776123,0.017531394958496094,93,2.2016466e-06,6.2463805e-05,6.250259334828322e-05,4.122580528259277,105.18347930908203
1779198415.3598423,2.6120529174804688,guard-only,0,0.0,0.0,0.0,0.0,0.0028018672,0.006633826,0.037784036,0.0004485362733248621,-0.012358966283500195,0.6624123454093933,0.7490373849868774,0.006891012191772461,94,1.7045997e-05,6.366102e-05,6.590365656256577e-05,4.122580528259277,105.18641662597656
1779198415.4615965,2.7138071060180664,guard-only,0,0.0,0.0,0.0,0.0,0.002741905,0.0065927217,0.037730202,0.0010759866563603282,-0.015316174365580082,0.6624342799186707,0.7489627003669739,0.013199806213378906,95,-4.2916276e-05,2.2556633e-05,4.848307307311245e-05,4.122580528259277,105.21981048583984
1779198415.5432346,2.795445203781128,guard-only,0,0.0,0.0,0.0,0.0,0.0027983654,0.0065970346,0.037725773,0.0006944566266611218,-0.013994072563946247,0.6624638438224792,0.7489628791809082,0.0022521018981933594,96,1.3544224e-05,2.6869588e-05,3.0090210008972457e-05,4.122580528259277,105.17306518554688
1779198415.6445363,2.896746873855591,guard-only,0,0.0,0.0,0.0,0.0,0.0027872007,0.006574898,0.03773306,0.0007818076992407441,-0.014736187644302845,0.6624975800514221,0.7489186525344849,0.010360240936279297,97,2.3795292e-06,4.7329813e-06,5.29747774487603e-06,4.122580528259277,105.17147827148438
1779198415.707149,2.959359645843506,guard-only,0,0.0,0.0,0.0,0.0,0.0027796784,0.0065938714,0.037758376,0.0009526733192615211,-0.014364943839609623,0.6626046895980835,0.7488309741020203,0.0014772415161132812,98,-5.1427633e-06,2.370635e-05,2.4257763195401918e-05,4.122580528259277,105.17147827148438
1779198415.8151362,3.0673468112945557,guard-only,0,0.0,0.0,0.0,0.0,0.0027920166,0.0066099092,0.03773142,0.0007885190425440669,-0.01429414376616478,0.6626225113868713,0.748816728591919,0.015062093734741211,99,7.195398e-06,3.974419e-05,4.039027704719278e-05,4.122580528259277,105.1851577758789
1779198415.8762863,3.1284968852996826,guard-only,0,0.0,0.0,0.0,0.0,0.0027421974,0.0065991567,0.037753653,0.001357118133455515,-0.015491126105189323,0.6624814867973328,0.7489168643951416,0.00481104850769043,100,-4.262384e-05,2.8991606e-05,5.154905472144767e-05,4.122580528259277,105.214111328125
1779198415.9572034,3.209414005279541,guard-only,0,0.0,0.0,0.0,0.0,0.0027768249,0.0065752724,0.037783477,-9.680967195890844e-05,-0.011707236059010029,0.6625642776489258,0.7489136457443237,0.003906965255737305,101,-7.996336e-06,5.107373e-06,9.48823687106496e-06,4.122580528259277,105.26901245117188
1779198416.059604,3.311814546585083,guard-only,0,0.0,0.0,0.0,0.0,0.0027768612,0.006640113,0.037806716,0.0004896185710094869,-0.012833880260586739,0.6624255180358887,0.7490177154541016,0.012659788131713867,102,-7.960014e-06,6.994791e-05,7.039937813170736e-05,4.122580528259277,105.26226806640625
1779198416.142162,3.3943727016448975,guard-only,0,0.0,0.0,0.0,0.0,0.0028008772,0.0066578984,0.037790757,0.00011440317030064762,-0.012510841712355614,0.6624726057052612,0.7489816546440125,0.002927064895629883,103,1.6056001e-05,8.773338e-05,8.919047928077717e-05,4.122580528259277,105.25858306884766
1779198416.2448943,3.4971048831939697,guard-only,0,0.0,0.0,0.0,0.0,0.0027650557,0.006614963,0.037744615,0.0010837364243343472,-0.014848057180643082,0.6626112461090088,0.7488155364990234,0.013063430786132812,104,-1.9765459e-05,4.4798013e-05,4.896463523260663e-05,4.122580528259277,105.22233581542969
1779198416.3263125,3.5785231590270996,guard-only,0,0.0,0.0,0.0,0.0,0.002769269,0.0065685883,0.037755672,0.00017331393610220402,-0.012063420377671719,0.6624646186828613,0.7489960789680481,0.0010919570922851562,105,-1.5552156e-05,-1.5767291e-06,1.5631878296363582e-05,4.122580528259277,105.22233581542969
1779198416.43105,3.683260679244995,guard-only,0,0.0,0.0,0.0,0.0,0.0028062258,0.006585308,0.037818477,-0.0005292785936035216,-0.009503861889243126,0.6625809669494629,0.7489298582077026,0.014252185821533203,106,2.1404587e-05,1.5142839e-05,2.621949505087978e-05,4.122580528259277,105.24835968017578
1779198416.5150635,3.7672741413116455,guard-only,0,0.0,0.0,0.0,0.0,0.0027681785,0.0066610966,0.03777351,0.00026189241907559335,-0.0125269815325737,0.6623627543449402,0.7490785121917725,0.004974365234375,107,-1.6642734e-05,9.093154e-05,9.244200980275852e-05,4.122580528259277,105.24835968017578
1779198416.5972986,3.8495092391967773,guard-only,0,0.0,0.0,0.0,0.0,0.0027740132,0.006614231,0.037739553,0.0006987872766330838,-0.014484907500445843,0.6625272631645203,0.7488974332809448,0.004450559616088867,108,-1.08079985e-05,4.4065993e-05,4.537206854572154e-05,4.122580528259277,105.20945739746094
1779198416.6797194,3.9319300651550293,guard-only,0,0.0,0.0,0.0,0.0,0.0028004684,0.0066004386,0.037721433,0.0006186009850353003,-0.013696468435227871,0.6625304222106934,0.7489095330238342,0.014923810958862305,109,1.564715e-05,3.0273572e-05,3.407818191487717e-05,4.122580528259277,105.21271514892578
1779198416.7614763,4.013686895370483,guard-only,0,0.0,0.0,0.0,0.0,0.0027706483,0.0065921177,0.037734378,0.0008074782090261579,-0.014410709962248802,0.6625193953514099,0.7489057183265686,0.013047218322753906,110,-1.4172867e-05,2.195267e-05,2.613024837598911e-05,4.122580528259277,105.22903442382812
1779198416.8442647,4.09647536277771,guard-only,0,0.0,0.0,0.0,0.0,0.0028165206,0.0066036964,0.03772889,0.0007958795758895576,-0.014188173227012157,0.6623366475105286,0.7490715980529785,0.014432191848754883,111,3.1699426e-05,3.3531338e-05,4.6143302529976536e-05,4.122580528259277,105.2112045288086
1779198416.925977,4.178187608718872,guard-only,0,0.0,0.0,0.0,0.0,0.0027814321,0.0065749167,0.037771054,-4.816005821339786e-05,-0.011734068393707275,0.6625292301177979,0.7489441633224487,0.013976812362670898,112,-3.3890828e-06,4.751608e-06,5.836407983013087e-06,4.122580528259277,105.2112045288086
1779198417.0107238,4.262934446334839,guard-only,0,0.0,0.0,0.0,0.0,0.002780253,0.0066263964,0.03778588,0.00021118318545632064,-0.012031950987875462,0.6624066829681396,0.7490478157997131,0.016120195388793945,113,-4.5681372e-06,5.6231394e-05,5.641664445109011e-05,4.122580528259277,105.23533630371094
1779198417.0922227,4.344433307647705,guard-only,0,0.0,0.0,0.0,0.0,0.0027961023,0.0066082263,0.037737947,0.0009068555082194507,-0.014311935752630234,0.6625736355781555,0.7488594651222229,0.004754304885864258,114,1.128111e-05,3.806129e-05,3.969792537605088e-05,4.122580528259277,105.20054626464844
1779198417.1944697,4.446680307388306,guard-only,0,0.0,0.0,0.0,0.0,0.0028013177,0.006651028,0.03779703,4.009553595096804e-05,-0.011735278181731701,0.6623514890670776,0.7491012811660767,0.012031078338623047,115,1.6496517e-05,8.0863014e-05,8.252855273540941e-05,4.122580528259277,105.20108032226562
1779198417.2763734,4.528584003448486,guard-only,0,0.0,0.0,0.0,0.0,0.0027786382,0.0066019427,0.037736285,0.0006771313492208719,-0.014019361697137356,0.6625396013259888,0.7488954663276672,0.011830806732177734,116,-6.1830506e-06,3.1777658e-05,3.237359490491793e-05,4.122580528259277,105.21619415283203
1779198417.361982,4.614192724227905,guard-only,0,0.0,0.0,0.0,0.0,0.0028166156,0.006658249,0.03779444,0.00033218899625353515,-0.012740841135382652,0.6624956727027893,0.7489573359489441,0.0008287429809570312,117,3.179442e-05,8.808402e-05,9.364657485141654e-05,4.122580528259277,105.24153900146484
1779198417.4672635,4.7194740772247314,guard-only,0,0.0,0.0,0.0,0.0,0.0027667815,0.006602699,0.037720375,0.000856659491546452,-0.014780399389564991,0.6624353528022766,0.7489727735519409,0.013730287551879883,118,-1.8039718e-05,3.253389e-05,3.7200612383413696e-05,4.122580528259277,105.22364044189453
1779198417.5482805,4.800491094589233,guard-only,0,0.0,0.0,0.0,0.0,0.0028046947,0.0066328477,0.037727904,0.0007718229317106307,-0.01405344344675541,0.6624726057052612,0.7489538788795471,0.003126859664916992,119,1.9873492e-05,6.2682666e-05,6.575767796541722e-05,4.122580528259277,105.13165283203125
1779198417.6311169,4.883327484130859,guard-only,0,0.0,0.0,0.0,0.0,0.0028143972,0.0066530323,0.03776762,0.00032389970147050917,-0.01261325553059578,0.662453830242157,0.7489964962005615,0.0032143592834472656,120,2.9576011e-05,8.286722e-05,8.798702518620193e-05,4.122580528259277,105.13165283203125
1779198417.733414,4.985624551773071,guard-only,0,0.0,0.0,0.0,0.0,0.002802996,0.0066484963,0.037788983,0.0003036752750631422,-0.012161860242486,0.6625538468360901,0.7489155530929565,0.01317906379699707,121,1.817476e-05,7.833121e-05,8.041206991477403e-05,4.122580528259277,105.13032531738281
1779198417.7949677,5.047178268432617,guard-only,0,0.0,0.0,0.0,0.0,0.0028259372,0.006651256,0.037758134,-0.00014064199058339,-0.011692609637975693,0.6624995470046997,0.7489710450172424,0.012354373931884766,122,4.111603e-05,8.109072e-05,9.091882660597034e-05,4.122580528259277,105.13032531738281
1779198417.8791208,5.131331443786621,guard-only,0,0.0,0.0,0.0,0.0,0.00273602,0.0065756873,0.037706714,0.0012408209731802344,-0.015664895996451378,0.6623013019561768,0.7490729093551636,0.002522706985473633,123,-4.8801303e-05,5.522277e-06,4.911275569278762e-05,4.122580528259277,105.13416290283203
1779198417.9426334,5.194844007492065,guard-only,0,0.0,0.0,0.0,0.0,0.0027953107,0.0066288384,0.037752207,-0.00016919821791816503,-0.012002894654870033,0.6622323989868164,0.7492023706436157,0.0022726058959960938,124,1.0489486e-05,5.8673322e-05,5.960359050891241e-05,4.122580528259277,105.15654754638672
1779198418.0457764,5.29798698425293,guard-only,0,0.0,0.0,0.0,0.0,0.0028031934,0.0066426937,0.03776521,-1.2237765986355953e-05,-0.012174347415566444,0.6625450253486633,0.7489232420921326,0.011973142623901367,125,1.83722e-05,7.252861e-05,7.48193580345267e-05,4.122580528259277,105.13308715820312
1779198418.149575,5.401785612106323,guard-only,250,0.3814755474174105,0.0,0.0,0.0,0.0028089704,0.0066416394,0.037774283,-0.00010729673522291705,-0.011488585732877254,0.6624019145965576,0.7490606307983398,0.02000713348388672,126,2.4149194e-05,7.147435e-05,7.54437977144595e-05,4.122580528259277,105.15206909179688
1779198418.2337701,5.485980749130249,guard-only,250,0.3814755474174105,0.0,0.0,0.0,0.002725887,0.006577974,0.03773031,0.0009662570664659142,-0.015320920385420322,0.6622318029403687,0.7491418123245239,0.0188751220703125,127,-5.8934093e-05,7.80914e-06,5.9449220463296896e-05,4.122580528259277,105.14981842041016
1779198418.315009,5.5672197341918945,guard-only,250,0.3814755474174105,0.0,0.0,0.0,0.0027885223,0.0066515105,0.037801065,4.305550464778207e-05,-0.011947611346840858,0.6624657511711121,0.7489969730377197,0.007906675338745117,128,3.701076e-06,8.134544e-05,8.142959013021684e-05,4.122580528259277,105.14981842041016
1779198418.4160962,5.668306827545166,guard-only,250,0.3814755474174105,0.0,0.0,0.0,0.0027986933,0.006613679,0.037728384,0.0006427066982723773,-0.014419812709093094,0.6624786853790283,0.7489417195320129,0.005791664123535156,129,1.387205e-05,4.3514185e-05,4.567185243572275e-05,4.122580528259277,105.1558837890625
1779198418.4992855,5.751496076583862,guard-only,250,0.3814755474174105,0.0,0.0,0.0,0.0027308743,0.006542434,0.037754532,0.0003670546575449407,-0.012851548381149769,0.6624433398246765,0.7490017414093018,0.003997802734375,130,-5.394686e-05,-2.7731061e-05,6.0657032163584213e-05,4.122580528259277,105.15062713623047
1779198418.601599,5.853809595108032,guard-only,250,0.3814755474174105,0.0,0.0,0.0,0.0027921796,0.0066107656,0.037726253,0.0004179017851129174,-0.01350175216794014,0.6624681949615479,0.7489683032035828,0.0021491050720214844,131,7.3583797e-06,4.0600542e-05,4.1261965147514274e-05,4.122580528259277,105.18637084960938
1779198418.683177,5.93538761138916,guard-only,250,0.3814755474174105,0.0,0.0,0.0,0.0027763192,0.0066289348,0.03778475,0.00044429319677874446,-0.013086816295981407,0.6625379920005798,0.7489138245582581,0.002200603485107422,132,-8.502044e-06,5.8769714e-05,5.938151437508835e-05,4.122580528259277,105.19908142089844
1779198418.771197,6.023407697677612,guard-only,250,0.3814755474174105,0.0,0.0,0.0,0.0027797455,0.0066485717,0.037757434,-2.7391568437451497e-05,-0.012259489856660366,0.6623678803443909,0.7490784525871277,0.0013413429260253906,133,-5.075708e-06,7.840665e-05,7.857076949184304e-05,4.122580528259277,105.19369506835938
1779198418.8775897,6.129800319671631,guard-only,250,0.3814755474174105,0.0,0.0,0.0,0.0027929833,0.0066324146,0.03776894,0.0008322382345795631,-0.013776588253676891,0.6625946760177612,0.7488510012626648,0.017166614532470703,134,8.162111e-06,6.22496e-05,6.278242427568778e-05,4.122580528259277,105.18331909179688
1779198418.9585123,6.210722923278809,guard-only,500,0.762951094834821,0.0,0.0,0.0,0.0027954858,0.0066473205,0.037791453,3.329721948830411e-05,-0.01171514205634594,0.6624493598937988,0.7490150928497314,0.012395620346069336,135,1.0664575e-05,7.715542e-05,7.788896965252178e-05,4.122580528259277,105.14060974121094
1779198419.0395896,6.291800260543823,guard-only,500,0.762951094834821,0.0,0.0,0.0,0.002784267,0.0066378117,0.0377724,0.0003194588061887771,-0.012683890759944916,0.6623964309692383,0.7490460872650146,0.015806198120117188,136,-5.5413693e-07,6.7646615e-05,6.764888234056793e-05,4.122580528259277,105.09272003173828
1779198419.102056,6.35426664352417,guard-only,500,0.762951094834821,0.0,0.0,0.0,0.0027651675,0.0065995026,0.03772066,0.0006122678751125932,-0.014481520280241966,0.66246098279953,0.7489562034606934,0.0058116912841796875,137,-1.96537e-05,2.9337592e-05,3.5312353520906596e-05,4.122580528259277,105.09272003173828
1779198419.1839297,6.436140298843384,guard-only,500,0.762951094834821,0.0,0.0,0.0,0.002735299,0.0066103647,0.037717704,0.0009915014961734414,-0.01493863295763731,0.6623830199241638,0.7490158081054688,0.016584157943725586,138,-4.9522147e-05,4.0199608e-05,6.378441309277175e-05,4.122580528259277,105.10427856445312
1779198419.2868767,6.539087295532227,guard-only,750,1.1444266422522316,0.0,0.0,0.0,0.0027733361,0.0066457298,0.0377749,7.526153058279306e-05,-0.012062175199389458,0.6623311042785645,0.7491142153739929,0.016414403915405273,139,-1.148507e-05,7.556472e-05,7.643254283048709e-05,4.122580528259277,105.1876220703125
1779198419.3686078,6.620818376541138,guard-only,750,1.1444266422522316,0.0,0.0,0.0,0.0027953563,0.0066011385,0.03776535,0.0006645848043262959,-0.013959812931716442,0.6625195741653442,0.7489143013954163,0.01235198974609375,140,1.0535121e-05,3.097346e-05,3.27161127829274e-05,4.122580528259277,105.14208221435547
1779198419.4724581,6.724668741226196,guard-only,750,1.1444266422522316,0.0,0.0,0.0,0.0027967487,0.006651019,0.03778585,3.5229641071055084e-05,-0.011828267946839333,0.6623994708061218,0.749057412147522,0.014653921127319336,141,1.1927448e-05,8.0854166e-05,8.172918928002978e-05,4.122580528259277,105.13326263427734
1779198419.5541122,6.806322813034058,guard-only,1000,1.525902189669642,0.0,0.0,0.0,0.0027758963,0.0065881703,0.03772258,0.0008472653571516275,-0.014712059870362282,0.6625259518623352,0.7488939762115479,0.0004858970642089844,142,-8.924864e-06,1.800526e-05,2.0095834655358988e-05,4.122580528259277,105.16870880126953
1779198419.6563733,6.908583879470825,guard-only,1000,1.525902189669642,0.0,0.0,0.0,0.0027452204,0.0065823477,0.037705317,0.0006388917681761086,-0.014238887466490269,0.6621991395950317,0.7491924166679382,0.019645214080810547,143,-3.9600767e-05,1.2182631e-05,4.1432321643517016e-05,4.122580528259277,105.1468505859375
1779198419.7389994,6.991209983825684,guard-only,1250,1.9073777370870528,0.0,0.0,0.0,0.0027869241,0.006652572,0.037759934,-0.0001254634844372049,-0.011817722581326962,0.662507176399231,0.7489623427391052,0.008359670639038086,144,2.1029264e-06,8.240715e-05,8.243397524371126e-05,4.122580528259277,105.1119155883789
1779198419.8435063,7.095716953277588,guard-only,1250,1.9073777370870528,0.0,0.0,0.0,0.0027800584,0.006661213,0.03777476,-8.942086424212903e-05,-0.012143172323703766,0.6624607443809509,0.7489982843399048,0.018998384475708008,145,-4.7627836e-06,9.104796e-05,9.11724451603511e-05,4.122580528259277,105.05181121826172
1779198419.9272163,7.179426908493042,guard-only,1250,1.9073777370870528,0.0,0.0,0.0,0.002773007,0.006607539,0.037710853,0.00033741339575499296,-0.014240147545933723,0.6623790264129639,0.749033510684967,0.010086536407470703,146,-1.18142925e-05,3.7373975e-05,3.919682969961894e-05,4.122580528259277,105.05181121826172
1779198420.0336034,7.285814046859741,guard-only,1500,2.288853284504463,0.0,0.0,0.0,0.002768905,0.006623474,0.037739974,0.00045682830386795104,-0.013657442294061184,0.6625679135322571,0.748877227306366,0.020020246505737305,147,-1.5916303e-05,5.3308904e-05,5.5634233164106495e-05,4.122580528259277,105.07211303710938
1779198420.1167414,7.368952035903931,guard-only,1500,2.288853284504463,0.0,0.0,0.0,0.0027208682,0.006625525,0.037720602,0.0006206903490237892,-0.014429611153900623,0.6623369455337524,0.7490668892860413,0.019100427627563477,148,-6.395299e-05,5.5360142e-05,8.458563791612944e-05,4.122580528259277,105.07211303710938
1779198420.2014613,7.453671932220459,guard-only,1500,2.288853284504463,0.0,0.0,0.0,0.002793531,0.006652453,0.03779724,0.00015175790758803487,-0.012022948823869228,0.6624584794044495,0.7490020990371704,0.021068334579467773,149,8.709729e-06,8.228794e-05,8.27475931310889e-05,4.117301940917969,105.05496978759766
1779198420.2686167,7.520827293395996,guard-only,1750,2.6703288319218736,0.0,0.0,0.0,0.002803659,0.00665054,0.037776,-0.00026932789478451014,-0.011217782273888588,0.662473201751709,0.749001681804657,0.0008654594421386719,150,1.8837862e-05,8.0375e-05,8.255304896214401e-05,4.122580528259277,105.1210708618164
1779198420.349708,7.601918697357178,guard-only,1750,2.6703288319218736,0.0,0.0,0.0,0.0027906038,0.006671209,0.037796274,-7.812466355971992e-05,-0.011841104365885258,0.6625572443008423,0.7489177584648132,0.017702102661132812,151,5.782582e-06,0.00010104384,0.00010120916949169421,4.122580528259277,105.14515686035156
1779198420.430836,7.683046579360962,guard-only,1750,2.6703288319218736,0.0,0.0,0.0,0.0027784072,0.006661067,0.037791315,-0.00010429557733004913,-0.011563613079488277,0.6625286936759949,0.748947262763977,0.0070438385009765625,152,-6.4140186e-06,9.090174e-05,9.112774396152074e-05,4.117301940917969,105.1676254272461
1779198420.5339653,7.786175966262817,guard-only,2000,3.051804379339284,0.0,0.0,0.0,0.0027730279,0.0066445926,0.037767388,-0.00019317609257996082,-0.011737979017198086,0.6623407006263733,0.7491108179092407,0.01867079734802246,153,-1.1793338e-05,7.4427575e-05,7.535613422928135e-05,4.122580528259277,105.13009643554688
1779198420.6155872,7.8677978515625,guard-only,2000,3.051804379339284,0.0,0.0,0.0,0.0027821232,0.00664608,0.03776695,7.408520468743518e-05,-0.012303716503083706,0.6624945998191833,0.7489656805992126,0.00824880599975586,154,-2.6980415e-06,7.59149e-05,7.596282846160826e-05,4.122580528259277,105.13009643554688
1779198420.720003,7.972213506698608,guard-only,2250,3.4332799267566947,0.0,0.0,0.0,0.002800447,0.006666662,0.03776877,9.46531963563757e-06,-0.011857406236231327,0.6623881459236145,0.7490670084953308,0.014099359512329102,155,1.562573e-05,9.6497126e-05,9.77540751837328e-05,4.122580528259277,105.09500122070312
1779198420.9054208,8.157631397247314,guard-only,2250,3.4332799267566947,0.0,0.0,0.0,0.0027787192,0.006649049,0.037772316,0.00018445076420903206,-0.012532325461506844,0.6623075008392334,0.7491273283958435,0.0030503273010253906,156,-6.1020255e-06,7.888395e-05,7.911960937903557e-05,4.117301940917969,105.06647491455078
1779198420.9935992,8.24580979347229,guard-only,2500,3.8147554741741057,0.0,0.0,0.0,0.0027236147,0.006601149,0.037770577,0.00010725689207902178,-0.01198028028011322,0.6624321341514587,0.7490261197090149,0.00863194465637207,157,-6.120652e-05,3.098417e-05,6.860216263113075e-05,4.122580528259277,105.05402374267578
1779198421.0787172,8.330927848815918,guard-only,2500,3.8147554741741057,0.0,0.0,0.0,0.0027816007,0.006627186,0.037725557,0.0004286724724806845,-0.013933819718658924,0.662483274936676,0.748947024345398,0.009640216827392578,158,-3.2205135e-06,5.7021156e-05,5.711202985400687e-05,4.122580528259277,105.02582550048828
1779198421.1802764,8.43248701095581,guard-only,2500,3.8147554741741057,0.0,0.0,0.0,0.002753675,0.0065725995,0.03773831,-0.00015176313172560185,-0.012090852484107018,0.6624413728713989,0.7490161657333374,0.019307374954223633,159,-3.114622e-05,2.4344772e-06,3.124121997162798e-05,4.122580528259277,105.00210571289062
1779198421.2633786,8.515589237213135,guard-only,2750,4.196231021591516,0.0,0.0,0.0,0.002799973,0.006641509,0.03775555,-0.0003304358688183129,-0.011173581704497337,0.6624663472175598,0.749008297920227,0.009628057479858398,160,1.5151687e-05,7.1343966e-05,7.293514265898745e-05,4.122580528259277,105.04621887207031
1779198421.3444347,8.59664535522461,guard-only,2750,4.196231021591516,0.0,0.0,0.0,0.002816475,0.006685491,0.037774663,3.8296999264275655e-05,-0.01209572795778513,0.6623687148094177,0.7490803599357605,0.019546985626220703,161,3.165379e-05,0.00011532614,0.00011959130945451782,4.122580528259277,105.0788345336914
1779198421.427545,8.679755687713623,guard-only,2750,4.196231021591516,0.0,0.0,0.0,0.0027709147,0.006619906,0.037701495,0.0002557551197241992,-0.01361619308590889,0.6623995900154114,0.7490270137786865,0.018873929977416992,162,-1.3906509e-05,4.9741007e-05,5.164841566288012e-05,4.122580528259277,105.0788345336914
1779198421.4889805,8.741191148757935,guard-only,2750,4.196231021591516,0.0,0.0,0.0,0.0028189132,0.0066464376,0.037757985,4.424179860507138e-05,-0.012339450418949127,0.6623288989067078,0.7491115927696228,0.0034492015838623047,163,3.4091994e-05,7.6272525e-05,8.354497053456958e-05,4.117301940917969,105.04766845703125
1779198421.5923812,8.844591856002808,guard-only,3000,4.577706569008926,0.0,0.0,0.0,0.002770925,0.0066053485,0.03771218,0.0005393598112277687,-0.01443349476903677,0.6624853014945984,0.7489356398582458,0.01447606086730957,164,-1.3896264e-05,3.5183504e-05,3.782836527274844e-05,4.122580528259277,105.08545684814453
1779198421.6752274,8.927438020706177,guard-only,3000,4.577706569008926,0.0,0.0,0.0,0.0028036358,0.006669482,0.037774235,9.529959243081976e-06,-0.012007261626422405,0.6624947190284729,0.7489703893661499,0.005066871643066406,165,1.8814579e-05,9.931717e-05,0.00010108357313295046,4.117301940917969,105.06258392333984
1779198421.7781477,9.03035831451416,guard-only,3250,4.959182116426337,0.0,0.0,0.0,0.002754202,0.006607799,0.037709817,0.0005686074146069586,-0.014511574059724808,0.6623757481575012,0.7490310668945312,0.01594829559326172,166,-3.0619092e-05,3.7633814e-05,4.8516313589563646e-05,4.122580528259277,105.06306457519531
1779198421.858997,9.111207723617554,guard-only,3250,4.959182116426337,0.0,0.0,0.0,0.0027795974,0.006606782,0.037731156,0.0002381552621955052,-0.01304997131228447,0.6625329852104187,0.7489190697669983,0.007711648941040039,167,-5.2237883e-06,3.661681e-05,3.698754723370542e-05,4.117301940917969,105.04510498046875
1779198422.0446181,9.296828746795654,guard-only,3500,5.340657663843747,0.0,0.0,0.0,0.002748169,0.00665538,0.037764296,6.92445901222527e-05,-0.01245968509465456,0.662259042263031,0.7491713762283325,0.007267475128173828,168,-3.66522e-05,8.5215084e-05,9.276310716358495e-05,4.117301940917969,105.0336685180664
1779198422.1473289,9.399539470672607,guard-only,3500,5.340657663843747,0.0,0.0,0.0,0.0027784267,0.006596656,0.037727248,0.0005307873943820596,-0.01402430422604084,0.6625752449035645,0.748863935470581,0.006558895111083984,169,-6.394461e-06,2.6491005e-05,2.7251834563258823e-05,4.117301940917969,105.00262451171875
1779198422.2524273,9.504637956619263,guard-only,3500,5.340657663843747,0.0,0.0,0.0,0.0027877688,0.006655312,0.037756726,-0.0003352212952449918,-0.011406750418245792,0.6624965667724609,0.7489780187606812,0.015557527542114258,170,2.947636e-06,8.51471e-05,8.519810290604726e-05,4.117301940917969,104.95381927490234
1779198422.334653,9.58686351776123,guard-only,3500,5.340657663843747,0.0,0.0,0.0,0.002756548,0.0065984554,0.037706606,0.00038210744969546795,-0.014035270549356937,0.6623005867004395,0.749106764793396,0.005175590515136719,171,-2.827309e-05,2.829032e-05,3.99963738367112e-05,4.117301940917969,104.91974639892578
1779198422.4179184,9.67012906074524,guard-only,3500,5.340657663843747,0.0,0.0,0.0,0.002787741,0.006642351,0.03772755,-0.0003801492275670171,-0.011160735040903091,0.6623371243476868,0.7491227388381958,0.003683805465698242,172,2.9196963e-06,7.218588e-05,7.224490504169954e-05,4.117301940917969,104.91974639892578
1779198422.5022361,9.754446744918823,guard-only,3750,5.722133211261158,0.0,0.0,0.0,0.0027585672,0.006641827,0.03774394,0.0003253387694712728,-0.012445680797100067,0.6623657941818237,0.7490771412849426,0.013190269470214844,173,-2.6253983e-05,7.166201e-05,7.631982586968571e-05,4.117301940917969,104.92849731445312
1779198422.5861516,9.838362216949463,guard-only,4750,7.2480354009308,0.0,0.0,0.0,0.002776363,0.00663555,0.037751462,-0.00015276462363544852,-0.011469095945358276,0.6624072194099426,0.7490562200546265,0.014396190643310547,174,-8.458272e-06,6.53849e-05,6.592971577706079e-05,4.117301940917969,104.9570083618164
1779198422.671312,9.923522710800171,guard-only,5250,8.010986495765621,0.0,0.0,0.0,0.0027911132,0.006612625,0.03770572,0.00043281566468067467,-0.013764363713562489,0.6625069975852966,0.7489292025566101,0.0058591365814208984,175,6.2920153e-06,4.2459927e-05,4.292359341126143e-05,4.11202335357666,104.98529815673828
1779198422.7337935,9.986004114151001,guard-only,6000,9.155413138017853,0.0,0.0,0.0,0.002793895,0.0066118,0.037709612,0.00034119945485144854,-0.013924211263656616,0.6624505519866943,0.7489761710166931,0.015831470489501953,176,9.073876e-06,4.1634776e-05,4.261208574819108e-05,4.11202335357666,105.04013061523438
1779198422.8153603,10.067570924758911,guard-only,6750,10.299839780270085,0.0,0.0,0.0,0.0027528433,0.006594446,0.037704453,0.0007660805713385344,-0.014286847785115242,0.6623364090919495,0.7490699291229248,0.0055010318756103516,177,-3.1977892e-05,2.4280977e-05,4.0151605352299594e-05,4.11202335357666,105.04013061523438
1779198422.8965576,10.148768186569214,guard-only,7500,11.444266422522317,0.0,0.0,0.0,0.0028024008,0.0065991245,0.037692986,0.00036516826367005706,-0.013469822704792023,0.6624610424041748,0.7489751577377319,0.01552581787109375,178,1.7579645e-05,2.8959475e-05,3.387764823755775e-05,4.106744766235352,105.0482406616211
1779198422.9822688,10.234479427337646,guard-only,7750,11.825741969939727,0.0,0.0,0.0,0.0030264063,0.0064781415,0.037789073,0.0031981877982616425,-0.009945468977093697,0.662214457988739,0.7492415308952332,0.01638340950012207,179,0.00024158508,-9.202352e-05,0.00025851822840331705,4.106744766235352,105.0070571899414
1779198423.0857306,10.33794116973877,guard-only,9000,13.733119707026779,0.0,0.0,0.0,0.0032045357,0.0061142775,0.037821997,0.007148367818444967,-0.007918907329440117,0.662209153175354,0.7492431402206421,0.017244338989257812,180,0.0004197145,-0.00045588752,0.0006196722470234563,4.101466178894043,105.00527954101562
1779198423.1671617,10.419372320175171,guard-only,9750,14.877546349279012,0.0,0.0,0.0,0.003330044,0.006054414,0.03788307,0.008179865777492523,-0.007074309978634119,0.6624467968940735,0.7490308880805969,0.014039993286132812,181,0.0005452228,-0.0005157511,0.0007505112024415184,4.096187591552734,105.02693939208984
1779198423.2490203,10.501230955123901,guard-only,10000,15.259021896696423,0.0,0.0,0.0,0.003392599,0.0060323244,0.03788855,0.008870018646121025,-0.006818154826760292,0.6624259948730469,0.749043881893158,0.012819290161132812,182,0.00060777785,-0.00053784065,0.0008115827266600891,4.096187591552734,105.04696655273438
1779198423.3345456,10.586756229400635,guard-only,10500,16.021972991531243,0.0,0.0,0.0,0.003396051,0.006018152,0.037876524,0.009352438151836395,-0.007696761749684811,0.6621741652488708,0.7492520809173584,0.009412050247192383,183,0.0006112298,-0.00055201305,0.0008236019960945863,4.096187591552734,105.08796691894531
1779198423.4159374,10.668148040771484,guard-only,11500,17.547875181200887,0.0,0.0,0.0,0.0034380853,0.0060707657,0.037884228,0.009515696205198765,-0.008472263813018799,0.6621688604354858,0.74924635887146,0.002408742904663086,184,0.0006532641,-0.0004993994,0.0008222856668485267,4.096187591552734,105.08796691894531
1779198423.4976225,10.749833106994629,guard-only,12250,18.692301823453118,0.0,0.0,0.0,0.0034197634,0.006029663,0.037888505,0.00916154682636261,-0.0068767922930419445,0.6622134447097778,0.7492277026176453,0.0027132034301757812,185,0.0006349422,-0.0005405019,0.000833842863024263,4.090909004211426,105.0377426147461
1779198423.601177,10.853387594223022,guard-only,12250,18.692301823453118,0.0,0.0,0.0,0.0034113815,0.00602237,0.037915807,0.00894139800220728,-0.006209786050021648,0.6623238325119019,0.7491386532783508,0.01369619369506836,186,0.0006265603,-0.0005477951,0.0008322603529401483,4.085630416870117,104.90876770019531
1779198423.683753,10.93596363067627,guard-only,12250,18.692301823453118,0.0,0.0,0.0,0.0034422718,0.005993183,0.037866145,0.009181464090943336,-0.007369446102529764,0.6622202396392822,0.7492167949676514,0.008610248565673828,187,0.00065745064,-0.0005769823,0.0008747284593972606,4.085630416870117,104.79524230957031
1779198423.7875931,11.039803743362427,guard-only,12250,18.692301823453118,0.0,0.0,0.0,0.0033991267,0.0060074124,0.037896242,0.00935150682926178,-0.007553021889179945,0.6621202826499939,0.7493011951446533,0.012725591659545898,188,0.0006143055,-0.0005627526,0.000833103670275107,4.085630416870117,104.76374053955078
1779198423.8506606,11.102871179580688,guard-only,12250,18.692301823453118,0.0,0.0,0.0,0.0034038248,0.0060197855,0.037906334,0.009266081266105175,-0.0068895574659109116,0.6622970700263977,0.7491523623466492,0.004061222076416016,189,0.00061900355,-0.0005503795,0.0008283012813127204,4.085630416870117,104.76632690429688
1779198423.932666,11.184876680374146,guard-only,12250,18.692301823453118,0.0,0.0,0.0,0.0034414674,0.0059843035,0.03791558,0.00947222113609314,-0.007534806616604328,0.6622651219367981,0.7491718530654907,0.009958028793334961,190,0.0006566462,-0.0005858615,0.0008800101777295906,4.085630416870117,104.80734252929688
1779198424.014785,11.266995668411255,guard-only,12250,18.692301823453118,0.0,0.0,0.0,0.0033988878,0.006089151,0.037872214,0.009521249681711197,-0.008509591221809387,0.6620215773582458,0.7493760585784912,0.008778572082519531,191,0.0006140666,-0.00048101414,0.0007800335955799851,4.085630416870117,104.80734252929688
1779198424.0967772,11.348987817764282,guard-only,12250,18.692301823453118,0.0,0.0,0.0,0.0034375833,0.0059958347,0.037867792,0.009239544160664082,-0.007267966400831938,0.662162721157074,0.7492679357528687,0.016366004943847656,192,0.00065276213,-0.00057433033,0.0008694560077290878,4.085630416870117,104.80718994140625
1779198424.1798809,11.432091474533081,guard-only,12250,18.692301823453118,0.0,0.0,0.0,0.003446438,0.006061413,0.037886545,0.009110445156693459,-0.006932233460247517,0.662104070186615,0.7493244409561157,0.006413936614990234,193,0.0006616167,-0.0005087522,0.0008346049327733322,4.085630416870117,104.7906265258789
1779198424.2817984,11.534008979797363,guard-only,12250,18.692301823453118,0.0,0.0,0.0,0.003454172,0.0060755443,0.037870236,0.009198782965540886,-0.006740528158843517,0.6621319651603699,0.749300479888916,0.014124393463134766,194,0.00066935085,-0.00049462076,0.0008322741494347159,4.085630416870117,104.70349884033203
1779198424.368093,11.620303630828857,guard-only,12250,18.692301823453118,0.0,0.0,0.0,0.0034050783,0.0060530575,0.037905283,0.009407530538737774,-0.007413259241729975,0.6620190739631653,0.7493912577629089,0.016412019729614258,195,0.0006202571,-0.00051710755,0.000807538896806192,4.085630416870117,104.63691711425781
1779198424.4534473,11.705657958984375,guard-only,12250,18.692301823453118,0.0,0.0,0.0,0.0034248754,0.006060849,0.037882503,0.009441213682293892,-0.007706214673817158,0.6620986461639404,0.7493175864219666,0.01837325096130371,196,0.00064005423,-0.0005093161,0.0008179683847617123,4.085630416870117,104.62227630615234
1779198424.534881,11.787091732025146,guard-only,12250,18.692301823453118,0.0,0.0,0.0,0.0034090998,0.0059979595,0.037928194,0.01011143159121275,-0.00845194049179554,0.6619393825531006,0.7494415640830994,0.008222579956054688,197,0.00062427856,-0.0005722055,0.0008468428909587937,4.080351829528809,104.62599182128906
1779198424.6184685,11.870679140090942,guard-only,12250,18.692301823453118,0.0,0.0,0.0,0.003459705,0.0060419245,0.037853174,0.010261853225529194,-0.010912366211414337,0.6621129512786865,0.7492544054985046,0.0052034854888916016,198,0.00067488384,-0.0005282406,0.0008570334471513283,4.080351829528809,104.62599182128906
1779198424.700261,11.952471733093262,guard-only,12250,18.692301823453118,0.0,0.0,0.0,0.003420943,0.0060634427,0.037945874,0.009988372214138508,-0.008248948492109776,0.6618697047233582,0.7495070099830627,0.0013699531555175781,199,0.0006361217,-0.00050672237,0.0008132763526667393,4.085630416870117,104.6578140258789
1779198424.8018787,12.054089307785034,guard-only,12250,18.692301823453118,0.0,0.0,0.0,0.0034364443,0.0060219085,0.037926465,0.009893622249364853,-0.00798879936337471,0.6620034575462341,0.7493929862976074,0.003854036331176758,200,0.0006516231,-0.00054825656,0.0008515855754555476,4.080351829528809,104.66847229003906
1779198424.884443,12.136653661727905,guard-only,12500,19.073777370870527,0.0,0.0,0.0,0.0034285272,0.006082045,0.037947662,0.009580595418810844,-0.007318395189940929,0.6619913578033447,0.7494145035743713,0.0023543834686279297,201,0.00064370595,-0.00048812013,0.0008078481353694582,4.080351829528809,104.7279281616211
1779198424.9700887,12.222299337387085,guard-only,12500,19.073777370870527,0.0,0.0,0.0,0.0034406371,0.0060978257,0.037968405,0.009453664533793926,-0.006964764557778835,0.6620189547538757,0.7493951320648193,0.012921810150146484,202,0.00065581594,-0.00047233934,0.0008082072637179645,4.085630416870117,104.76587677001953
1779198425.0512877,12.303498268127441,guard-only,12500,19.073777370870527,0.0,0.0,0.0,0.0034650096,0.0060128057,0.03793531,0.00976476725190878,-0.007747106719762087,0.6620603799819946,0.7493468523025513,0.01232004165649414,203,0.0006801884,-0.0005573593,0.00087937802711589,4.080351829528809,104.75200653076172
1779198425.1122766,12.364487171173096,guard-only,12500,19.073777370870527,0.0,0.0,0.0,0.003411822,0.006091565,0.03794339,0.009427341632544994,-0.007103641517460346,0.6620171070098877,0.7493957877159119,6.985664367675781e-05,204,0.0006270008,-0.00047860015,0.0007887890153966296,4.080351829528809,104.75200653076172
1779198425.1948361,12.447046756744385,guard-only,12500,19.073777370870527,0.0,0.0,0.0,0.0034276526,0.0060241567,0.037910182,0.009696654044091702,-0.00824182853102684,0.6621545553207397,0.7492592334747314,0.008985519409179688,205,0.00064283144,-0.00054600835,0.0008434200369897519,4.080351829528809,104.70186614990234
1779198425.299856,12.552066564559937,guard-only,12500,19.073777370870527,0.0,0.0,0.0,0.0033989577,0.006097537,0.037923366,0.009345604106783867,-0.00703452667221427,0.6619143486022949,0.7494882941246033,0.01102447509765625,206,0.00061413646,-0.00047262805,0.0007749456945551443,4.080351829528809,104.69944763183594
1779198425.3820825,12.63429307937622,guard-only,13000,19.83672846570535,0.0,0.0,0.0,0.0034623314,0.006087031,0.0379669,0.009226725436747074,-0.005986188538372517,0.6620664000511169,0.7493644952774048,0.010679006576538086,207,0.00067751016,-0.00048313383,0.0008321287966574695,4.080351829528809,104.711181640625
1779198425.4835851,12.735795736312866,guard-only,14000,21.36263065537499,0.0,0.0,0.0,0.0034522635,0.0059941486,0.037894715,0.009819623082876205,-0.008429627865552902,0.662059485912323,0.7493396401405334,0.018833160400390625,208,0.00066744233,-0.0005760165,0.0008816316094069117,4.0750732421875,104.74100494384766
1779198425.5648196,12.817030191421509,guard-only,14500,22.12558175020981,0.0,0.0,0.0,0.003473607,0.0059911525,0.037901834,0.009468598291277885,-0.006812638137489557,0.6619977355003357,0.7494150996208191,0.006157398223876953,209,0.0006887857,-0.00057901256,0.0008998229249314315,4.069794654846191,104.76640319824219
1779198425.6660116,12.918222188949585,guard-only,15500,23.651483939879455,0.0,0.0,0.0,0.0034303893,0.006053047,0.03794416,0.009506501257419586,-0.006234445609152317,0.6620431542396545,0.7493795156478882,0.015611886978149414,210,0.0006455681,-0.00051711826,0.0008271453878340755,4.064516067504883,104.78206634521484
1779198425.767339,13.01954960823059,guard-only,16250,24.795910582131686,0.0,0.0,0.0,0.0034411014,0.0060534864,0.03796036,0.00989574659615755,-0.007568066939711571,0.6620907783508301,0.7493201494216919,0.014489173889160156,211,0.0006562802,-0.0005166787,0.0008352607611502833,4.059237480163574,104.74329376220703
1779198425.8492362,13.101446866989136,guard-only,16750,25.558861676966508,0.0,0.0,0.0,0.0034408767,0.005981637,0.037927076,0.010163404978811741,-0.009050663560628891,0.6620696187019348,0.7493187785148621,0.014879465103149414,212,0.0006560555,-0.0005885279,0.000881347775903014,4.053958892822266,104.72433471679688
1779198425.951586,13.203796625137329,guard-only,17750,27.08476386663615,0.0,0.0,0.0,0.0034413126,0.0059960657,0.037959903,0.010084073059260845,-0.008188782259821892,0.6619623303413391,0.7494245767593384,0.014941692352294922,213,0.0006564914,-0.00057409937,0.0008721072008417373,4.048680305480957,104.71478271484375
1779198426.03355,13.285760641098022,guard-only,18250,27.84771496147097,0.0,0.0,0.0,0.0034787802,0.0060204333,0.03797879,0.01030238252133131,-0.00864222552627325,0.6619089245796204,0.749463677406311,0.015558481216430664,214,0.00069395895,-0.0005497318,0.0008853157966944789,4.043401718139648,104.64190673828125
1779198426.1151984,13.367408990859985,guard-only,19000,28.9921416037232,0.0,0.0,0.0,0.0034783806,0.0060098115,0.037947208,0.01017892174422741,-0.007923557423055172,0.6619448661804199,0.7494415044784546,0.005362510681152344,215,0.0006935594,-0.0005603535,0.0008916393308882958,4.043401718139648,104.64190673828125
1779198426.176385,13.428595542907715,guard-only,19500,29.755092698558023,0.0,0.0,0.0,0.0034283986,0.0060562775,0.038002957,0.010379249230027199,-0.008638729341328144,0.6621585488319397,0.7492420673370361,0.0044519901275634766,216,0.0006435774,-0.0005138875,0.0008235728699547288,4.032844543457031,104.58369445800781
1779198426.2793562,13.531566858291626,guard-only,20000,30.518043793392845,0.0,0.0,0.0,0.0034693615,0.0059956023,0.03796005,0.010285359807312489,-0.00830775871872902,0.6620018482208252,0.7493855953216553,0.012481451034545898,217,0.00068454025,-0.0005745627,0.0008937100640939415,4.027565956115723,104.51445770263672
1779198426.3469398,13.59915041923523,guard-only,20500,31.280994888227664,0.0,0.0,0.0,0.0034532198,0.0060177706,0.037969295,0.010339846834540367,-0.008463258855044842,0.6618854403495789,0.7494859099388123,0.01902484893798828,218,0.00066839857,-0.0005523944,0.0008671194896290247,4.027565956115723,104.40660858154297
1779198426.4303966,13.682607173919678,guard-only,21500,32.806897077897304,0.0,0.0,0.0,0.0034805303,0.0060398737,0.037955116,0.009492679499089718,-0.006375164724886417,0.66204434633255,0.749377429485321,0.020930767059326172,219,0.00069570914,-0.00053029135,0.0008747685861425284,4.0170087814331055,104.33671569824219
1779198426.5113492,13.763559818267822,guard-only,22250,33.95132372014954,0.0,0.0,0.0,0.0034891912,0.006053863,0.037985828,0.01031945738941431,-0.007952508516609669,0.6619566082954407,0.7494289875030518,0.009612560272216797,220,0.00070437,-0.00051630195,0.000873329696058257,4.0170087814331055,104.33671569824219
1779198426.6129086,13.865119218826294,guard-only,22750,34.71427481498436,0.0,0.0,0.0,0.0035168233,0.0059904177,0.037943494,0.01003032922744751,-0.0076139504089951515,0.6622535586357117,0.7491740584373474,0.019060850143432617,221,0.0007320021,-0.0005797474,0.000933774088588132,4.006451606750488,104.25785827636719
1779198426.6950316,13.947242259979248,guard-only,22750,34.71427481498436,0.0,0.0,0.0,0.003526783,0.006076619,0.03797341,0.009441392496228218,-0.005669937469065189,0.6621857285499573,0.7492588758468628,0.017416715621948242,222,0.0007419619,-0.000493546,0.0008911201143247741,4.00117301940918,104.18517303466797
1779198426.861161,14.11337161064148,guard-only,22750,34.71427481498436,0.0,0.0,0.0,0.0035462724,0.006065906,0.03797308,0.010096915066242218,-0.00731714628636837,0.6622404456138611,0.749187707901001,0.015920162200927734,223,0.0007614512,-0.000504259,0.0009132825879451568,4.00117301940918,104.06037902832031
1779198426.8817585,14.133969068527222,guard-only,22750,34.71427481498436,0.0,0.0,0.0,0.0035183802,0.006116431,0.037967853,0.009514685720205307,-0.006530113983899355,0.6620750427246094,0.7493487000465393,0.00574493408203125,224,0.000733559,-0.00045373384,0.0008625446448321169,4.00117301940918,104.06037902832031
1779198426.963375,14.215585708618164,guard-only,22750,34.71427481498436,0.0,0.0,0.0,0.0035417438,0.00611547,0.038020592,0.010688163340091705,-0.008116868324577808,0.6619998812675476,0.749383807182312,0.0055577754974365234,225,0.00075692264,-0.00045469496,0.0008829945620448864,4.00117301940918,104.05714416503906
1779198427.065327,14.317537546157837,guard-only,22750,34.71427481498436,0.0,0.0,0.0,0.0035847365,0.0060298815,0.03792913,0.010368104092776775,-0.00850758608430624,0.6622538566589355,0.749159574508667,0.005482912063598633,226,0.0007999153,-0.0005402835,0.0009652827192743984,4.00117301940918,104.01691436767578
1779198427.1509128,14.403123378753662,guard-only,23000,35.09575036240177,0.0,0.0,0.0,0.0036295804,0.0061382763,0.037939273,0.009477727115154266,-0.006197239272296429,0.662726640701294,0.748775839805603,0.007062196731567383,227,0.00084475917,-0.00043188874,0.0009487602167513061,3.995894432067871,104.06571197509766
1779198427.2566803,14.508890867233276,guard-only,23000,35.09575036240177,0.0,0.0,0.0,0.0036787293,0.006100353,0.03796684,0.009885981678962708,-0.006941656582057476,0.6630960702896118,0.7484368085861206,0.015542745590209961,228,0.0008939081,-0.0004698122,0.0010098490727130122,3.995894432067871,104.01341247558594
1779198427.3174796,14.569690227508545,guard-only,23000,35.09575036240177,0.0,0.0,0.0,0.0037439936,0.00610236,0.037958805,0.009911336936056614,-0.006348923780024052,0.6636939644813538,0.7479116320610046,0.006978750228881836,229,0.0009591724,-0.0004678052,0.0010671707217698486,3.995894432067871,104.01341247558594
1779198427.3992946,14.6515052318573,guard-only,23250,35.47722590981918,0.0,0.0,0.0,0.0037714327,0.006100558,0.037953965,0.009804617613554,-0.006862304173409939,0.6635161638259888,0.7480661869049072,0.007364749908447266,230,0.0009866115,-0.00046960684,0.0010926723220112695,3.995894432067871,103.9931869506836
1779198427.4814632,14.733673810958862,guard-only,23250,35.47722590981918,0.0,0.0,0.0,0.0037827464,0.006110731,0.037976146,0.009930579923093319,-0.0061141871847212315,0.6637811064720154,0.7478359937667847,0.015070438385009766,231,0.0009979252,-0.000459434,0.0010986055968476669,3.9906158447265625,104.00043487548828
1779198427.5639567,14.81616735458374,guard-only,23250,35.47722590981918,0.0,0.0,0.0,0.003828016,0.0061403723,0.037978623,0.010087475180625916,-0.006661183200776577,0.6639119982719421,0.7477130889892578,0.0040819644927978516,232,0.0010431949,-0.0004297928,0.0011282630201189506,3.9906158447265625,104.01856994628906
1779198427.668352,14.920562505722046,guard-only,23250,35.47722590981918,0.0,0.0,0.0,0.0038307384,0.006176379,0.037970264,0.009528078138828278,-0.00572070199996233,0.6640580296516418,0.7475984692573547,0.0023543834686279297,233,0.0010459172,-0.000393786,0.001117591203046222,3.9906158447265625,103.98162078857422
1779198427.749088,15.001298666000366,guard-only,23250,35.47722590981918,0.0,0.0,0.0,0.0038622438,0.00620695,0.03794118,0.008988176472485065,-0.005039562936872244,0.6642105579376221,0.7474744915962219,0.0017213821411132812,234,0.0010774226,-0.00036321487,0.0011369980812091912,3.9906158447265625,103.95274353027344
1779198427.8911018,15.143312454223633,guard-only,23500,35.85870145723659,0.0,0.0,0.0,0.003926699,0.0062221466,0.037951462,0.009436264634132385,-0.005928957834839821,0.6644708514213562,0.7472310662269592,0.019283294677734375,235,0.0011418778,-0.00034801848,0.001193734421633586,3.9906158447265625,103.99569702148438
1779198427.9519389,15.2041494846344,guard-only,24000,36.62165255207141,0.0,0.0,0.0,0.004003863,0.0062234513,0.037964374,0.009471374563872814,-0.004852140787988901,0.6650845408439636,0.7466922402381897,0.019184589385986328,236,0.0012190416,-0.0003467137,0.0012673882267650752,3.9906158447265625,104.0775146484375
1779198428.0342865,15.286497116088867,guard-only,24750,37.766079194323645,0.0,0.0,0.0,0.004217143,0.0062508807,0.03802437,0.010105503723025322,-0.0057993680238723755,0.666025698184967,0.7458378076553345,0.0072174072265625,237,0.001432322,-0.0003192844,0.0014674770260321333,3.9800586700439453,103.9924087524414
1779198428.115647,15.367857694625854,guard-only,25250,38.52903028915846,0.0,0.0,0.0,0.0046502855,0.0063906293,0.03860601,0.012329529039561749,0.001635685795918107,0.667309045791626,0.7446770668029785,0.006129026412963867,238,0.0018654643,-0.00017953571,0.0018740837776083093,3.9800586700439453,103.9924087524414
1779198428.1980467,15.450257301330566,guard-only,25750,39.29198138399329,0.0,0.0,0.0,0.0050050276,0.006769236,0.03892009,0.010257977992296219,0.002692350186407566,0.6704420447349548,0.7418861389160156,0.006578922271728516,239,0.0022202064,0.00019907113,0.002229113296042182,3.9747800827026367,103.92558288574219
1779198428.2808325,15.533043146133423,guard-only,26750,40.817883573662925,0.0,0.0,0.0,0.005654467,0.0070879515,0.039394613,0.008616468869149685,0.015602828934788704,0.6722084879875183,0.7401473522186279,0.006851911544799805,240,0.0028696456,0.0005177865,0.002915985037646182,3.969501495361328,103.84841918945312
1779198428.3619869,15.614197492599487,guard-only,27500,41.96231021591516,0.0,0.0,0.0,0.0062683327,0.007945165,0.039969377,0.0067199417389929295,0.020058391615748405,0.6732601523399353,0.7391030788421631,0.016600847244262695,241,0.0034835115,0.001375,0.003745060340984259,3.958944320678711,103.77979278564453
1779198428.4441369,15.69634747505188,guard-only,28000,42.72526131074998,0.0,0.0,0.0,0.006485157,0.0086025465,0.040354896,0.0023499091621488333,0.023771032691001892,0.6737396121025085,0.7385827302932739,0.01695561408996582,242,0.003700336,0.0020323815,0.004221736640463836,3.9536657333374023,103.75503540039062
1779198428.5060182,15.758228778839111,guard-only,28500,43.488212405584804,0.0,0.0,0.0,0.006746034,0.009460734,0.040500756,-0.0010366948554292321,0.0318257100880146,0.6719868779182434,0.7398781776428223,0.006933689117431641,243,0.003961213,0.0028905692,0.004903733243095567,3.9536657333374023,103.75503540039062
1779198428.6102314,15.862442016601562,guard-only,28750,43.86968795300221,0.0,0.0,0.0,0.008513202,0.012038104,0.04090239,-0.0065690926276147366,0.03081217035651207,0.6670244336128235,0.7443695068359375,0.008492231369018555,244,0.0057283808,0.005467939,0.007919135578678,3.943108558654785,103.67841339111328
1779198428.7124612,15.964671850204468,guard-only,28750,43.86968795300221,0.0,0.0,0.0,0.012642859,0.01753201,0.040961687,-0.005352855194360018,0.03524959459900856,0.6568903923034668,0.7531426548957825,0.01551508903503418,245,0.009858037,0.010961845,0.014742555355599388,3.943108558654785,103.53630065917969
1779198428.7741327,16.02634334564209,guard-only,28750,43.86968795300221,0.0,0.0,0.0,0.017747834,0.025980989,0.04059177,-0.013289406895637512,0.03127480670809746,0.6489042639732361,0.7601109147071838,0.005658388137817383,246,0.014963013,0.019410823,0.024508606715051614,3.9378299713134766,103.32506561279297
1779198428.897152,16.149362564086914,guard-only,28750,43.86968795300221,0.0,0.0,0.0,0.02588299,0.038973056,0.040541865,-0.008559193462133408,0.026552682742476463,0.6392532587051392,0.7684900760650635,0.01606273651123047,247,0.023098167,0.03240289,0.039792871129841235,3.9378299713134766,103.16799926757812
1779198428.9784083,16.230618953704834,guard-only,28750,43.86968795300221,0.0,0.0,0.0,0.03509595,0.053781375,0.039884754,-0.0026191934011876583,0.01544967945665121,0.6314139366149902,0.7752876877784729,0.016060829162597656,248,0.032311127,0.04721121,0.05720932915846641,3.932551383972168,103.01164245605469
1779198429.0604389,16.312649488449097,guard-only,28750,43.86968795300221,0.0,0.0,0.0,0.044641614,0.06969107,0.039299224,0.00012272634194232523,0.005695427302271128,0.6266343593597412,0.779292643070221,0.005528450012207031,249,0.04185679,0.0631209,0.07573796441993037,3.9272727966308594,102.96553802490234
1779198429.1628087,16.415019273757935,guard-only,28750,43.86968795300221,0.0,0.0,0.0,0.054719165,0.0861574,0.039550837,-0.0006243608659133315,0.008411254733800888,0.6246629953384399,0.7808489799499512,0.016158103942871094,250,0.051934343,0.07958723,0.09503316908820722,3.9378299713134766,102.9761962890625
1779198429.246057,16.498267650604248,guard-only,28750,43.86968795300221,0.0,0.0,0.0,0.06360722,0.09943063,0.039310694,0.0018431410426273942,0.006432309281080961,0.6255241632461548,0.7801761031150818,0.01784491539001465,251,0.0608224,0.09286046,0.11100643930680533,3.932551383972168,102.87953186035156
1779198429.3075426,16.55975317955017,guard-only,28750,43.86968795300221,0.0,0.0,0.0,0.073492475,0.11344181,0.038865495,0.005311155691742897,-0.015583263710141182,0.624640703201294,0.7807386517524719,0.007420539855957031,252,0.07070766,0.10687164,0.12814492035899588,3.932551383972168,102.87953186035156
1779198429.388642,16.640852689743042,guard-only,28750,43.86968795300221,0.0,0.0,0.0,0.08260092,0.12587889,0.03936921,0.006007441319525242,0.0017248998628929257,0.6254978775978088,0.7802007794380188,0.00635528564453125,253,0.0798161,0.11930872,0.14354504663181833,3.9378299713134766,102.80179595947266
1779198429.472311,16.72452163696289,guard-only,28750,43.86968795300221,0.0,0.0,0.0,0.09201648,0.13815078,0.038942292,-0.000891546718776226,0.0008748258696869016,0.6293291449546814,0.777137815952301,0.017886638641357422,254,0.08923166,0.13158062,0.15898348412041527,3.932551383972168,102.67291259765625
1779198429.5539114,16.806122064590454,guard-only,28750,43.86968795300221,0.0,0.0,0.0,0.1017267,0.14968437,0.038744047,0.006520830560475588,-0.0073224944062530994,0.6319587826728821,0.7749400734901428,0.01753973960876465,255,0.098941885,0.14311421,0.1739861327409276,3.932551383972168,102.69367218017578
