wall_time_s,elapsed_s,phase_index,phase_name,phase_elapsed_s,roll_norm,pitch_norm,yaw_norm,thrust_norm,roll_deg,pitch_deg,yawrate_deg_s,thrust_raw,thrust_axis_seen,button_5,button_9,event_count,last_event_age_s,mocap_x,mocap_y,mocap_z,height_above_floor,mocap_qx,mocap_qy,mocap_qz,mocap_qw,mocap_age_s,mocap_frame_count,mocap_vx_m_s,mocap_vy_m_s,mocap_vz_m_s,horizontal_distance_from_start_m
1779126153.8104737,0.40395617485046387,-1,preflight_wait,0.0006196498870849609,0.0,0.0,0.0,0.0,0.0,0.0,0.0,0,0,0,0,1,0.3603363037109375,0.009313203,-0.003224453,0.037038293,3.829226e-05,0.0036603272892534733,0.010983261279761791,-0.6311295628547668,-0.7755910158157349,0.040396690368652344,2,,,,0.0
1779126153.830571,0.424053430557251,-1,preflight_wait,0.020714521408081055,0.0,0.0,0.0,0.0,0.0,0.0,0.0,0,0,0,0,1,0.3804359436035156,0.009305419,-0.00321959,0.037024543,2.4542212e-05,0.00365847279317677,0.010794566944241524,-0.6311314105987549,-0.7755922079086304,0.009697198867797852,3,-0.0001532287,9.572668e-05,-0.00027067104,9.178146e-06
1779126153.8505514,0.4440338611602783,-1,preflight_wait,0.04068875312805176,0.0,0.0,0.0,0.0,0.0,0.0,0.0,0,0,0,0,1,0.40041518211364746,0.009305419,-0.00321959,0.037024543,2.4542212e-05,0.00365847279317677,0.010794566944241524,-0.6311314105987549,-0.7755922079086304,0.0296781063079834,3,-0.0001532287,9.572668e-05,-0.00027067104,9.178146e-06
1779126153.870567,0.4640495777130127,-1,preflight_wait,0.0606992244720459,0.0,0.0,0.0,0.0,0.0,0.0,0.0,0,0,0,0,1,0.4204280376434326,0.009305419,-0.00321959,0.037024543,2.4542212e-05,0.00365847279317677,0.010794566944241524,-0.6311314105987549,-0.7755922079086304,0.04969024658203125,3,-0.0001532287,9.572668e-05,-0.00027067104,9.178146e-06
1779126153.8905513,0.48403382301330566,-1,preflight_wait,0.08068490028381348,0.0,0.0,0.0,0.0,0.0,0.0,0.0,0,0,0,0,1,0.440413236618042,0.009305419,-0.00321959,0.037024543,2.4542212e-05,0.00365847279317677,0.010794566944241524,-0.6311314105987549,-0.7755922079086304,0.06967473030090332,3,-0.0001532287,9.572668e-05,-0.00027067104,9.178146e-06
1779126153.910773,0.5042555332183838,-1,preflight_wait,0.10090208053588867,0.0,0.0,0.0,0.0,0.0,0.0,0.0,0,0,0,0,1,0.4606342315673828,0.009305419,-0.00321959,0.037024543,2.4542212e-05,0.00365847279317677,0.010794566944241524,-0.6311314105987549,-0.7755922079086304,0.08989572525024414,3,-0.0001532287,9.572668e-05,-0.00027067104,9.178146e-06
1779126153.930551,0.5240335464477539,-1,preflight_wait,0.12069988250732422,0.0,0.0,0.0,0.0,0.0,0.0,0.0,0,0,0,0,1,0.48041367530822754,0.009309219,-0.003227543,0.03705406,5.4057688e-05,0.004051568452268839,0.009205443784594536,-0.6312223076820374,-0.7755367755889893,0.018604516983032227,4,4.1722844e-05,-8.732652e-05,0.00032408832,5.0420954e-06
1779126153.9505453,0.5440278053283691,-1,preflight_wait,0.14067721366882324,0.0,0.0,0.0,0.0,0.0,0.0,0.0,0,0,0,0,1,0.5004065036773682,0.009309219,-0.003227543,0.03705406,5.4057688e-05,0.004051568452268839,0.009205443784594536,-0.6312223076820374,-0.7755367755889893,0.03859686851501465,4,4.1722844e-05,-8.732652e-05,0.00032408832,5.0420954e-06
1779126153.9705598,0.564042329788208,-1,preflight_wait,0.1607048511505127,0.0,0.0,0.0,0.0,0.0,0.0,0.0,0,0,0,0,1,0.5204269886016846,0.009309219,-0.003227543,0.03705406,5.4057688e-05,0.004051568452268839,0.009205443784594536,-0.6312223076820374,-0.7755367755889893,0.058619022369384766,4,4.1722844e-05,-8.732652e-05,0.00032408832,5.0420954e-06
1779126153.990765,0.5842475891113281,-1,preflight_wait,0.1808927059173584,0.0,0.0,0.0,0.0,0.0,0.0,0.0,0,0,0,0,1,0.540626049041748,0.009309219,-0.003227543,0.03705406,5.4057688e-05,0.004051568452268839,0.009205443784594536,-0.6312223076820374,-0.7755367755889893,0.07881402969360352,4,4.1722844e-05,-8.732652e-05,0.00032408832,5.0420954e-06
1779126154.0105517,0.6040341854095459,-1,preflight_wait,0.20070195198059082,0.0,0.0,0.0,0.0,0.0,0.0,0.0,0,0,0,0,1,0.5604157447814941,0.009304199,-0.003225103,0.037024226,2.4225563e-05,0.0037521200720220804,0.010507335886359215,-0.6311948299407959,-0.7755440473556519,0.016796350479125977,5,-6.135906e-05,2.9825742e-05,-0.00036464815,9.0274625e-06
1779126154.030547,0.6240293979644775,-1,preflight_wait,0.22068023681640625,0.0,0.0,0.0,0.0,0.0,0.0,0.0,0,0,0,0,1,0.5804097652435303,0.009304199,-0.003225103,0.037024226,2.4225563e-05,0.0037521200720220804,0.010507335886359215,-0.6311948299407959,-0.7755440473556519,0.0367891788482666,5,-6.135906e-05,2.9825742e-05,-0.00036464815,9.0274625e-06
1779126154.0507653,0.6442477703094482,-1,preflight_wait,0.2408909797668457,0.0,0.0,0.0,0.0,0.0,0.0,0.0,0,0,0,0,1,0.6006262302398682,0.009304199,-0.003225103,0.037024226,2.4225563e-05,0.0037521200720220804,0.010507335886359215,-0.6311948299407959,-0.7755440473556519,0.05700397491455078,5,-6.135906e-05,2.9825742e-05,-0.00036464815,9.0274625e-06
1779126154.0707788,0.6642613410949707,-1,preflight_wait,0.26091551780700684,0.0,0.0,0.0,0.0,0.0,0.0,0.0,0,0,0,0,1,0.6206390857696533,0.009332492,-0.003220655,0.037035484,3.548339e-05,0.00395065126940608,0.009905568324029446,-0.6312167644500732,-0.7755332589149475,0.006006002426147461,6,0.00039842457,6.263787e-05,0.00015853571,1.9658974e-05
1779126154.0905526,0.684035062789917,-1,preflight_wait,0.280689001083374,0.0,0.0,0.0,0.0,0.0,0.0,0.0,0,0,0,0,1,0.6404159069061279,0.009332492,-0.003220655,0.037035484,3.548339e-05,0.00395065126940608,0.009905568324029446,-0.6312167644500732,-0.7755332589149475,0.02578425407409668,6,0.00039842457,6.263787e-05,0.00015853571,1.9658974e-05
1779126154.1105466,0.7040290832519531,-1,preflight_wait,0.3006763458251953,0.0,0.0,0.0,0.0,0.0,0.0,0.0,0,0,0,0,1,0.6604077816009521,0.009332492,-0.003220655,0.037035484,3.548339e-05,0.00395065126940608,0.009905568324029446,-0.6312167644500732,-0.7755332589149475,0.04577517509460449,6,0.00039842457,6.263787e-05,0.00015853571,1.9658974e-05
1779126154.1307664,0.7242488861083984,-1,preflight_wait,0.3208892345428467,0.0,0.0,0.0,0.0,0.0,0.0,0.0,0,0,0,0,1,0.6806259155273438,0.009332492,-0.003220655,0.037035484,3.548339e-05,0.00395065126940608,0.009905568324029446,-0.6312167644500732,-0.7755332589149475,0.06599164009094238,6,0.00039842457,6.263787e-05,0.00015853571,1.9658974e-05
1779126154.15067,0.7441525459289551,-1,preflight_wait,0.3408322334289551,0.0,0.0,0.0,0.0,0.0,0.0,0.0,0,0,0,0,1,0.7005326747894287,0.009299351,-0.0032161996,0.037027474,2.7474016e-05,0.0039602527394890785,0.00974535383284092,-0.6311911344528198,-0.7755559682846069,0.003069162368774414,7,-0.0004001022,5.378921e-05,-9.6694646e-05,1.612482e-05
1779126154.1707222,0.764204740524292,-1,preflight_wait,0.36086082458496094,0.0,0.0,0.0,0.0,0.0,0.0,0.0,0,0,0,0,1,0.7205855846405029,0.009299351,-0.0032161996,0.037027474,2.7474016e-05,0.0039602527394890785,0.00974535383284092,-0.6311911344528198,-0.7755559682846069,0.02312326431274414,7,-0.0004001022,5.378921e-05,-9.6694646e-05,1.612482e-05
1779126154.190551,0.7840335369110107,-1,preflight_wait,0.38068675994873047,0.0,0.0,0.0,0.0,0.0,0.0,0.0,0,0,0,0,1,0.7404141426086426,0.009299351,-0.0032161996,0.037027474,2.7474016e-05,0.0039602527394890785,0.00974535383284092,-0.6311911344528198,-0.7755559682846069,0.04295182228088379,7,-0.0004001022,5.378921e-05,-9.6694646e-05,1.612482e-05
1779126154.2107518,0.8042342662811279,-1,preflight_wait,0.4008753299713135,0.0,0.0,0.0,0.0,0.0,0.0,0.0,0,0,0,0,1,0.7606122493743896,0.009299351,-0.0032161996,0.037027474,2.7474016e-05,0.0039602527394890785,0.00974535383284092,-0.6311911344528198,-0.7755559682846069,0.06314659118652344,7,-0.0004001022,5.378921e-05,-9.6694646e-05,1.612482e-05
1779126154.2305505,0.8240330219268799,-1,preflight_wait,0.42069292068481445,0.0,0.0,0.0,0.0,0.0,0.0,0.0,0,0,0,0,1,0.7804121971130371,0.009316692,-0.0032271394,0.037017606,1.7605722e-05,0.0036016120575368404,0.011172447353601456,-0.6311464309692383,-0.7755749225616455,0.001149892807006836,8,0.0002119998,-0.0001337409,-0.00012064177,4.403182e-06
1779126154.2505453,0.8440277576446533,-1,preflight_wait,0.440690279006958,0.0,0.0,0.0,0.0,0.0,0.0,0.0,0,0,0,0,1,0.8004064559936523,0.009316692,-0.0032271394,0.037017606,1.7605722e-05,0.0036016120575368404,0.011172447353601456,-0.6311464309692383,-0.7755749225616455,0.021158695220947266,8,0.0002119998,-0.0001337409,-0.00012064177,4.403182e-06
1779126154.2705421,0.8640246391296387,-1,preflight_wait,0.4606788158416748,0.0,0.0,0.0,0.0,0.0,0.0,0.0,0,0,0,0,1,0.8204035758972168,0.009316692,-0.0032271394,0.037017606,1.7605722e-05,0.0036016120575368404,0.011172447353601456,-0.6311464309692383,-0.7755749225616455,0.04114246368408203,8,0.0002119998,-0.0001337409,-0.00012064177,4.403182e-06
1779126154.2905393,0.8840217590332031,-1,preflight_wait,0.48065662384033203,0.0,0.0,0.0,0.0,0.0,0.0,0.0,0,0,0,0,1,0.840397834777832,0.009316692,-0.0032271394,0.037017606,1.7605722e-05,0.0036016120575368404,0.011172447353601456,-0.6311464309692383,-0.7755749225616455,0.06113266944885254,8,0.0002119998,-0.0001337409,-0.00012064177,4.403182e-06
1779126154.3105547,0.9040372371673584,-1,preflight_wait,0.5007004737854004,0.0,0.0,0.0,0.0,0.0,0.0,0.0,0,0,0,0,1,0.860417366027832,0.009294577,-0.0032273466,0.037020992,2.099201e-05,0.0037808190099895,0.010584985837340355,-0.631161630153656,-0.7755698561668396,0.009716033935546875,9,-0.00030956522,-2.9006258e-06,4.740079e-05,1.8849873e-05
1779126154.330557,0.9240396022796631,-1,preflight_wait,0.520693302154541,0.0,0.0,0.0,0.0,0.0,0.0,0.0,0,0,0,0,1,0.8804199695587158,0.009294577,-0.0032273466,0.037020992,2.099201e-05,0.0037808190099895,0.010584985837340355,-0.631161630153656,-0.7755698561668396,0.02971935272216797,9,-0.00030956522,-2.9006258e-06,4.740079e-05,1.8849873e-05
1779126154.350566,0.9440484046936035,-1,preflight_wait,0.5407106876373291,0.0,0.0,0.0,0.0,0.0,0.0,0.0,0,0,0,0,1,0.9004323482513428,0.009294577,-0.0032273466,0.037020992,2.099201e-05,0.0037808190099895,0.010584985837340355,-0.631161630153656,-0.7755698561668396,0.04973268508911133,9,-0.00030956522,-2.9006258e-06,4.740079e-05,1.8849873e-05
1779126154.3705528,0.9640352725982666,-1,preflight_wait,0.5606968402862549,0.0,0.0,0.0,0.0,0.0,0.0,0.0,0,0,0,0,1,0.9204175472259521,0.009294577,-0.0032273466,0.037020992,2.099201e-05,0.0037808190099895,0.010584985837340355,-0.631161630153656,-0.7755698561668396,0.06971883773803711,9,-0.00030956522,-2.9006258e-06,4.740079e-05,1.8849873e-05
1779126154.3906534,0.9841358661651611,-1,preflight_wait,0.5808131694793701,0.0,0.0,0.0,0.0,0.0,0.0,0.0,0,0,0,0,1,0.9405162334442139,0.009294577,-0.0032273466,0.037020992,2.099201e-05,0.0037808190099895,0.010584985837340355,-0.631161630153656,-0.7755698561668396,0.08981490135192871,9,-0.00030956522,-2.9006258e-06,4.740079e-05,1.8849873e-05
1779126154.4105573,1.0040397644042969,-1,preflight_wait,0.6007025241851807,0.0,0.0,0.0,0.0,0.0,0.0,0.0,0,0,0,0,1,0.9604215621948242,0.009298374,-0.003235591,0.037033435,3.343448e-05,0.0038906780537217855,0.01010060217231512,-0.6311884522438049,-0.7755540013313293,0.01823139190673828,10,4.1502462e-05,-9.011541e-05,0.00013600022,1.8546456e-05
1779126154.430554,1.0240364074707031,-1,preflight_wait,0.6206848621368408,0.0,0.0,0.0,0.0,0.0,0.0,0.0,0,0,0,0,1,0.9804162979125977,0.009298374,-0.003235591,0.037033435,3.343448e-05,0.0038906780537217855,0.01010060217231512,-0.6311884522438049,-0.7755540013313293,0.03822517395019531,10,4.1502462e-05,-9.011541e-05,0.00013600022,1.8546456e-05
1779126154.4505544,1.044036865234375,-1,preflight_wait,0.6406850814819336,0.0,0.0,0.0,0.0,0.0,0.0,0.0,0,0,0,0,1,1.0004165172576904,0.009298374,-0.003235591,0.037033435,3.343448e-05,0.0038906780537217855,0.01010060217231512,-0.6311884522438049,-0.7755540013313293,0.05822587013244629,10,4.1502462e-05,-9.011541e-05,0.00013600022,1.8546456e-05
1779126154.4705517,1.0640342235565186,-1,preflight_wait,0.6606860160827637,0.0,0.0,0.0,0.0,0.0,0.0,0.0,0,0,0,0,1,1.0204150676727295,0.009298374,-0.003235591,0.037033435,3.343448e-05,0.0038906780537217855,0.01010060217231512,-0.6311884522438049,-0.7755540013313293,0.07822489738464355,10,4.1502462e-05,-9.011541e-05,0.00013600022,1.8546456e-05
1779126154.4905565,1.0840389728546143,-1,preflight_wait,0.680701732635498,0.0,0.0,0.0,0.0,0.0,0.0,0.0,0,0,0,0,1,1.0404198169708252,0.009308096,-0.0032320959,0.037026044,2.6043504e-05,0.0038947451394051313,0.010060305707156658,-0.6311091780662537,-0.7756189703941345,0.006831169128417969,11,0.000106370775,3.8242124e-05,-8.086584e-05,9.192342e-06
1779126154.5105526,1.1040351390838623,-1,preflight_wait,0.7006847858428955,0.0,0.0,0.0,0.0,0.0,0.0,0.0,0,0,0,0,1,1.0604159832000732,0.009308096,-0.0032320959,0.037026044,2.6043504e-05,0.0038947451394051313,0.010060305707156658,-0.6311091780662537,-0.7756189703941345,0.026827335357666016,11,0.000106370775,3.8242124e-05,-8.086584e-05,9.192342e-06
1779126154.5305529,1.124035358428955,-1,preflight_wait,0.7206835746765137,0.0,0.0,0.0,0.0,0.0,0.0,0.0,0,0,0,0,1,1.0804154872894287,0.009308096,-0.0032320959,0.037026044,2.6043504e-05,0.0038947451394051313,0.010060305707156658,-0.6311091780662537,-0.7756189703941345,0.04682636260986328,11,0.000106370775,3.8242124e-05,-8.086584e-05,9.192342e-06
1779126154.5505524,1.1440348625183105,-1,preflight_wait,0.7406823635101318,0.0,0.0,0.0,0.0,0.0,0.0,0.0,0,0,0,0,1,1.100414514541626,0.009308096,-0.0032320959,0.037026044,2.6043504e-05,0.0038947451394051313,0.010060305707156658,-0.6311091780662537,-0.7756189703941345,0.06682586669921875,11,0.000106370775,3.8242124e-05,-8.086584e-05,9.192342e-06
1779126154.5705528,1.1640353202819824,-1,preflight_wait,0.7606825828552246,0.0,0.0,0.0,0.0,0.0,0.0,0.0,0,0,0,0,1,1.1204149723052979,0.009308096,-0.0032320959,0.037026044,2.6043504e-05,0.0038947451394051313,0.010060305707156658,-0.6311091780662537,-0.7756189703941345,0.08682632446289062,11,0.000106370775,3.8242124e-05,-8.086584e-05,9.192342e-06
1779126154.5905492,1.1840317249298096,-1,preflight_wait,0.7806904315948486,0.0,0.0,0.0,0.0,0.0,0.0,0.0,0,0,0,0,1,1.140411615371704,0.009310044,-0.0032316744,0.037025455,2.5454909e-05,0.0039505669847130775,0.00992447230964899,-0.6312100887298584,-0.7755383849143982,0.014771699905395508,12,2.1165726e-05,4.5781503e-06,-6.3942343e-06,7.882212e-06
1779126154.6105509,1.204033374786377,-1,preflight_wait,0.8006858825683594,0.0,0.0,0.0,0.0,0.0,0.0,0.0,0,0,0,0,1,1.1604127883911133,0.009310044,-0.0032316744,0.037025455,2.5454909e-05,0.0039505669847130775,0.00992447230964899,-0.6312100887298584,-0.7755383849143982,0.034773826599121094,12,2.1165726e-05,4.5781503e-06,-6.3942343e-06,7.882212e-06
1779126154.6305482,1.2240307331085205,-1,preflight_wait,0.820676326751709,0.0,0.0,0.0,0.0,0.0,0.0,0.0,0,0,0,0,1,1.1804089546203613,0.009310044,-0.0032316744,0.037025455,2.5454909e-05,0.0039505669847130775,0.00992447230964899,-0.6312100887298584,-0.7755383849143982,0.054769277572631836,12,2.1165726e-05,4.5781503e-06,-6.3942343e-06,7.882212e-06
1779126154.650816,1.2442984580993652,-1,preflight_wait,0.8409404754638672,0.0,0.0,0.0,0.0,0.0,0.0,0.0,0,0,0,0,1,1.2006752490997314,0.009310044,-0.0032316744,0.037025455,2.5454909e-05,0.0039505669847130775,0.00992447230964899,-0.6312100887298584,-0.7755383849143982,0.07503437995910645,12,2.1165726e-05,4.5781503e-06,-6.3942343e-06,7.882212e-06
1779126154.6705663,1.2640488147735596,-1,preflight_wait,0.8607199192047119,0.0,0.0,0.0,0.0,0.0,0.0,0.0,0,0,0,0,1,1.2204301357269287,0.009296817,-0.003247641,0.037056018,5.601719e-05,0.0029974959325045347,0.01214822567999363,-0.6313719749450684,-0.7753791809082031,0.003696918487548828,13,-0.00014520566,-0.00017527324,0.00033549735,2.83938e-05
1779126154.6905594,1.2840418815612793,-1,preflight_wait,0.8806948661804199,0.0,0.0,0.0,0.0,0.0,0.0,0.0,0,0,0,0,1,1.2404236793518066,0.009296817,-0.003247641,0.037056018,5.601719e-05,0.0029974959325045347,0.01214822567999363,-0.6313719749450684,-0.7753791809082031,0.02368950843811035,13,-0.00014520566,-0.00017527324,0.00033549735,2.83938e-05
1779126154.710543,1.304025411605835,-1,preflight_wait,0.9006662368774414,0.0,0.0,0.0,0.0,0.0,0.0,0.0,0,0,0,0,1,1.2604031562805176,0.009296817,-0.003247641,0.037056018,5.601719e-05,0.0029974959325045347,0.01214822567999363,-0.6313719749450684,-0.7753791809082031,0.04366660118103027,13,-0.00014520566,-0.00017527324,0.00033549735,2.83938e-05
1779126154.73055,1.3240325450897217,-1,preflight_wait,0.9206836223602295,0.0,0.0,0.0,0.0,0.0,0.0,0.0,0,0,0,0,1,1.28041410446167,0.009296817,-0.003247641,0.037056018,5.601719e-05,0.0029974959325045347,0.01214822567999363,-0.6313719749450684,-0.7753791809082031,0.06367921829223633,13,-0.00014520566,-0.00017527324,0.00033549735,2.83938e-05
1779126154.7505682,1.344050645828247,-1,preflight_wait,0.9406876564025879,0.0,0.0,0.0,0.0,0.0,0.0,0.0,0,0,0,0,1,1.3004264831542969,0.009296817,-0.003247641,0.037056018,5.601719e-05,0.0029974959325045347,0.01214822567999363,-0.6313719749450684,-0.7753791809082031,0.08368897438049316,13,-0.00014520566,-0.00017527324,0.00033549735,2.83938e-05
1779126154.7707136,1.3641960620880127,-1,preflight_wait,0.9608504772186279,0.0,0.0,0.0,0.0,0.0,0.0,0.0,0,0,0,0,1,1.3205749988555908,0.009304149,-0.0032119304,0.03704222,4.2218715e-05,0.0036941375583410263,0.01085644494742155,-0.6311639547348022,-0.7755646705627441,0.01257467269897461,14,8.034104e-05,0.00039128627,-0.00015119177,1.5453003e-05
1779126154.7905457,1.3840281963348389,-1,preflight_wait,0.9806704521179199,0.0,0.0,0.0,0.0,0.0,0.0,0.0,0,0,0,0,1,1.3404054641723633,0.009304149,-0.0032119304,0.03704222,4.2218715e-05,0.0036941375583410263,0.01085644494742155,-0.6311639547348022,-0.7755646705627441,0.03240466117858887,14,8.034104e-05,0.00039128627,-0.00015119177,1.5453003e-05
1779126154.8108134,1.4042959213256836,-1,preflight_wait,1.0009291172027588,0.0,0.0,0.0,0.0,0.0,0.0,0.0,0,0,0,0,1,1.3606712818145752,0.009304149,-0.0032119304,0.03704222,4.2218715e-05,0.0036941375583410263,0.01085644494742155,-0.6311639547348022,-0.7755646705627441,0.052668094635009766,14,8.034104e-05,0.00039128627,-0.00015119177,1.5453003e-05
1779126154.8308234,1.4243059158325195,-1,preflight_wait,1.0209412574768066,0.0,0.0,0.0,0.0,0.0,0.0,0.0,0,0,0,0,1,1.3806817531585693,0.009304149,-0.0032119304,0.03704222,4.2218715e-05,0.0036941375583410263,0.01085644494742155,-0.6311639547348022,-0.7755646705627441,0.07267904281616211,14,8.034104e-05,0.00039128627,-0.00015119177,1.5453003e-05
1779126154.8507953,1.4442777633666992,-1,preflight_wait,1.040926456451416,0.0,0.0,0.0,0.0,0.0,0.0,0.0,0,0,0,0,1,1.4006543159484863,0.009323087,-0.0032263906,0.03706262,6.2618405e-05,0.004106895532459021,0.009093695320189,-0.6311338543891907,-0.7756097316741943,0.0005013942718505859,15,0.00020550434,-0.00015691764,0.00022137145,1.00713405e-05
1779126154.8705506,1.4640331268310547,-1,preflight_wait,1.0606968402862549,0.0,0.0,0.0,0.0,0.0,0.0,0.0,0,0,0,0,1,1.4204156398773193,0.009323087,-0.0032263906,0.03706262,6.2618405e-05,0.004106895532459021,0.009093695320189,-0.6311338543891907,-0.7756097316741943,0.02026820182800293,15,0.00020550434,-0.00015691764,0.00022137145,1.00713405e-05
1779126154.8905616,1.484044075012207,-1,preflight_wait,1.0807116031646729,0.0,0.0,0.0,0.0,0.0,0.0,0.0,0,0,0,0,1,1.4404282569885254,0.009323087,-0.0032263906,0.03706262,6.2618405e-05,0.004106895532459021,0.009093695320189,-0.6311338543891907,-0.7756097316741943,0.04028034210205078,15,0.00020550434,-0.00015691764,0.00022137145,1.00713405e-05
1779126154.9105582,1.5040407180786133,-1,preflight_wait,1.100703477859497,0.0,0.0,0.0,0.0,0.0,0.0,0.0,0,0,0,0,1,1.4604237079620361,0.009323087,-0.0032263906,0.03706262,6.2618405e-05,0.004106895532459021,0.009093695320189,-0.6311338543891907,-0.7756097316741943,0.06027507781982422,15,0.00020550434,-0.00015691764,0.00022137145,1.00713405e-05
1779126154.9306006,1.524083137512207,-1,preflight_wait,1.1207377910614014,0.0,0.0,0.0,0.0,0.0,0.0,0.0,0,0,0,0,1,1.480463981628418,0.009323087,-0.0032263906,0.03706262,6.2618405e-05,0.004106895532459021,0.009093695320189,-0.6311338543891907,-0.7756097316741943,0.08031368255615234,15,0.00020550434,-0.00015691764,0.00022137145,1.00713405e-05
1779126154.9507182,1.5442006587982178,-1,preflight_wait,1.1408600807189941,0.0,0.0,0.0,0.0,0.0,0.0,0.0,0,0,0,0,1,1.5005826950073242,0.009323087,-0.0032263906,0.03706262,6.2618405e-05,0.004106895532459021,0.009093695320189,-0.6311338543891907,-0.7756097316741943,0.100433349609375,15,0.00020550434,-0.00015691764,0.00022137145,1.00713405e-05
1779126154.9706225,1.5641050338745117,-1,preflight_wait,1.1608099937438965,0.0,0.0,0.0,0.0,0.0,0.0,0.0,0,0,0,0,1,1.520491123199463,0.009309517,-0.0032246509,0.037046354,4.6353787e-05,0.004210473038256168,0.00870934035629034,-0.6310972571372986,-0.7756434082984924,0.018738985061645508,16,-0.00013354998,1.7122264e-05,-0.00016007666,3.6914835e-06
1779126154.9907193,1.5842018127441406,-1,preflight_wait,1.1808710098266602,0.0,0.0,0.0,0.0,0.0,0.0,0.0,0,0,0,0,1,1.5405857563018799,0.009309517,-0.0032246509,0.037046354,4.6353787e-05,0.004210473038256168,0.00870934035629034,-0.6310972571372986,-0.7756434082984924,0.0388333797454834,16,-0.00013354998,1.7122264e-05,-0.00016007666,3.6914835e-06
1779126155.0105536,1.6040360927581787,-1,preflight_wait,1.2007040977478027,0.0,0.0,0.0,0.0,0.0,0.0,0.0,0,0,0,0,1,1.5604205131530762,0.009309517,-0.0032246509,0.037046354,4.6353787e-05,0.004210473038256168,0.00870934035629034,-0.6310972571372986,-0.7756434082984924,0.05866813659667969,16,-0.00013354998,1.7122264e-05,-0.00016007666,3.6914835e-06
1779126155.0305562,1.6240386962890625,-1,preflight_wait,1.2206943035125732,0.0,0.0,0.0,0.0,0.0,0.0,0.0,0,0,0,0,1,1.5804200172424316,0.009309517,-0.0032246509,0.037046354,4.6353787e-05,0.004210473038256168,0.00870934035629034,-0.6310972571372986,-0.7756434082984924,0.07866477966308594,16,-0.00013354998,1.7122264e-05,-0.00016007666,3.6914835e-06
1779126155.0507293,1.644211769104004,-1,preflight_wait,1.240861415863037,0.0,0.0,0.0,0.0,0.0,0.0,0.0,0,0,0,0,1,1.6005876064300537,0.009281143,-0.0032208432,0.03701883,1.8831342e-05,0.003865243401378393,0.010620844550430775,-0.6310874819755554,-0.7756293416023254,0.0066375732421875,17,-0.00030777435,4.1301584e-05,-0.00029853111,3.2263357e-05
1779126155.070549,1.6640315055847168,-1,preflight_wait,1.2606837749481201,0.0,0.0,0.0,0.0,0.0,0.0,0.0,0,0,0,0,1,1.6204111576080322,0.009281143,-0.0032208432,0.03701883,1.8831342e-05,0.003865243401378393,0.010620844550430775,-0.6310874819755554,-0.7756293416023254,0.026463985443115234,17,-0.00030777435,4.1301584e-05,-0.00029853111,3.2263357e-05
1779126155.0905533,1.6840357780456543,-1,preflight_wait,1.280698299407959,0.0,0.0,0.0,0.0,0.0,0.0,0.0,0,0,0,0,1,1.6404194831848145,0.009281143,-0.0032208432,0.03701883,1.8831342e-05,0.003865243401378393,0.010620844550430775,-0.6310874819755554,-0.7756293416023254,0.04647326469421387,17,-0.00030777435,4.1301584e-05,-0.00029853111,3.2263357e-05
1779126155.11059,1.7040724754333496,-1,preflight_wait,1.3007211685180664,0.0,0.0,0.0,0.0,0.0,0.0,0.0,0,0,0,0,1,1.660451889038086,0.009281143,-0.0032208432,0.03701883,1.8831342e-05,0.003865243401378393,0.010620844550430775,-0.6310874819755554,-0.7756293416023254,0.06650233268737793,17,-0.00030777435,4.1301584e-05,-0.00029853111,3.2263357e-05
1779126155.1307433,1.7242257595062256,-1,preflight_wait,1.3208863735198975,0.0,0.0,0.0,0.0,0.0,0.0,0.0,0,0,0,0,1,1.6806066036224365,0.009314268,-0.0032556131,0.037095252,9.525195e-05,0.003566777566447854,0.009724141098558903,-0.631337583065033,-0.7754390239715576,0.005163431167602539,18,0.00040647463,-0.00042665665,0.0009377441,3.117837e-05
1779126155.1505682,1.7440507411956787,-1,preflight_wait,1.3407022953033447,0.0,0.0,0.0,0.0,0.0,0.0,0.0,0,0,0,0,1,1.7004313468933105,0.009314268,-0.0032556131,0.037095252,9.525195e-05,0.003566777566447854,0.009724141098558903,-0.631337583065033,-0.7754390239715576,0.02498912811279297,18,0.00040647463,-0.00042665665,0.0009377441,3.117837e-05
1779126155.1706445,1.7641270160675049,-1,preflight_wait,1.3607988357543945,0.0,0.0,0.0,0.0,0.0,0.0,0.0,0,0,0,0,1,1.7205069065093994,0.009314268,-0.0032556131,0.037095252,9.525195e-05,0.003566777566447854,0.009724141098558903,-0.631337583065033,-0.7754390239715576,0.045064449310302734,18,0.00040647463,-0.00042665665,0.0009377441,3.117837e-05
1779126155.1905615,1.7840440273284912,-1,preflight_wait,1.3807036876678467,0.0,0.0,0.0,0.0,0.0,0.0,0.0,0,0,0,0,1,1.740426778793335,0.009314268,-0.0032556131,0.037095252,9.525195e-05,0.003566777566447854,0.009724141098558903,-0.631337583065033,-0.7754390239715576,0.06498479843139648,18,0.00040647463,-0.00042665665,0.0009377441,3.117837e-05
1779126155.2107284,1.804210901260376,-1,preflight_wait,1.400886058807373,0.0,0.0,0.0,0.0,0.0,0.0,0.0,0,0,0,0,1,1.760594367980957,0.009306967,-0.003229497,0.0370261,2.6099384e-05,0.003925024997442961,0.01021910272538662,-0.6310805082321167,-0.775640070438385,0.0027937889099121094,19,-8.864349e-05,0.00031709918,-0.0008396423,8.020708e-06
1779126155.2305486,1.824031114578247,-1,preflight_wait,1.4206764698028564,0.0,0.0,0.0,0.0,0.0,0.0,0.0,0,0,0,0,1,1.780409574508667,0.009306967,-0.003229497,0.0370261,2.6099384e-05,0.003925024997442961,0.01021910272538662,-0.6310805082321167,-0.775640070438385,0.022606372833251953,19,-8.864349e-05,0.00031709918,-0.0008396423,8.020708e-06
1779126155.250549,1.844031572341919,-1,preflight_wait,1.440675973892212,0.0,0.0,0.0,0.0,0.0,0.0,0.0,0,0,0,0,1,1.8004095554351807,0.009306967,-0.003229497,0.0370261,2.6099384e-05,0.003925024997442961,0.01021910272538662,-0.6310805082321167,-0.775640070438385,0.04260611534118652,19,-8.864349e-05,0.00031709918,-0.0008396423,8.020708e-06
1779126155.270548,1.8640305995941162,-1,preflight_wait,1.4606740474700928,0.0,0.0,0.0,0.0,0.0,0.0,0.0,0,0,0,0,1,1.8204095363616943,0.009306967,-0.003229497,0.0370261,2.6099384e-05,0.003925024997442961,0.01021910272538662,-0.6310805082321167,-0.775640070438385,0.0626060962677002,19,-8.864349e-05,0.00031709918,-0.0008396423,8.020708e-06
1779126155.2905476,1.8840301036834717,-1,preflight_wait,1.4806876182556152,0.0,0.0,0.0,0.0,0.0,0.0,0.0,0,0,0,0,1,1.8404102325439453,0.009285336,-0.0032225433,0.03702786,2.785772e-05,0.003946416545659304,0.010274557396769524,-0.6311360597610474,-0.7755940556526184,0.011786222457885742,20,-0.00030542933,9.8186865e-05,2.4827805e-05,2.793239e-05
1779126155.3105614,1.9040439128875732,-1,preflight_wait,1.5007035732269287,0.0,0.0,0.0,0.0,0.0,0.0,0.0,0,0,0,0,1,1.8604300022125244,0.009285336,-0.0032225433,0.03702786,2.785772e-05,0.003946416545659304,0.010274557396769524,-0.6311360597610474,-0.7755940556526184,0.03180670738220215,20,-0.00030542933,9.8186865e-05,2.4827805e-05,2.793239e-05
1779126155.3305485,1.9240310192108154,-1,preflight_wait,1.520676612854004,0.0,0.0,0.0,0.0,0.0,0.0,0.0,0,0,0,0,1,1.8804097175598145,0.009285336,-0.0032225433,0.03702786,2.785772e-05,0.003946416545659304,0.010274557396769524,-0.6311360597610474,-0.7755940556526184,0.05178570747375488,20,-0.00030542933,9.8186865e-05,2.4827805e-05,2.793239e-05
1779126155.3505483,1.94403076171875,-1,preflight_wait,1.540677547454834,0.0,0.0,0.0,0.0,0.0,0.0,0.0,0,0,0,0,1,1.9004096984863281,0.009285336,-0.0032225433,0.03702786,2.785772e-05,0.003946416545659304,0.010274557396769524,-0.6311360597610474,-0.7755940556526184,0.07178544998168945,20,-0.00030542933,9.8186865e-05,2.4827805e-05,2.793239e-05
1779126155.3705497,1.9640321731567383,-1,preflight_wait,1.5606920719146729,0.0,0.0,0.0,0.0,0.0,0.0,0.0,0,0,0,0,1,1.9204115867614746,0.0093225,-0.003217529,0.037031874,3.1873584e-05,0.0040741912089288235,0.009700233116745949,-0.6311691403388977,-0.7755738496780396,0.009576797485351562,21,0.00045205138,6.0992497e-05,4.8848375e-05,1.1591585e-05
1779126155.3905454,1.9840278625488281,-1,preflight_wait,1.580672025680542,0.0,0.0,0.0,0.0,0.0,0.0,0.0,0,0,0,0,1,1.9404051303863525,0.0093225,-0.003217529,0.037031874,3.1873584e-05,0.0040741912089288235,0.009700233116745949,-0.6311691403388977,-0.7755738496780396,0.029568195343017578,21,0.00045205138,6.0992497e-05,4.8848375e-05,1.1591585e-05
1779126155.4107168,2.004199266433716,-1,preflight_wait,1.6008448600769043,0.0,0.0,0.0,0.0,0.0,0.0,0.0,0,0,0,0,1,1.960578441619873,0.0093225,-0.003217529,0.037031874,3.1873584e-05,0.0040741912089288235,0.009700233116745949,-0.6311691403388977,-0.7755738496780396,0.0497431755065918,21,0.00045205138,6.0992497e-05,4.8848375e-05,1.1591585e-05
1779126155.4305825,2.0240650177001953,-1,preflight_wait,1.620703935623169,0.0,0.0,0.0,0.0,0.0,0.0,0.0,0,0,0,0,1,1.9804418087005615,0.0093225,-0.003217529,0.037031874,3.1873584e-05,0.0040741912089288235,0.009700233116745949,-0.6311691403388977,-0.7755738496780396,0.06960439682006836,21,0.00045205138,6.0992497e-05,4.8848375e-05,1.1591585e-05
1779126155.4508579,2.0443403720855713,-1,preflight_wait,1.6409854888916016,0.0,0.0,0.0,0.0,0.0,0.0,0.0,0,0,0,0,1,2.0007193088531494,0.0093225,-0.003217529,0.037031874,3.1873584e-05,0.0040741912089288235,0.009700233116745949,-0.6311691403388977,-0.7755738496780396,0.08988261222839355,21,0.00045205138,6.0992497e-05,4.8848375e-05,1.1591585e-05
1779126155.4705093,2.0639917850494385,-1,preflight_wait,1.6606519222259521,0.0,0.0,0.0,0.0,0.0,0.0,0.0,0,0,0,0,1,2.0203709602355957,0.009309777,-0.0032108403,0.03702399,2.399087e-05,0.004023166373372078,0.009332621470093727,-0.6311901211738586,-0.7755615711212158,0.018410921096801758,22,-0.0001396188,7.340182e-05,-8.650417e-05,1.4037262e-05
1779126155.490546,2.084028482437134,-1,preflight_wait,1.680675745010376,0.0,0.0,0.0,0.0,0.0,0.0,0.0,0,0,0,0,1,2.040407180786133,0.009309777,-0.0032108403,0.03702399,2.399087e-05,0.004023166373372078,0.009332621470093727,-0.6311901211738586,-0.7755615711212158,0.03844642639160156,22,-0.0001396188,7.340182e-05,-8.650417e-05,1.4037262e-05
1779126155.5108144,2.104296922683716,-1,preflight_wait,1.7009363174438477,0.0,0.0,0.0,0.0,0.0,0.0,0.0,0,0,0,0,1,2.0606741905212402,0.009309777,-0.0032108403,0.03702399,2.399087e-05,0.004023166373372078,0.009332621470093727,-0.6311901211738586,-0.7755615711212158,0.05871176719665527,22,-0.0001396188,7.340182e-05,-8.650417e-05,1.4037262e-05
1779126155.5308309,2.1243133544921875,-1,preflight_wait,1.7209527492523193,0.0,0.0,0.0,0.0,0.0,0.0,0.0,0,0,0,0,1,2.080690383911133,0.009309777,-0.0032108403,0.03702399,2.399087e-05,0.004023166373372078,0.009332621470093727,-0.6311901211738586,-0.7755615711212158,0.07872796058654785,22,-0.0001396188,7.340182e-05,-8.650417e-05,1.4037262e-05
1779126155.5507812,2.144263744354248,-1,preflight_wait,1.740912675857544,0.0,0.0,0.0,0.0,0.0,0.0,0.0,0,0,0,0,1,2.1006414890289307,0.00929644,-0.003210573,0.037020408,2.040714e-05,0.0041261170990765095,0.009660368785262108,-0.6310808658599854,-0.7756459712982178,0.006897449493408203,23,-0.00014531707,2.9122268e-06,-3.9046165e-05,2.176416e-05
1779126155.5705876,2.1640701293945312,-1,preflight_wait,1.760728359222412,0.0,0.0,0.0,0.0,0.0,0.0,0.0,0,0,0,0,1,2.120450973510742,0.00929644,-0.003210573,0.037020408,2.040714e-05,0.0041261170990765095,0.009660368785262108,-0.6310808658599854,-0.7756459712982178,0.026710987091064453,23,-0.00014531707,2.9122268e-06,-3.9046165e-05,2.176416e-05
1779126155.5905538,2.1840362548828125,-1,preflight_wait,1.7806980609893799,0.0,0.0,0.0,0.0,0.0,0.0,0.0,0,0,0,0,1,2.140418767929077,0.00929644,-0.003210573,0.037020408,2.040714e-05,0.0041261170990765095,0.009660368785262108,-0.6310808658599854,-0.7756459712982178,0.046678781509399414,23,-0.00014531707,2.9122268e-06,-3.9046165e-05,2.176416e-05
1779126155.6105583,2.204040765762329,-1,preflight_wait,1.8007028102874756,0.0,0.0,0.0,0.0,0.0,0.0,0.0,0,0,0,0,1,2.16042423248291,0.00929644,-0.003210573,0.037020408,2.040714e-05,0.0041261170990765095,0.009660368785262108,-0.6310808658599854,-0.7756459712982178,0.06668424606323242,23,-0.00014531707,2.9122268e-06,-3.9046165e-05,2.176416e-05
1779126155.6307256,2.224208116531372,-1,preflight_wait,1.820859432220459,0.0,0.0,0.0,0.0,0.0,0.0,0.0,0,0,0,0,1,2.1805880069732666,0.00929644,-0.003210573,0.037020408,2.040714e-05,0.0041261170990765095,0.009660368785262108,-0.6310808658599854,-0.7756459712982178,0.08684682846069336,23,-0.00014531707,2.9122268e-06,-3.9046165e-05,2.176416e-05
1779126155.6505532,2.2440357208251953,-1,preflight_wait,1.840700387954712,0.0,0.0,0.0,0.0,0.0,0.0,0.0,0,0,0,0,1,2.200416088104248,0.009310181,-0.003215611,0.037010476,1.0475516e-05,0.003951224032789469,0.010310450568795204,-0.6311028599739075,-0.7756205797195435,0.015461444854736328,24,0.0001506539,-5.523296e-05,-0.00010888331,9.3441895e-06
1779126155.6705456,2.2640280723571777,-1,preflight_wait,1.8606817722320557,0.0,0.0,0.0,0.0,0.0,0.0,0.0,0,0,0,0,1,2.2204079627990723,0.009310181,-0.003215611,0.037010476,1.0475516e-05,0.003951224032789469,0.010310450568795204,-0.6311028599739075,-0.7756205797195435,0.03545331954956055,24,0.0001506539,-5.523296e-05,-0.00010888331,9.3441895e-06
1779126155.6906252,2.2841076850891113,-1,preflight_wait,1.8807682991027832,0.0,0.0,0.0,0.0,0.0,0.0,0.0,0,0,0,0,1,2.2404890060424805,0.009310181,-0.003215611,0.037010476,1.0475516e-05,0.003951224032789469,0.010310450568795204,-0.6311028599739075,-0.7756205797195435,0.05553460121154785,24,0.0001506539,-5.523296e-05,-0.00010888331,9.3441895e-06
1779126155.7107246,2.3042070865631104,-1,preflight_wait,1.9008569717407227,0.0,0.0,0.0,0.0,0.0,0.0,0.0,0,0,0,0,1,2.260587692260742,0.009310181,-0.003215611,0.037010476,1.0475516e-05,0.003951224032789469,0.010310450568795204,-0.6311028599739075,-0.7756205797195435,0.07563161849975586,24,0.0001506539,-5.523296e-05,-0.00010888331,9.3441895e-06
1779126155.7307339,2.324216365814209,-1,preflight_wait,1.9208762645721436,0.0,0.0,0.0,0.0,0.0,0.0,0.0,0,0,0,0,1,2.2805962562561035,0.009316992,-0.0032144235,0.037055723,5.5722892e-05,0.004374929703772068,0.008693022653460503,-0.6311481595039368,-0.7756012082099915,0.004130363464355469,25,7.442657e-05,1.2976053e-05,0.00049445376,1.0721136e-05
1779126155.750554,2.34403657913208,-1,preflight_wait,1.9406983852386475,0.0,0.0,0.0,0.0,0.0,0.0,0.0,0,0,0,0,1,2.3004186153411865,0.009316992,-0.0032144235,0.037055723,5.5722892e-05,0.004374929703772068,0.008693022653460503,-0.6311481595039368,-0.7756012082099915,0.023955821990966797,25,7.442657e-05,1.2976053e-05,0.00049445376,1.0721136e-05
1779126155.770547,2.3640294075012207,-1,preflight_wait,1.960688591003418,0.0,0.0,0.0,0.0,0.0,0.0,0.0,0,0,0,0,1,2.3204104900360107,0.009316992,-0.0032144235,0.037055723,5.5722892e-05,0.004374929703772068,0.008693022653460503,-0.6311481595039368,-0.7756012082099915,0.04394793510437012,25,7.442657e-05,1.2976053e-05,0.00049445376,1.0721136e-05
1779126155.790552,2.3840343952178955,-1,preflight_wait,1.9806945323944092,0.0,0.0,0.0,0.0,0.0,0.0,0.0,0,0,0,0,1,2.340416669845581,0.009316992,-0.0032144235,0.037055723,5.5722892e-05,0.004374929703772068,0.008693022653460503,-0.6311481595039368,-0.7756012082099915,0.06395363807678223,25,7.442657e-05,1.2976053e-05,0.00049445376,1.0721136e-05
1779126155.810733,2.4042155742645264,-1,preflight_wait,2.000858783721924,0.0,0.0,0.0,0.0,0.0,0.0,0.0,0,0,0,0,1,2.360593557357788,0.009316992,-0.0032144235,0.037055723,5.5722892e-05,0.004374929703772068,0.008693022653460503,-0.6311481595039368,-0.7756012082099915,0.08412790298461914,25,7.442657e-05,1.2976053e-05,0.00049445376,1.0721136e-05
1779126155.8307326,2.424215078353882,-1,preflight_wait,2.0208756923675537,0.0,0.0,0.0,0.0,0.0,0.0,0.0,0,0,0,0,1,2.3805947303771973,0.009320981,-0.0032431455,0.037088934,8.8933855e-05,0.0036210305988788605,0.009641269221901894,-0.6313579082489014,-0.7754231691360474,0.011806726455688477,26,4.320573e-05,-0.00031110548,0.00035972832,2.0246025e-05
1779126155.8507154,2.4441978931427,-1,preflight_wait,2.040851354598999,0.0,0.0,0.0,0.0,0.0,0.0,0.0,0,0,0,0,1,2.400578498840332,0.009320981,-0.0032431455,0.037088934,8.8933855e-05,0.0036210305988788605,0.009641269221901894,-0.6313579082489014,-0.7754231691360474,0.031792402267456055,26,4.320573e-05,-0.00031110548,0.00035972832,2.0246025e-05
1779126155.870546,2.4640285968780518,-1,preflight_wait,2.060682773590088,0.0,0.0,0.0,0.0,0.0,0.0,0.0,0,0,0,0,1,2.4204084873199463,0.009320981,-0.0032431455,0.037088934,8.8933855e-05,0.0036210305988788605,0.009641269221901894,-0.6313579082489014,-0.7754231691360474,0.05162239074707031,26,4.320573e-05,-0.00031110548,0.00035972832,2.0246025e-05
1779126155.8905861,2.4840686321258545,-1,preflight_wait,2.080714702606201,0.0,0.0,0.0,0.0,0.0,0.0,0.0,0,0,0,0,1,2.4404470920562744,0.009320981,-0.0032431455,0.037088934,8.8933855e-05,0.0036210305988788605,0.009641269221901894,-0.6313579082489014,-0.7754231691360474,0.07165884971618652,26,4.320573e-05,-0.00031110548,0.00035972832,2.0246025e-05
1779126155.9106536,2.504136085510254,-1,preflight_wait,2.1008102893829346,0.0,0.0,0.0,0.0,0.0,0.0,0.0,0,0,0,0,1,2.460520029067993,0.009320981,-0.0032431455,0.037088934,8.8933855e-05,1.0842021724855044e-19,-1.8189032077789307,-8.404655456542969,4.661061683302027e+23,0.0917363166809082,26,4.320573e-05,-0.00031110548,0.00035972832,2.0246025e-05
1779126155.9307215,2.5242040157318115,-1,preflight_wait,2.120872735977173,0.0,0.0,0.0,0.0,0.0,0.0,0.0,0,0,0,0,1,2.4805853366851807,0.009317064,-0.0032181684,0.03704704,4.703924e-05,0.004088955465704203,0.009487969800829887,-0.6311243176460266,-0.7756128907203674,0.019875526428222656,27,-4.2612864e-05,0.00027171525,-0.00045575298,7.3754945e-06
1779126155.9505455,2.5440280437469482,-1,preflight_wait,2.1406846046447754,0.0,0.0,0.0,0.0,0.0,0.0,0.0,0,0,0,0,1,2.500408887863159,0.009317064,-0.0032181684,0.03704704,4.703924e-05,0.004088955465704203,0.009487969800829887,-0.6311243176460266,-0.7756128907203674,0.03969979286193848,27,-4.2612864e-05,0.00027171525,-0.00045575298,7.3754945e-06
1779126155.970548,2.564030408859253,-1,preflight_wait,2.1606924533843994,0.0,0.0,0.0,0.0,0.0,0.0,0.0,0,0,0,0,1,2.5204110145568848,0.009317064,-0.0032181684,0.03704704,4.703924e-05,0.004088955465704203,0.009487969800829887,-0.6311243176460266,-0.7756128907203674,0.059702157974243164,27,-4.2612864e-05,0.00027171525,-0.00045575298,7.3754945e-06
1779126155.9907236,2.5842061042785645,-1,preflight_wait,2.1808557510375977,0.0,0.0,0.0,0.0,0.0,0.0,0.0,0,0,0,0,1,2.54058575630188,0.009317064,-0.0032181684,0.03704704,4.703924e-05,0.004088955465704203,0.009487969800829887,-0.6311243176460266,-0.7756128907203674,0.07987403869628906,27,-4.2612864e-05,0.00027171525,-0.00045575298,7.3754945e-06
1779126156.0105565,2.604038953781128,-1,preflight_wait,2.2007081508636475,0.0,0.0,0.0,0.0,0.0,0.0,0.0,0,0,0,0,1,2.560420274734497,0.009317191,-0.003211602,0.03703786,3.7860125e-05,0.0042686304077506065,0.00870733242481947,-0.6311309933662415,-0.7756156325340271,0.018067359924316406,28,1.5627966e-06,8.042699e-05,-0.0001124301,1.34554075e-05
1779126156.0305483,2.624030828475952,-1,preflight_wait,2.220686197280884,0.0,0.0,0.0,0.0,0.0,0.0,0.0,0,0,0,0,1,2.580411911010742,0.009317191,-0.003211602,0.03703786,3.7860125e-05,0.0042686304077506065,0.00870733242481947,-0.6311309933662415,-0.7756156325340271,0.038059234619140625,28,1.5627966e-06,8.042699e-05,-0.0001124301,1.34554075e-05
1779126156.0505488,2.644031286239624,-1,preflight_wait,2.2406857013702393,0.0,0.0,0.0,0.0,0.0,0.0,0.0,0,0,0,0,1,2.6004114151000977,0.009317191,-0.003211602,0.03703786,3.7860125e-05,0.0042686304077506065,0.00870733242481947,-0.6311309933662415,-0.7756156325340271,0.058058738708496094,28,1.5627966e-06,8.042699e-05,-0.0001124301,1.34554075e-05
1779126156.07056,2.6640424728393555,-1,preflight_wait,2.260702133178711,0.0,0.0,0.0,0.0,0.0,0.0,0.0,0,0,0,0,1,2.620424747467041,0.009317191,-0.003211602,0.03703786,3.7860125e-05,0.0042686304077506065,0.00870733242481947,-0.6311309933662415,-0.7756156325340271,0.07807135581970215,28,1.5627966e-06,8.042699e-05,-0.0001124301,1.34554075e-05
1779126156.0906339,2.6841163635253906,-1,preflight_wait,2.2809059619903564,0.0,0.0,0.0,0.0,0.0,0.0,0.0,0,0,0,0,1,2.640509843826294,0.009312976,-0.0032209456,0.03704236,4.2360276e-05,0.0043700202368199825,0.008504965342581272,-0.6311678886413574,-0.7755873203277588,0.015932321548461914,29,-5.125929e-05,-0.000113623246,5.4724896e-05,3.5147148e-06
1779126156.1105986,2.7040810585021973,-1,preflight_wait,2.3008317947387695,0.0,0.0,0.0,0.0,0.0,0.0,0.0,0,0,0,0,1,2.6604795455932617,0.009312976,-0.0032209456,0.03704236,4.2360276e-05,0.0043700202368199825,0.008504965342581272,-0.6311678886413574,-0.7755873203277588,0.03590869903564453,29,-5.125929e-05,-0.000113623246,5.4724896e-05,3.5147148e-06
1779126156.130593,2.7240755558013916,-1,preflight_wait,2.3208231925964355,0.0,0.0,0.0,0.0,0.0,0.0,0.0,0,0,0,0,1,2.6804733276367188,0.009312976,-0.0032209456,0.03704236,4.2360276e-05,0.0043700202368199825,0.008504965342581272,-0.6311678886413574,-0.7755873203277588,0.05590200424194336,29,-5.125929e-05,-0.000113623246,5.4724896e-05,3.5147148e-06
1779126156.1506383,2.7441208362579346,-1,preflight_wait,2.34085750579834,0.0,0.0,0.0,0.0,0.0,0.0,0.0,0,0,0,0,1,2.700514793395996,0.009312976,-0.0032209456,0.03704236,4.2360276e-05,0.0043700202368199825,0.008504965342581272,-0.6311678886413574,-0.7755873203277588,0.0759420394897461,29,-5.125929e-05,-0.000113623246,5.4724896e-05,3.5147148e-06
1779126156.1705623,2.764044761657715,-1,preflight_wait,2.3607232570648193,0.0,0.0,0.0,0.0,0.0,0.0,0.0,0,0,0,0,1,2.7204270362854004,0.009314237,-0.0032179486,0.037003618,3.6172569e-06,0.003826127853244543,0.010619920678436756,-0.6310957074165344,-0.7756229043006897,0.0035004615783691406,30,1.3655713e-05,3.245501e-05,-0.00041955514,6.5859954e-06
1779126156.1908228,2.7843053340911865,-1,preflight_wait,2.380964517593384,0.0,0.0,0.0,0.0,0.0,0.0,0.0,0,0,0,0,1,2.7406880855560303,0.009314237,-0.0032179486,0.037003618,3.6172569e-06,0.003826127853244543,0.010619920678436756,-0.6310957074165344,-0.7756229043006897,0.02375960350036621,30,1.3655713e-05,3.245501e-05,-0.00041955514,6.5859954e-06
1779126156.2105412,2.8040237426757812,-1,preflight_wait,2.400663375854492,0.0,0.0,0.0,0.0,0.0,0.0,0.0,0,0,0,0,1,2.7604007720947266,0.009314237,-0.0032179486,0.037003618,3.6172569e-06,0.003826127853244543,0.010619920678436756,-0.6310957074165344,-0.7756229043006897,0.04346942901611328,30,1.3655713e-05,3.245501e-05,-0.00041955514,6.5859954e-06
1779126156.2305377,2.8240201473236084,-1,preflight_wait,2.4206604957580566,0.0,0.0,0.0,0.0,0.0,0.0,0.0,0,0,0,0,1,2.7803964614868164,0.009314237,-0.0032179486,0.037003618,3.6172569e-06,0.003826127853244543,0.010619920678436756,-0.6310957074165344,-0.7756229043006897,0.06346535682678223,30,1.3655713e-05,3.245501e-05,-0.00041955514,6.5859954e-06
1779126156.2508707,2.844353199005127,-1,preflight_wait,2.440988540649414,0.0,0.0,0.0,0.0,0.0,0.0,0.0,0,0,0,0,1,2.8007290363311768,0.009314237,-0.0032179486,0.037003618,3.6172569e-06,0.003826127853244543,0.010619920678436756,-0.6310957074165344,-0.7756229043006897,0.08379650115966797,30,1.3655713e-05,3.245501e-05,-0.00041955514,6.5859954e-06
1779126156.270556,2.8640384674072266,-1,preflight_wait,2.4607155323028564,0.0,0.0,0.0,0.0,0.0,0.0,0.0,0,0,0,0,1,2.820420742034912,0.009327017,-0.003215794,0.03703321,3.3210963e-05,0.004417949356138706,0.008581426925957203,-0.6311389207839966,-0.7756097316741943,0.011006355285644531,31,0.00013817828,2.3296563e-05,0.00031997907,1.630298e-05
1779126156.2905483,2.884030818939209,-1,preflight_wait,2.4806766510009766,0.0,0.0,0.0,0.0,0.0,0.0,0.0,0,0,0,0,1,2.840409994125366,0.009327017,-0.003215794,0.03703321,3.3210963e-05,0.004417949356138706,0.008581426925957203,-0.6311389207839966,-0.7756097316741943,0.03099346160888672,31,0.00013817828,2.3296563e-05,0.00031997907,1.630298e-05
1779126156.3105447,2.904027223587036,-1,preflight_wait,2.500673770904541,0.0,0.0,0.0,0.0,0.0,0.0,0.0,0,0,0,0,1,2.8604073524475098,0.009327017,-0.003215794,0.03703321,3.3210963e-05,0.004417949356138706,0.008581426925957203,-0.6311389207839966,-0.7756097316741943,0.05099153518676758,31,0.00013817828,2.3296563e-05,0.00031997907,1.630298e-05
1779126156.3308213,2.9243037700653076,-1,preflight_wait,2.520942449569702,0.0,0.0,0.0,0.0,0.0,0.0,0.0,0,0,0,0,1,2.8806817531585693,0.009327017,-0.003215794,0.03703321,3.3210963e-05,-2.0,-1.8189033269882202,-8.404655456542969,4.661061683302027e+23,0.07126355171203613,31,0.00013817828,2.3296563e-05,0.00031997907,1.630298e-05
1779126156.3505464,2.944028854370117,-1,preflight_wait,2.5406882762908936,0.0,0.0,0.0,0.0,0.0,0.0,0.0,0,0,0,0,1,2.900408983230591,0.009306815,-0.0032213517,0.037009235,9.234995e-06,0.0037496844306588173,0.01121158804744482,-0.631097137928009,-0.7756136655807495,0.019541501998901367,32,-0.00028272704,-7.77822e-05,-0.0003355551,7.1009777e-06
1779126156.3705492,2.96403169631958,-1,preflight_wait,2.5606913566589355,0.0,0.0,0.0,0.0,0.0,0.0,0.0,0,0,0,0,1,2.920415163040161,0.009306815,-0.0032213517,0.037009235,9.234995e-06,0.0037496844306588173,0.01121158804744482,-0.631097137928009,-0.7756136655807495,0.03954815864562988,32,-0.00028272704,-7.77822e-05,-0.0003355551,7.1009777e-06
1779126156.390812,2.9842944145202637,-1,preflight_wait,2.5809338092803955,0.0,0.0,0.0,0.0,0.0,0.0,0.0,0,0,0,0,1,2.940671682357788,0.009306815,-0.0032213517,0.037009235,9.234995e-06,0.0037496844306588173,0.01121158804744482,-0.631097137928009,-0.7756136655807495,0.05980110168457031,32,-0.00028272704,-7.77822e-05,-0.0003355551,7.1009777e-06
1779126156.4108076,3.0042901039123535,-1,preflight_wait,2.60092830657959,0.0,0.0,0.0,0.0,0.0,0.0,0.0,0,0,0,0,1,2.960667133331299,0.009306815,-0.0032213517,0.037009235,9.234995e-06,0.0037496844306588173,0.01121158804744482,-0.631097137928009,-0.7756136655807495,0.07979702949523926,32,-0.00028272704,-7.77822e-05,-0.0003355551,7.1009777e-06
1779126156.4305449,3.0240273475646973,-1,preflight_wait,2.620687484741211,0.0,0.0,0.0,0.0,0.0,0.0,0.0,0,0,0,0,1,2.9804067611694336,0.009333466,-0.003213345,0.03703244,3.2439828e-05,0.004361913073807955,0.008903253823518753,-0.63112872838974,-0.7756147980690002,0.01749420166015625,33,0.00032482934,9.758729e-05,0.00028282948,2.3107694e-05
1779126156.4505494,3.044031858444214,-1,preflight_wait,2.640685796737671,0.0,0.0,0.0,0.0,0.0,0.0,0.0,0,0,0,0,1,3.000413179397583,0.009333466,-0.003213345,0.03703244,3.2439828e-05,0.004361913073807955,0.008903253823518753,-0.63112872838974,-0.7756147980690002,0.03750014305114746,33,0.00032482934,9.758729e-05,0.00028282948,2.3107694e-05
1779126156.4705954,3.064077854156494,-1,preflight_wait,2.660745143890381,0.0,0.0,0.0,0.0,0.0,0.0,0.0,0,0,0,0,1,3.020460605621338,0.009333466,-0.003213345,0.03703244,3.2439828e-05,0.004361913073807955,0.008903253823518753,-0.63112872838974,-0.7756147980690002,0.05755138397216797,33,0.00032482934,9.758729e-05,0.00028282948,2.3107694e-05
1779126156.4905465,3.084028959274292,-1,preflight_wait,2.6806838512420654,0.0,0.0,0.0,0.0,0.0,0.0,0.0,0,0,0,0,1,3.04040789604187,0.009318258,-0.0032092482,0.037028678,2.8677285e-05,0.004284098744392395,0.009225423447787762,-0.6310978531837463,-0.7756365537643433,0.0064089298248291016,34,-0.00021394812,5.7633668e-05,-5.2930216e-05,1.6022825e-05
1779126156.5106428,3.1041252613067627,-1,preflight_wait,2.7007715702056885,0.0,0.0,0.0,0.0,0.0,0.0,0.0,0,0,0,0,1,3.060504198074341,0.009318258,-0.0032092482,0.037028678,2.8677285e-05,0.004284098744392395,0.009225423447787762,-0.6310978531837463,-0.7756365537643433,0.026505708694458008,34,-0.00021394812,5.7633668e-05,-5.2930216e-05,1.6022825e-05
1779126156.5305822,3.1240646839141846,-1,preflight_wait,2.7207045555114746,0.0,0.0,0.0,0.0,0.0,0.0,0.0,0,0,0,0,1,3.080441951751709,0.009318258,-0.0032092482,0.037028678,2.8677285e-05,0.004284098744392395,0.009225423447787762,-0.6310978531837463,-0.7756365537643433,0.04644155502319336,34,-0.00021394812,5.7633668e-05,-5.2930216e-05,1.6022825e-05
1779126156.5505702,3.144052743911743,-1,preflight_wait,2.7407121658325195,0.0,0.0,0.0,0.0,0.0,0.0,0.0,0,0,0,0,1,3.100435733795166,0.009318258,-0.0032092482,0.037028678,2.8677285e-05,0.004284098744392395,0.009225423447787762,-0.6310978531837463,-0.7756365537643433,0.06643915176391602,34,-0.00021394812,5.7633668e-05,-5.2930216e-05,1.6022825e-05
1779126156.5707982,3.164280652999878,-1,preflight_wait,2.7609267234802246,0.0,0.0,0.0,0.0,0.0,0.0,0.0,0,0,0,0,1,3.120659351348877,0.009318258,-0.0032092482,0.037028678,2.8677285e-05,0.004284098744392395,0.009225423447787762,-0.6310978531837463,-0.7756365537643433,0.08665990829467773,34,-0.00021394812,5.7633668e-05,-5.2930216e-05,1.6022825e-05
1779126156.590553,3.184035539627075,-1,preflight_wait,2.7807042598724365,0.0,0.0,0.0,0.0,0.0,0.0,0.0,0,0,0,0,1,3.1404175758361816,0.009320591,-0.0032176096,0.037031755,3.1754375e-05,0.004465431906282902,0.00843275710940361,-0.6311488151550293,-0.7756030559539795,0.014224052429199219,35,2.5304322e-05,-9.06915e-05,3.3375443e-05,1.0069907e-05
1779126156.6106248,3.2041072845458984,-1,preflight_wait,2.800799608230591,0.0,0.0,0.0,0.0,0.0,0.0,0.0,0,0,0,0,1,3.160494089126587,0.009320591,-0.0032176096,0.037031755,3.1754375e-05,0.004465431906282902,0.00843275710940361,-0.6311488151550293,-0.7756030559539795,0.034305572509765625,35,2.5304322e-05,-9.06915e-05,3.3375443e-05,1.0069907e-05
1779126156.6305585,3.224040985107422,-1,preflight_wait,2.820713520050049,0.0,0.0,0.0,0.0,0.0,0.0,0.0,0,0,0,0,1,3.1804258823394775,0.009320591,-0.0032176096,0.037031755,3.1754375e-05,0.004465431906282902,0.00843275710940361,-0.6311488151550293,-0.7756030559539795,0.05423617362976074,35,2.5304322e-05,-9.06915e-05,3.3375443e-05,1.0069907e-05
1779126156.6505587,3.2440412044525146,-1,preflight_wait,2.840716600418091,0.0,0.0,0.0,0.0,0.0,0.0,0.0,0,0,0,0,1,3.200427532196045,0.009320591,-0.0032176096,0.037031755,3.1754375e-05,0.004465431906282902,0.00843275710940361,-0.6311488151550293,-0.7756030559539795,0.07423877716064453,35,2.5304322e-05,-9.06915e-05,3.3375443e-05,1.0069907e-05
1779126156.6705742,3.26405668258667,-1,preflight_wait,2.8607535362243652,0.0,0.0,0.0,0.0,0.0,0.0,0.0,0,0,0,0,1,3.2204442024230957,0.009335616,-0.0032114503,0.037024386,2.438575e-05,0.0045388927683234215,0.008199765346944332,-0.6311251521110535,-0.7756243944168091,0.002604246139526367,36,0.00016393662,6.7203546e-05,-8.039835e-05,2.591099e-05
1779126156.690568,3.284050464630127,-1,preflight_wait,2.880720376968384,0.0,0.0,0.0,0.0,0.0,0.0,0.0,0,0,0,0,1,3.240434408187866,0.009335616,-0.0032114503,0.037024386,2.438575e-05,0.0045388927683234215,0.008199765346944332,-0.6311251521110535,-0.7756243944168091,0.02259349822998047,36,0.00016393662,6.7203546e-05,-8.039835e-05,2.591099e-05
1779126156.7105505,3.304033041000366,-1,preflight_wait,2.900693416595459,0.0,0.0,0.0,0.0,0.0,0.0,0.0,0,0,0,0,1,3.26041579246521,0.009335616,-0.0032114503,0.037024386,2.438575e-05,0.0045388927683234215,0.008199765346944332,-0.6311251521110535,-0.7756243944168091,0.042572975158691406,36,0.00016393662,6.7203546e-05,-8.039835e-05,2.591099e-05
1779126156.7305412,3.324023723602295,-1,preflight_wait,2.9206695556640625,0.0,0.0,0.0,0.0,0.0,0.0,0.0,0,0,0,0,1,3.2804017066955566,0.009335616,-0.0032114503,0.037024386,2.438575e-05,0.0045388927683234215,0.008199765346944332,-0.6311251521110535,-0.7756243944168091,0.06255507469177246,36,0.00016393662,6.7203546e-05,-8.039835e-05,2.591099e-05
1779126156.750844,3.3443264961242676,-1,preflight_wait,2.9409587383270264,0.0,0.0,0.0,0.0,0.0,0.0,0.0,0,0,0,0,1,3.300701379776001,0.009335616,-0.0032114503,0.037024386,2.438575e-05,0.0045388927683234215,0.008199765346944332,-0.6311251521110535,-0.7756243944168091,0.08285260200500488,36,0.00016393662,6.7203546e-05,-8.039835e-05,2.591099e-05
1779126156.770633,3.3641154766082764,-1,preflight_wait,2.960751533508301,0.0,0.0,0.0,0.0,0.0,0.0,0.0,0,0,0,0,1,3.320488691329956,0.009304954,-0.0032084323,0.037013337,1.3336539e-05,0.004171644803136587,0.009698284789919853,-0.6310245394706726,-0.775691032409668,0.00021505355834960938,37,-0.00029936235,2.9465229e-05,-0.000107877015,1.80199e-05
1779126156.7905457,3.384028196334839,-1,preflight_wait,2.9806759357452393,0.0,0.0,0.0,0.0,0.0,0.0,0.0,0,0,0,0,1,3.3404083251953125,0.009304954,-0.0032084323,0.037013337,1.3336539e-05,0.004171644803136587,0.009698284789919853,-0.6310245394706726,-0.775691032409668,0.020137786865234375,37,-0.00029936235,2.9465229e-05,-0.000107877015,1.80199e-05
1779126156.8105488,3.404031276702881,-1,preflight_wait,3.0006837844848633,0.0,0.0,0.0,0.0,0.0,0.0,0.0,0,0,0,0,1,3.360412120819092,0.009304954,-0.0032084323,0.037013337,1.3336539e-05,0.004171644803136587,0.009698284789919853,-0.6310245394706726,-0.775691032409668,0.040142059326171875,37,-0.00029936235,2.9465229e-05,-0.000107877015,1.80199e-05
1779126156.8308172,3.424299716949463,-1,preflight_wait,3.020940065383911,0.0,0.0,0.0,0.0,0.0,0.0,0.0,0,0,0,0,1,3.380676507949829,0.009304954,-0.0032084323,0.037013337,1.3336539e-05,0.004171644803136587,0.009698284789919853,-0.6310245394706726,-0.775691032409668,0.06040477752685547,37,-0.00029936235,2.9465229e-05,-0.000107877015,1.80199e-05
1779126156.8508136,3.44429612159729,-1,preflight_wait,3.040935754776001,0.0,0.0,0.0,0.0,0.0,0.0,0.0,0,0,0,0,1,3.4006729125976562,0.009304954,-0.0032084323,0.037013337,1.3336539e-05,0.004171644803136587,0.009698284789919853,-0.6310245394706726,-0.775691032409668,0.08040094375610352,37,-0.00029936235,2.9465229e-05,-0.000107877015,1.80199e-05
1779126156.8705664,3.4640488624572754,-1,preflight_wait,3.0607450008392334,0.0,0.0,0.0,0.0,0.0,0.0,0.0,0,0,0,0,1,3.420433759689331,0.009317379,-0.0032188026,0.03703548,3.5479665e-05,0.004500964656472206,0.008514633402228355,-0.6311110258102417,-0.7756326794624329,0.01876044273376465,38,0.00015262954,-0.00012738195,0.0002719922,7.0260708e-06
1779126156.8905616,3.484044075012207,-1,preflight_wait,3.08070969581604,0.0,0.0,0.0,0.0,0.0,0.0,0.0,0,0,0,0,1,3.4404280185699463,0.009317379,-0.0032188026,0.03703548,3.5479665e-05,0.004500964656472206,0.008514633402228355,-0.6311110258102417,-0.7756326794624329,0.03875017166137695,38,0.00015262954,-0.00012738195,0.0002719922,7.0260708e-06
1779126156.9105523,3.5040347576141357,-1,preflight_wait,3.100701093673706,0.0,0.0,0.0,0.0,0.0,0.0,0.0,0,0,0,0,1,3.460418224334717,0.009317379,-0.0032188026,0.03703548,3.5479665e-05,0.004500964656472206,0.008514633402228355,-0.6311110258102417,-0.7756326794624329,0.05874133110046387,38,0.00015262954,-0.00012738195,0.0002719922,7.0260708e-06
1779126156.9305618,3.5240442752838135,-1,preflight_wait,3.120724678039551,0.0,0.0,0.0,0.0,0.0,0.0,0.0,0,0,0,0,1,3.48043155670166,0.009317379,-0.0032188026,0.03703548,3.5479665e-05,0.004500964656472206,0.008514633402228355,-0.6311110258102417,-0.7756326794624329,0.07875657081604004,38,0.00015262954,-0.00012738195,0.0002719922,7.0260708e-06
1779126156.9506936,3.5441761016845703,-1,preflight_wait,3.140855312347412,0.0,0.0,0.0,0.0,0.0,0.0,0.0,0,0,0,0,1,3.5005698204040527,0.009326519,-0.0032182345,0.037045494,4.5493245e-05,0.004290177021175623,0.008742593228816986,-0.6310747265815735,-0.7756608724594116,0.007111072540283203,39,9.958706e-05,6.189943e-06,0.000109105364,1.4696469e-05
1779126156.9705665,3.564049005508423,-1,preflight_wait,3.160719394683838,0.0,0.0,0.0,0.0,0.0,0.0,0.0,0,0,0,0,1,3.5204334259033203,0.009326519,-0.0032182345,0.037045494,4.5493245e-05,0.004290177021175623,0.008742593228816986,-0.6310747265815735,-0.7756608724594116,0.026978492736816406,39,9.958706e-05,6.189943e-06,0.000109105364,1.4696469e-05
1779126156.9905658,3.584048271179199,-1,preflight_wait,3.180718183517456,0.0,0.0,0.0,0.0,0.0,0.0,0.0,0,0,0,0,1,3.540432929992676,0.009326519,-0.0032182345,0.037045494,4.5493245e-05,0.004290177021175623,0.008742593228816986,-0.6310747265815735,-0.7756608724594116,0.046977996826171875,39,9.958706e-05,6.189943e-06,0.000109105364,1.4696469e-05
1779126157.0105498,3.604032278060913,-1,preflight_wait,3.2006897926330566,0.0,0.0,0.0,0.0,0.0,0.0,0.0,0,0,0,0,1,3.5604135990142822,0.009326519,-0.0032182345,0.037045494,4.5493245e-05,0.004290177021175623,0.008742593228816986,-0.6310747265815735,-0.7756608724594116,0.06695556640625,39,9.958706e-05,6.189943e-06,0.000109105364,1.4696469e-05
1779126157.0308204,3.624302864074707,-1,preflight_wait,3.220942497253418,0.0,0.0,0.0,0.0,0.0,0.0,0.0,0,0,0,0,1,3.5806801319122314,0.009326519,-0.0032182345,0.037045494,4.5493245e-05,0.004290177021175623,0.008742593228816986,-0.6310747265815735,-0.7756608724594116,0.0872182846069336,39,9.958706e-05,6.189943e-06,0.000109105364,1.4696469e-05
1779126157.0505419,3.64402437210083,-1,preflight_wait,3.2406702041625977,0.0,0.0,0.0,0.0,0.0,0.0,0.0,0,0,0,0,1,3.600399971008301,0.009317753,-0.0032066293,0.037056793,5.679205e-05,0.0045456732623279095,0.008287067525088787,-0.6311326622962952,-0.7756173610687256,0.005621910095214844,40,-8.652672e-05,0.000114544724,0.00011152047,1.8395125e-05
1779126157.0705354,3.664017915725708,-1,preflight_wait,3.2606608867645264,0.0,0.0,0.0,0.0,0.0,0.0,0.0,0,0,0,0,1,3.6203954219818115,0.009317753,-0.0032066293,0.037056793,5.679205e-05,0.0045456732623279095,0.008287067525088787,-0.6311326622962952,-0.7756173610687256,0.025618553161621094,40,-8.652672e-05,0.000114544724,0.00011152047,1.8395125e-05
1779126157.090813,3.684295415878296,-1,preflight_wait,3.2809343338012695,0.0,0.0,0.0,0.0,0.0,0.0,0.0,0,0,0,0,1,3.640672445297241,0.009317753,-0.0032066293,0.037056793,5.679205e-05,0.0045456732623279095,0.008287067525088787,-0.6311326622962952,-0.7756173610687256,0.04589438438415527,40,-8.652672e-05,0.000114544724,0.00011152047,1.8395125e-05
1779126157.110805,3.704287528991699,-1,preflight_wait,3.300920248031616,0.0,0.0,0.0,0.0,0.0,0.0,0.0,0,0,0,0,1,3.6606624126434326,0.009317753,-0.0032066293,0.037056793,5.679205e-05,0.0045456732623279095,0.008287067525088787,-0.6311326622962952,-0.7756173610687256,0.06588339805603027,40,-8.652672e-05,0.000114544724,0.00011152047,1.8395125e-05
1779126157.1307993,3.7242817878723145,-1,preflight_wait,3.3209290504455566,0.0,0.0,0.0,0.0,0.0,0.0,0.0,0,0,0,0,1,3.6806604862213135,0.009317753,-0.0032066293,0.037056793,5.679205e-05,0.0045456732623279095,0.008287067525088787,-0.6311326622962952,-0.7756173610687256,0.08588385581970215,40,-8.652672e-05,0.000114544724,0.00011152047,1.8395125e-05
1779126157.1507196,3.744202136993408,-1,preflight_wait,3.340877056121826,0.0,0.0,0.0,0.0,0.0,0.0,0.0,0,0,0,0,1,3.7005841732025146,0.009321082,-0.0032074274,0.037034936,3.4935772e-05,0.004524479620158672,0.00864438433200121,-0.6311171054840088,-0.7756261825561523,0.013907432556152344,41,3.6227906e-05,-8.684564e-06,-0.0002378172,1.8760235e-05
1779126157.1705508,3.764033317565918,-1,preflight_wait,3.360694169998169,0.0,0.0,0.0,0.0,0.0,0.0,0.0,0,0,0,0,1,3.720414400100708,0.009321082,-0.0032074274,0.037034936,3.4935772e-05,0.004524479620158672,0.00864438433200121,-0.6311171054840088,-0.7756261825561523,0.03373861312866211,41,3.6227906e-05,-8.684564e-06,-0.0002378172,1.8760235e-05
1779126157.1905677,3.784050226211548,-1,preflight_wait,3.380725383758545,0.0,0.0,0.0,0.0,0.0,0.0,0.0,0,0,0,0,1,3.7404370307922363,0.009321082,-0.0032074274,0.037034936,3.4935772e-05,0.004524479620158672,0.00864438433200121,-0.6311171054840088,-0.7756261825561523,0.053761959075927734,41,3.6227906e-05,-8.684564e-06,-0.0002378172,1.8760235e-05
1779126157.2105906,3.8040730953216553,-1,preflight_wait,3.4007225036621094,0.0,0.0,0.0,0.0,0.0,0.0,0.0,0,0,0,0,1,3.7604525089263916,0.009321082,-0.0032074274,0.037034936,3.4935772e-05,0.004524479620158672,0.00864438433200121,-0.6311171054840088,-0.7756261825561523,0.07377362251281738,41,3.6227906e-05,-8.684564e-06,-0.0002378172,1.8760235e-05
1779126157.2305894,3.8240718841552734,-1,preflight_wait,3.420734405517578,0.0,0.0,0.0,0.0,0.0,0.0,0.0,0,0,0,0,1,3.7804512977600098,0.009300109,-0.00321408,0.037014138,1.4137477e-05,0.004171378910541534,0.00947756040841341,-0.6310640573501587,-0.7756615877151489,0.0015456676483154297,42,-0.00022741227,-7.21317e-05,-0.0002255138,1.6705202e-05
1779126157.2505524,3.8440349102020264,-1,preflight_wait,3.440700054168701,0.0,0.0,0.0,0.0,0.0,0.0,0.0,0,0,0,0,1,3.8004181385040283,0.009300109,-0.00321408,0.037014138,1.4137477e-05,0.004171378910541534,0.00947756040841341,-0.6310640573501587,-0.7756615877151489,0.021515846252441406,42,-0.00022741227,-7.21317e-05,-0.0002255138,1.6705202e-05
