wall_time_s,elapsed_s,mode,thrust_raw,thrust_percent,roll_cmd_deg,pitch_cmd_deg,yawrate_cmd_deg_s,mocap_x,mocap_y,mocap_z,mocap_qx,mocap_qy,mocap_qz,mocap_qw,yaw_deg,mocap_age_s,mocap_frame_count,drift_x_m,drift_y_m,horizontal_drift_m,velocity_x_m_s,velocity_y_m_s,horizontal_speed_m_s,body_error_x_m,body_error_y_m,body_velocity_x_m_s,body_velocity_y_m_s,battery_v,estimate_z
1779201639.73398,0.0008730888366699219,hold-xy,0,0.0,0.0,0.0,0.0,0.0057673976,0.00045556203,0.03705394,0.01525839138776064,-0.01939292810857296,-0.6163665652275085,-0.7870726585388184,76.12973246220977,0.03073430061340332,50,0.0,0.0,0.0,0.0,0.0,0.0,0.0,0.0,0.0,0.0,4.101466178894043,104.23509216308594
1779201639.7981882,0.06508135795593262,hold-xy,0,0.0,6.399982e-05,-4.9495793e-05,0.0,0.0057775173,0.0004600417,0.037072986,0.015099125914275646,-0.019453657791018486,-0.6165710091590881,-0.7869141101837158,76.15986849665006,0.011428117752075195,51,1.0119751e-05,4.4796616e-06,1.1066920222345236e-05,3.6352096e-05,1.6091808e-05,3.975451077929049e-05,-6.7703854e-06,8.7543485e-06,2.432053e-05,-3.1447307e-05,4.101466178894043,104.23509216308594
1779201639.9024067,0.16929984092712402,hold-xy,0,0.0,0.00011472946,-0.0003253567,0.0,0.00579731,0.00050029345,0.03703995,0.015367732383310795,-0.01917971670627594,-0.6163157820701599,-0.7871155142784119,76.12150271303219,0.012603998184204102,52,2.9912218e-05,4.4731423e-05,5.3811161112386226e-05,8.30706e-05,0.00012845393,0.00015297430185539355,-5.0600414e-05,1.8309534e-05,0.00014462954,-4.9834045e-05,4.096187591552734,104.24414825439453
1779201640.0102654,0.2771584987640381,hold-xy,0,0.0,-0.00011628477,2.5313602e-07,0.0,0.0057547577,0.00046680123,0.037089095,0.014950118027627468,-0.01906096190214157,-0.6163426041603088,-0.7871054410934448,76.12535871766909,0.014678955078125,53,-1.263991e-05,1.1239201e-05,1.691410534665341e-05,-6.252739e-05,-5.065376e-06,6.273222859354136e-05,-7.880241e-06,-1.4966254e-05,-1.991155e-05,5.948834e-05,4.101466178894043,104.26152801513672
1779201640.0762947,0.3431878089904785,hold-xy,0,0.0,0.0004424035,-0.00033292244,0.0,0.005835006,0.00049189106,0.03705922,0.015207906253635883,-0.019221331924200058,-0.616246223449707,-0.7871720790863037,76.11165100539988,0.0002541542053222656,54,6.760843e-05,3.632903e-05,7.675088661102664e-05,0.00025546356,9.001004e-05,0.0002708568588595226,-5.149506e-05,5.6911835e-05,0.00014869771,-0.00022639,4.101466178894043,104.26152801513672
1779201640.179066,0.44595909118652344,hold-xy,0,0.0,0.00018165464,-0.00016326875,0.0,0.005805472,0.00048171915,0.037054755,0.014643028378486633,-0.01784284971654415,-0.6165399551391602,-0.7869851589202881,76.15033386365222,0.009230375289916992,55,3.807433e-05,2.6157126e-05,4.6193614121404056e-05,8.436076e-05,3.0472565e-05,8.969568286654642e-05,-3.451071e-05,3.0706033e-05,4.9780512e-05,-7.461378e-05,4.101466178894043,104.28353881835938
1779201640.281823,0.5487160682678223,hold-xy,0,0.0,1.5370364e-05,-0.00015297615,0.0,0.005786268,0.00048758276,0.037053544,0.015245668590068817,-0.01890542358160019,-0.6162241697311401,-0.7871962189674377,76.10732661482011,0.02080988883972168,56,1.8870458e-05,3.2020733e-05,3.7167479504536485e-05,-4.1337153e-06,4.0623745e-05,4.0833518548859105e-05,-3.5614907e-05,1.063014e-05,3.8442864e-05,1.3766713e-05,4.096187591552734,104.2966079711914
1779201640.3431268,0.6100199222564697,hold-xy,0,0.0,0.00022539045,-0.00017027094,0.0,0.0058141723,0.00048502907,0.037054837,0.01482855249196291,-0.01803007908165455,-0.6164173483848572,-0.7870736122131348,76.13292502795129,0.0002951622009277344,57,4.6774745e-05,2.9467046e-05,5.528275977618591e-05,9.9421624e-05,1.9073148e-05,0.00010123459819310327,-3.9818722e-05,3.834909e-05,4.2345648e-05,-9.195265e-05,4.096187591552734,104.30519104003906
1779201640.4253037,0.6921968460083008,hold-xy,0,0.0,-3.6555502e-06,6.740072e-05,0.0,0.0057862103,0.00046562776,0.037073676,0.015412389300763607,-0.020126178860664368,-0.6163544654846191,-0.7870607376098633,76.13044181632945,0.01942276954650879,58,1.8812716e-05,1.0065734e-05,2.133629050016031e-05,-6.345324e-05,-7.896374e-05,0.00010129948789305586,-1.4281896e-05,1.5851332e-05,-9.1871996e-05,4.267462e-05,4.096187591552734,104.32858276367188
1779201640.5272937,0.7941868305206299,hold-xy,0,0.0,3.0651252e-05,-7.7396966e-05,0.0,0.005793482,0.00048233382,0.037079882,0.015110557898879051,-0.019118674099445343,-0.6160975694656372,-0.7872927784919739,76.0897294125916,0.009568214416503906,59,2.6084483e-05,2.6771799e-05,3.7378195825695605e-05,-2.4912248e-05,-1.0464031e-05,2.7020660219664213e-05,-3.2257434e-05,1.8883517e-05,-1.6146112e-05,2.1666081e-05,4.101466178894043,104.33270263671875
1779201640.5885015,0.8553946018218994,hold-xy,0,0.0,-4.4404223e-05,-0.00014935783,0.0,0.0057870876,0.0004906636,0.037055682,0.014926163479685783,-0.018924586474895477,-0.6162428855895996,-0.7871872782707214,76.11038883436022,0.020066499710083008,60,1.9690022e-05,3.5101548e-05,4.0246932988399355e-05,-5.5268545e-05,4.1954412e-05,6.938865191894211e-05,-3.880181e-05,1.0688089e-05,2.746034e-05,6.372374e-05,4.101466178894043,104.33270263671875
1779201640.6515586,0.9184517860412598,hold-xy,0,0.0,0.0001525325,-2.017893e-05,0.0,0.0058060177,0.0004694108,0.03706614,0.014864449389278889,-0.018517689779400826,-0.6164574027061462,-0.7870301604270935,76.1403231529298,0.0014998912811279297,61,3.8620085e-05,1.3848767e-05,4.102803039074383e-05,3.0887557e-05,-4.874437e-05,5.770662400807239e-05,-2.2696806e-05,3.4178272e-05,-3.992624e-05,-4.1664738e-05,4.101466178894043,104.29100036621094
1779201640.7330406,0.9999337196350098,hold-xy,0,0.0,0.0004583724,-0.00025193513,0.0,0.0058510136,0.00048600323,0.037042387,0.014974626712501049,-0.018511369824409485,-0.6163660883903503,-0.7870997190475464,76.1269081390246,0.012126684188842773,62,8.3616e-05,3.044121e-05,8.898484897073036e-05,0.0002121336,3.6131194e-05,0.00021518858457851475,-4.9602e-05,7.38779e-05,8.594094e-05,-0.00019728224,4.096187591552734,104.29023742675781
1779201640.8150072,1.0819003582000732,hold-xy,0,0.0,5.7608915e-05,4.1091946e-05,0.0,0.005799502,0.00046241283,0.037041757,0.01528542023152113,-0.019134599715471268,-0.6162817478179932,-0.7871448397636414,76.11646029665812,0.012916088104248047,63,3.210455e-05,6.850809e-06,3.2827362952365803e-05,-4.1873107e-05,-6.188925e-05,7.472373561420442e-05,-1.4354126e-05,2.9522784e-05,-7.01286e-05,2.579953e-05,4.096187591552734,104.24130249023438
1779201640.9423995,1.2092926502227783,hold-xy,0,0.0,0.00032413524,-5.6683624e-05,0.0,0.00584618,0.00046392903,0.037076123,0.015233641490340233,-0.019650084897875786,-0.6162578463554382,-0.7871518731117249,76.11481836011718,0.008089303970336914,64,7.878244e-05,8.367002e-06,7.922549574732279e-05,7.6599164e-05,-3.988229e-05,8.635987992784285e-05,-2.7028478e-05,7.447242e-05,-2.0334837e-05,-8.3931656e-05,4.096187591552734,104.29705047607422
1779201641.0282426,1.295135736465454,hold-xy,0,0.0,1.07097e-05,-0.0001491645,0.0,0.0058138445,0.0004830677,0.03706515,0.014849144034087658,-0.01745288260281086,-0.6163482069969177,-0.7871402502059937,76.12101010228538,0.02002573013305664,65,4.644692e-05,2.7505681e-05,5.3980356759966954e-05,-7.76361e-05,4.976963e-05,9.221919226984302e-05,-3.7843958e-05,3.849303e-05,2.969385e-05,8.7307824e-05,4.096187591552734,104.30450439453125
1779201641.1098917,1.3767848014831543,hold-xy,0,0.0,-8.393289e-05,0.00013163443,0.0,0.0057884585,0.00045158528,0.037084617,0.015088571235537529,-0.019555335864424706,-0.6165487766265869,-0.7869292497634888,76.15699581705674,0.019311189651489258,66,2.1060929e-05,-3.9767474e-06,2.1433087288100413e-05,-0.00014681084,-7.98324e-05,0.00016711264233010463,-1.1778434e-06,2.14007e-05,-0.00011263996,0.00012344582,4.096187591552734,104.33253479003906
1779201641.1909664,1.4578595161437988,hold-xy,0,0.0,6.338606e-05,-0.0002782874,0.0,0.00581559,0.00049968995,0.037047856,0.014732088893651962,-0.017659790813922882,-0.6164380311965942,-0.7870675325393677,76.13483533850754,0.0090789794921875,67,4.8192218e-05,4.4127926e-05,6.534343194110441e-05,-1.3624434e-05,0.00010217108,0.0001030754756539213,-5.4390817e-05,3.621329e-05,9.592912e-05,3.7711503e-05,4.096187591552734,104.33253479003906
1779201641.2925699,1.5594630241394043,hold-xy,0,0.0,8.569998e-05,-0.00013198813,0.0,0.0058127865,0.00048265606,0.03705313,0.014754267409443855,-0.017656706273555756,-0.6161333322525024,-0.7873057126998901,76.09042865390029,0.007775068283081055,68,4.5388937e-05,2.7094036e-05,5.286059395261018e-05,-1.7709346e-05,2.1861848e-05,2.8134700496085317e-05,-3.7210593e-05,3.754483e-05,1.6963626e-05,2.2445416e-05,4.096187591552734,104.36212921142578
1779201641.3750925,1.6419856548309326,hold-xy,0,0.0,-0.0001706789,9.725277e-05,0.0,0.0057706274,0.0004618354,0.037108168,0.014925016090273857,-0.018920745700597763,-0.6165594458580017,-0.7869395017623901,76.15649325291857,0.007724761962890625,69,3.2298267e-06,6.273389e-06,7.05600370330017e-06,-0.00016556699,-6.034128e-05,0.00017622003100535103,-6.863968e-06,1.6349708e-06,-9.820389e-05,0.00014631984,4.096187591552734,104.33747100830078
1779201641.4650865,1.7319796085357666,hold-xy,0,0.0,-0.00017723691,-2.7177734e-05,0.0,0.0057659186,0.00047496893,0.03706755,0.015000991523265839,-0.018587224185466766,-0.6162347793579102,-0.7872002124786377,76.10801095857322,0.02071690559387207,70,-1.4789402e-06,1.94069e-05,1.946317124458415e-05,-0.0001342423,8.929426e-06,0.00013453895933989422,-1.8484167e-05,-6.095129e-06,-2.3562305e-05,0.00013245961,4.096187591552734,104.30516815185547
1779201641.5267699,1.7936630249023438,hold-xy,0,0.0,0.000116352036,-0.00026275142,0.0,0.0058023892,0.0004950594,0.037056383,0.014520385302603245,-0.0169939287006855,-0.6164286136627197,-0.7870935201644897,76.1315778023195,0.010939359664916992,71,3.499165e-05,3.949739e-05,5.276797847008109e-05,5.913745e-05,9.0592424e-05,0.0001081860672389307,-4.6733247e-05,2.4504354e-05,0.000102126374,-3.5699144e-05,4.096187591552734,104.32337951660156
1779201641.6091912,1.876084327697754,hold-xy,1000,1.525902189669642,0.00018810891,-0.00019539811,0.0,0.0058125686,0.00048825704,0.037062358,0.015257302671670914,-0.019343381747603416,-0.6163328289985657,-0.7871003150939941,76.12464643115752,0.0106201171875,72,4.5171008e-05,3.269501e-05,5.576184553446982e-05,7.830444e-05,3.8750677e-05,8.736818557104634e-05,-4.257344e-05,3.60123e-05,5.6398145e-05,-6.672667e-05,4.096187591552734,104.334716796875
1779201641.6734402,1.940333366394043,hold-xy,1000,1.525902189669642,0.0001349194,-1.6260965e-05,0.0,0.005804235,0.00046978332,0.037027154,0.015283539891242981,-0.018740402534604073,-0.616319477558136,-0.7871249318122864,76.12062362292654,0.002417325973510742,73,3.6837533e-05,1.4221296e-05,3.948732788121804e-05,2.0306834e-05,-4.936831e-05,5.338162295154886e-05,-2.2642613e-05,3.23506e-05,-4.3055727e-05,-3.1556334e-05,4.096187591552734,104.334716796875
1779201641.7759955,2.042888641357422,hold-xy,2000,3.051804379339284,-0.00014232955,-0.000100238234,0.0,0.0057688374,0.0004888736,0.03706805,0.015146401710808277,-0.01895139180123806,-0.6161195635795593,-0.7872788906097412,76.09233085498929,0.010886192321777344,74,1.4398247e-06,3.3311546e-05,3.33426476270636e-05,-9.865288e-05,2.6312562e-05,0.0001021016256411181,-3.268107e-05,-6.6090806e-06,1.8291848e-06,0.00010208524,4.096187591552734,104.33450317382812
1779201641.8580785,2.124971628189087,hold-xy,2000,3.051804379339284,-0.00023998355,-0.00010461985,0.0,0.0057525598,0.00049355254,0.037060045,0.014912529848515987,-0.018864436075091362,-0.6161887645721436,-0.7872313261032104,76.10231327811663,0.020127534866333008,75,-1.4837831e-05,3.799051e-05,4.078529210841225e-05,-0.00013609692,3.768922e-05,0.00014121915291438535,-3.3314504e-05,-2.3528368e-05,3.8969483e-06,0.00014116536,4.096187591552734,104.34872436523438
1779201641.9595382,2.226431369781494,hold-xy,3000,4.577706569008926,0.00023120527,-0.00021270002,0.0,0.005822843,0.00049442984,0.037068825,0.014847764745354652,-0.018749678507447243,-0.6163495779037476,-0.787109375,76.12540381461683,0.008353948593139648,76,5.5445358e-05,3.8867816e-05,6.77118536906343e-05,9.0940215e-05,2.8706785e-05,9.536352466239465e-05,-5.1029427e-05,4.450721e-05,4.967645e-05,-8.140302e-05,4.096187591552734,104.33197784423828
1779201642.0421774,2.309070587158203,hold-xy,4000,6.103608758678568,0.00016832075,-7.999515e-05,0.0,0.0058147386,0.00048049353,0.037020802,0.015006533823907375,-0.018414020538330078,-0.6163788437843323,-0.7870913743972778,76.12841767365916,0.009547710418701172,77,4.734099e-05,2.4931505e-05,5.350466473912749e-05,3.3806133e-05,-3.1238917e-05,4.602960492068439e-05,-3.555423e-05,3.998307e-05,-2.2222946e-05,-4.0309616e-05,4.096187591552734,104.3066177368164
1779201642.1441529,2.411046028137207,hold-xy,4000,6.103608758678568,-0.00020617543,8.277373e-05,0.0,0.0057539437,0.00046812557,0.0370647,0.014900613576173782,-0.018284665420651436,-0.6162837147712708,-0.7871708869934082,76.11422415633955,0.0063266754150390625,78,-1.3453886e-05,1.25635415e-05,1.8407868291402173e-05,-0.00014971095,-5.7138284e-05,0.0001602440362726366,-8.967628e-06,-1.6075797e-05,-9.1397174e-05,0.00013162337,4.096187591552734,104.26005554199219
1779201642.2468328,2.513725996017456,hold-xy,5000,7.629510948348211,-4.446296e-05,5.396855e-05,0.0,0.0057698805,0.00046357326,0.037053376,0.015410023741424084,-0.019933370873332024,-0.6163094639778137,-0.7871009111404419,76.1231921906311,0.016767501831054688,79,2.482906e-06,8.011237e-06,8.387176523775572e-06,-5.2964595e-05,-5.4802782e-05,7.621412705014433e-05,-8.3729055e-06,4.8906327e-07,-6.590605e-05,3.827512e-05,4.096187591552734,104.27105712890625
1779201642.3488672,2.615760326385498,hold-xy,6000,9.155413138017853,0.00018916481,-0.0001433408,0.0,0.005811073,0.00048228167,0.03705917,0.014609202742576599,-0.017709722742438316,-0.6164364218711853,-0.7870699167251587,76.13485624189985,0.006003618240356445,80,4.3675303e-05,2.6719645e-05,5.120030746325656e-05,7.248077e-05,1.1395245e-05,7.337106616813386e-05,-3.640734e-05,3.5999685e-05,2.8432321e-05,-6.763813e-05,4.096187591552734,104.28488159179688
1779201642.4098678,2.6767609119415283,hold-xy,6000,9.155413138017853,-0.00019648432,-6.7564833e-06,0.0,0.0057732686,0.00047870912,0.037051722,0.015161579474806786,-0.019202055409550667,-0.6162420511245728,-0.7871766686439514,76.11101579721173,0.016149282455444336,81,5.8710575e-06,2.3147091e-05,2.3880058099060703e-05,-0.0001722758,-1.30983e-05,0.00017277302596603995,-2.387963e-05,1.431431e-07,-5.4068667e-05,0.00016409479,4.096187591552734,104.24774169921875
1779201642.4914846,2.75837779045105,hold-xy,7000,10.681315327687495,-0.00013870778,-2.532448e-06,0.0,0.0057722647,0.000475429,0.03707178,0.0149923050776124,-0.01897977665066719,-0.6164452433586121,-0.7870262265205383,76.13999823160542,0.00631403923034668,82,4.867092e-06,1.9866973e-05,2.0454466201934063e-05,-0.00012388648,-1.9928924e-05,0.00012547916674397224,-2.045444e-05,-3.375817e-08,-4.9025723e-05,0.00011550541,4.096187591552734,104.24774169921875
1779201642.5933495,2.8602426052093506,hold-xy,7000,10.681315327687495,-8.085394e-05,5.0462913e-05,0.0,0.005772099,0.00046495348,0.037044793,0.015254456549882889,-0.01921805553138256,-0.6161590218544006,-0.7872395515441895,76.09889899365321,0.016185522079467773,83,4.7013164e-06,9.391457e-06,1.050246814365428e-05,-8.726114e-05,-4.811202e-05,9.96457395149745e-05,-1.0245874e-05,2.3073574e-06,-6.766711e-05,7.314667e-05,4.096187591552734,104.25582122802734
1779201642.6549747,2.921867847442627,hold-xy,8000,12.207217517357137,0.00014375875,-0.00017847907,0.0,0.0058027394,0.0004841108,0.037043612,0.015314760617911816,-0.019764579832553864,-0.6163148880004883,-0.7871027588844299,76.12346273536018,0.004097461700439453,84,3.534183e-05,2.8548762e-05,4.543211075161469e-05,6.361863e-05,4.4288405e-05,7.751640197157527e-05,-3.619161e-05,2.7463506e-05,5.825353e-05,-5.1140196e-05,4.096187591552734,104.2443618774414
1779201642.757416,3.0243091583251953,hold-xy,8000,12.207217517357137,3.1700838e-05,-7.351783e-05,0.0,0.0057854652,0.0004749205,0.037060436,0.015011410228908062,-0.019193843007087708,-0.6162967681884766,-0.7871369123458862,76.1190860282636,0.0015468597412109375,85,1.8067658e-05,1.9358471e-05,2.6480004929944173e-05,-4.825535e-06,4.741887e-06,6.765447701181178e-06,-2.312765e-05,1.2895831e-05,3.445739e-06,5.8222136e-06,4.090909004211426,104.1916732788086
1779201642.839745,3.106638193130493,hold-xy,9000,13.733119707026779,7.847018e-05,-0.00020299072,0.0,0.005794758,0.0004893411,0.037054855,0.014717323705554008,-0.0179427620023489,-0.6161124110221863,-0.7873163223266602,76.08831987664382,0.012614011764526367,86,2.7360395e-05,3.377907e-05,4.346972403168901e-05,3.5742913e-05,6.402751e-05,7.332856124357802e-05,-3.9366394e-05,1.8436482e-05,7.074295e-05,-1.9300609e-05,4.090909004211426,104.18572235107422
1779201642.922009,3.1889021396636963,hold-xy,10000,15.259021896696423,7.5973134e-05,-0.0001297656,0.0,0.005793784,0.00048292242,0.03705863,0.014675767160952091,-0.01826987974345684,-0.6162208318710327,-0.7872247099876404,76.10520229662131,0.012762784957885742,87,2.6386231e-05,2.7360395e-05,3.801084544251861e-05,2.1461026e-05,2.1369231e-05,3.0285635028663692e-05,-3.289617e-05,1.9043802e-05,2.589758e-05,-1.5701435e-05,4.085630416870117,104.15198516845703
1779201643.0036414,3.2705345153808594,hold-xy,10000,15.259021896696423,-5.7734193e-05,-4.5868142e-05,0.0,0.005773252,0.0004769098,0.037051585,0.015207730233669281,-0.01898428052663803,-0.6162885427474976,-0.787144660949707,76.1170029712151,0.002725839614868164,88,5.8542937e-06,2.1347776e-05,2.213595080629106e-05,-5.2170773e-05,-4.7186313e-06,5.2383730349066946e-05,-2.2128837e-05,5.6109184e-07,-1.7098642e-05,4.9514554e-05,4.080351829528809,104.19605255126953
1779201643.1053145,3.3722076416015625,hold-xy,10000,15.259021896696423,0.00022378366,-0.00020469562,0.0,0.005815977,0.0004892852,0.03705998,0.014826121740043163,-0.017958136275410652,-0.6160752773284912,-0.7873429656028748,76.08287263734593,0.010914802551269531,89,4.8579648e-05,3.372319e-05,5.913743175231726e-05,0.00010059039,3.6410896e-05,0.00010697747760249796,-4.4417524e-05,3.9042534e-05,5.9535865e-05,-8.888004e-05,4.080351829528809,104.17058563232422
1779201643.1685586,3.4354517459869385,hold-xy,10000,15.259021896696423,-0.0002753095,-7.788159e-05,0.0,0.0057563502,0.0004905388,0.037068643,0.01499961968511343,-0.018644846975803375,-0.6160499453544617,-0.7873435020446777,76.08128457600277,0.0025696754455566406,90,-1.1047348e-05,3.497675e-05,3.667992639075964e-05,-0.0001794581,3.0740764e-05,0.00018207197576602658,-3.1292377e-05,-1.9136463e-05,-1.3329616e-05,0.0001815834,4.080351829528809,104.17058563232422
1779201643.2708068,3.5376999378204346,hold-xy,11000,16.784924086366065,-4.4647226e-05,-8.1469385e-05,0.0,0.005780874,0.00048426166,0.03710968,0.01438624132424593,-0.017256908118724823,-0.6165498495101929,-0.7869952321052551,76.15014375448605,0.002717733383178711,91,1.3476238e-05,2.8699636e-05,3.170612059207873e-05,-5.356322e-05,3.0745414e-06,5.365138825032731e-05,-3.1091153e-05,6.2143613e-06,-9.8367245e-06,5.274192e-05,4.080351829528809,104.11687469482422
1779201643.3721662,3.63905930519104,hold-xy,11000,16.784924086366065,-0.000119069155,-4.7175636e-05,0.0,0.0057665054,0.000482196,0.037090145,0.014965364709496498,-0.018744157627224922,-0.6163759827613831,-0.7870866060256958,76.12913333909222,0.012716054916381836,92,-8.92207e-07,2.6633963e-05,2.6648903142275866e-05,-8.467556e-05,-4.6308223e-06,8.480209072265251e-05,-2.5643383e-05,-7.251267e-06,-2.4795427e-05,8.109612e-05,4.0750732421875,104.14273071289062
1779201643.4758677,3.7427608966827393,hold-xy,12000,18.310826276035705,7.282208e-05,-3.988111e-05,0.0,0.0057900995,0.00047381409,0.037075683,0.015008097514510155,-0.0186242014169693,-0.6164883971214294,-0.7870005965232849,76.14507268020034,0.014419794082641602,93,2.2701919e-05,1.825206e-05,2.912927760805221e-05,1.0123062e-05,-2.7894752e-05,2.9674796419341108e-05,-2.3157321e-05,1.7670694e-05,-2.4659046e-05,-1.6508331e-05,4.069794654846191,104.12989807128906
1779201643.5369563,3.803849458694458,hold-xy,13000,19.83672846570535,0.00051448785,0.0005202503,0.0,0.005827166,0.0003917124,0.03719092,0.012875420041382313,-0.01648670807480812,-0.6162670254707336,-0.7872594594955444,76.10777036374527,0.004042863845825195,94,5.9768558e-05,-6.384961e-05,8.74588693888072e-05,0.0001626856,-0.0003641752,0.00039886111829436066,4.763174e-05,7.335033e-05,-0.00031446252,-0.00024536403,4.064516067504883,104.13107299804688
1779201643.6597688,3.926661968231201,hold-xy,14000,21.36263065537499,0.0011923434,0.0007109289,0.0,0.005939901,0.0003112331,0.03735405,0.009779993444681168,-0.016019511967897415,-0.6162789463996887,-0.7873042821884155,76.11026518076314,0.004852294921875,95,0.00017250329,-0.00014432892,0.0002249182593479326,0.0003910895,-0.0004528176,0.0005983266607139366,9.8698554e-05,0.00020210596,-0.00034569434,-0.0004883546,4.059237480163574,104.06395721435547
1779201643.784815,4.051708221435547,hold-xy,14000,21.36263065537499,0.00022976576,0.00030367932,0.0,0.0058279056,0.00038585067,0.03717094,0.012578490190207958,-0.01674821600317955,-0.6165183782577515,-0.787061870098114,76.14537621395628,0.017802715301513672,96,6.0508028e-05,-6.971136e-05,9.230869461007776e-05,-2.5968213e-05,-0.000117274714,0.00012011538677832681,5.3194002e-05,7.5440665e-05,-0.0001200811,-2.869805e-06,4.048680305480957,103.98826599121094
1779201643.8254673,4.092360496520996,hold-xy,14000,21.36263065537499,0.00085251837,0.0005279108,0.0,0.005881747,0.00034509972,0.037343733,0.009347775019705296,-0.014163590036332607,-0.6162806749343872,-0.7873438000679016,76.10564317476982,0.0073893070220947266,97,0.00011434965,-0.00011046231,0.0001589898232028042,0.0002981303,-0.00032149546,0.00043845296618954654,7.977114e-05,0.00013752938,-0.0002404978,-0.00036660852,4.053958892822266,103.92102813720703
1779201643.9090478,4.175940990447998,hold-xy,14000,21.36263065537499,0.0026015243,0.00095880614,0.0,0.0060944986,0.00022569671,0.03735052,0.0063228909857571125,-0.012894578278064728,-0.6161642074584961,-0.7874867916107178,76.0871499206879,0.018913745880126953,98,0.00032710098,-0.00022986531,0.0003997913467806476,0.0010944655,-0.0007221723,0.0013112542403732857,0.00014447162,0.00037277484,-0.0004378261,-0.001236,4.048680305480957,103.85209655761719
1779201643.9907737,4.257666826248169,hold-xy,14000,21.36263065537499,0.0022959092,0.00081499445,0.0,0.0061121266,0.00021927617,0.037435316,0.004321631975471973,-0.009806505404412746,-0.6160241961479187,-0.7876543402671814,76.06104207332407,0.019736528396606445,99,0.00034472905,-0.00023628585,0.00041793433835329657,0.00083149323,-0.0005293289,0.0009856824990359142,0.00014628682,0.0003914962,-0.00031344494,-0.0009345172,4.048680305480957,103.85209655761719
1779201644.0961733,4.3630664348602295,hold-xy,14000,21.36263065537499,0.001185996,0.00041552272,0.0,0.0060010143,0.00029504672,0.03731161,0.006973837967962027,-0.010474556125700474,-0.6161084175109863,-0.7875608801841736,76.07348921218174,0.01025080680847168,100,0.00023361668,-0.00016051531,0.00028344650250739986,0.00029189754,-0.00017267063,0.0003391449815550673,9.9570796e-05,0.00026538194,-9.734193e-05,-0.00032487515,4.053958892822266,103.78167724609375
1779201644.1789644,4.445857524871826,hold-xy,14000,21.36263065537499,0.0009812668,0.0002696723,0.0,0.00599372,0.00031123497,0.037277635,0.008210829459130764,-0.011453786864876747,-0.6163386702537537,-0.7873551249504089,76.1083782401366,0.020782947540283203,101,0.00022632256,-0.00014432706,0.0002684254131535903,0.00017404502,-5.3660115e-05,0.00018212928526793138,8.576883e-05,0.00025435392,-1.03048515e-05,-0.00018183753,4.048680305480957,103.75309753417969
1779201644.2448673,4.511760473251343,hold-xy,14000,21.36263065537499,0.002175185,0.0009380992,0.0,0.0061398167,0.00017968565,0.0374281,0.0038246128242462873,-0.01073291152715683,-0.6162524223327637,-0.787466287612915,76.09624493351829,0.0022072792053222656,102,0.00037241913,-0.00027587637,0.0004634692832795976,0.0006406489,-0.0005047193,0.0008155811379391738,0.00017830418,0.0004277983,-0.00033598885,-0.0007431582,4.053958892822266,103.77951049804688
1779201644.3471124,4.6140055656433105,hold-xy,15000,22.888532845044633,0.0010083943,0.0002427006,0.0,0.0060337316,0.0002913922,0.037294917,0.007932654581964016,-0.012483015656471252,-0.6162716150283813,-0.7873947620391846,76.10100384200594,0.012775182723999023,103,0.00026633404,-0.00016416982,0.00031286667109917625,0.00010130645,1.2239616e-05,0.00010204314750349401,9.538667e-05,0.00029797136,3.6216177e-05,-9.540017e-05,4.048680305480957,103.70806121826172
1779201644.448412,4.7153050899505615,hold-xy,16000,24.414435034714273,0.0013189642,0.00046424035,0.0,0.0060760565,0.000249058,0.03742637,0.004785681143403053,-0.010177346877753735,-0.6163879036903381,-0.7873623371124268,76.11449573869567,0.01759958267211914,104,0.00030865893,-0.00020650402,0.0003713680678310099,0.0002025284,-0.00012307512,0.00023699207021894592,0.00012639667,0.00034919637,-7.087526e-05,-0.00022614583,4.043401718139648,103.66504669189453
1779201644.5302436,4.7971367835998535,hold-xy,16000,24.414435034714273,0.0015868198,0.000432915,0.0,0.0061253384,0.00023763627,0.0374065,0.004621948581188917,-0.010420195758342743,-0.6162076592445374,-0.7875012159347534,76.08879686404855,0.007148265838623047,105,0.0003579408,-0.00021792576,0.00041906234851198023,0.00030197878,-0.00012328317,0.000326174675744037,0.00012547855,0.00039983547,-4.7066133e-05,-0.00032276107,4.032844543457031,103.66261291503906
1779201644.633454,4.9003472328186035,hold-xy,16000,24.414435034714273,0.0010766529,0.00015731111,0.0,0.006079098,0.00028757378,0.03737018,0.005266148131340742,-0.010997921228408813,-0.6162136197090149,-0.7874846458435059,76.09057004875501,0.01864147186279297,106,0.00031170063,-0.00016798824,0.0003540866084714351,6.0137143e-05,7.7043536e-05,9.773527021780698e-05,8.813329e-05,0.00034294295,8.9240624e-05,-3.985341e-05,4.032844543457031,103.62345123291016
1779201644.7169468,4.983839988708496,hold-xy,17000,25.940337224383917,0.0021173337,0.0010077769,0.0,0.006191373,0.00014567934,0.03744204,0.0027924678288400173,-0.009797302074730396,-0.6164701581001282,-0.787312388420105,76.12645558442482,0.019895076751708984,107,0.0004239753,-0.0003098827,0.000525149813627464,0.00045166246,-0.00046368592,0.0006473048835370315,0.00019918186,0.0004859104,-0.0003418594,-0.00054966874,4.032844543457031,103.5422592163086
1779201644.7776117,5.044504880905151,hold-xy,17000,25.940337224383917,0.0014734869,0.0008148684,0.0,0.006139852,0.00016728789,0.037461158,0.0032140344846993685,-0.008846905082464218,-0.6164435744285583,-0.7873427867889404,76.12074744732709,0.009703636169433594,108,0.00037245452,-0.00028827414,0.00047098232545160376,9.802895e-05,-0.0002330913,0.00025286603014300216,0.00019051442,0.00043073032,-0.00020277097,-0.00015107996,4.032844543457031,103.5422592163086
1779201644.8586361,5.1255292892456055,hold-xy,17000,25.940337224383917,0.0015185295,0.00080752623,0.0,0.006150907,0.00015536696,0.037439078,0.003201564308255911,-0.009553252719342709,-0.616510272026062,-0.787282407283783,76.1317047270298,0.007529735565185547,109,0.00038350932,-0.00030019507,0.00048702820659358585,0.00010848213,-0.00020614889,0.0002329500736059409,0.00019952048,0.00044428377,-0.00017413733,-0.0001547318,4.027565956115723,103.45710754394531
1779201644.9399807,5.206873893737793,hold-xy,17000,25.940337224383917,0.0015150906,0.0010009037,0.0,0.0061496124,0.0001229588,0.03748621,0.0026585443411022425,-0.008849529549479485,-0.6165804266929626,-0.7872377038002014,76.14084315936607,0.017607927322387695,110,0.00038221478,-0.00033260323,0.0005066685948701824,7.048806e-05,-0.0002807282,0.00028944238896741177,0.0002313661,0.000450758,-0.0002556711,-0.00013568049,4.022287368774414,103.4670181274414
1779201645.0218015,5.288694620132446,hold-xy,18000,27.466239414053558,0.0010637157,0.00016136722,0.0,0.006118875,0.0002419632,0.037393913,0.004719545133411884,-0.011078786104917526,-0.6162073016166687,-0.7874919176101685,76.09004383222306,0.007149219512939453,111,0.0003514774,-0.00021359883,0.0004112916575470424,-5.0585408e-05,0.000190373,0.0001969790940456719,0.00012284095,0.0003925187,0.00017262969,9.486702e-05,4.0170087814331055,103.4177017211914
1779201645.0824344,5.349327564239502,hold-xy,18000,27.466239414053558,0.0017204811,0.0010593821,0.0,0.0061643124,0.00013387762,0.037467062,0.0029518287628889084,-0.009441236034035683,-0.6163381338119507,-0.7874194383621216,76.1065260143037,0.006636857986450195,112,0.00039691478,-0.0003216844,0.0005109033118715382,0.00018752164,-0.00039704412,0.00043909953354179904,0.00021696699,0.00046254462,-0.0003404009,-0.00027737272,4.0170087814331055,103.4177017211914
1779201645.1847377,5.4516308307647705,hold-xy,18000,27.466239414053558,0.0013411217,0.0005033915,0.0,0.006139973,0.00020457059,0.037413377,0.0036880008410662413,-0.009187867864966393,-0.616108775138855,-0.7875988483428955,76.07245718037461,0.016429662704467773,113,0.0003725756,-0.00025099143,0.0004492318841389098,5.2336174e-05,-4.8682283e-05,7.147754792829977e-05,0.00015393554,0.00042203453,-3.4654033e-05,-6.25151e-05,4.0170087814331055,103.4063491821289
1779201645.266264,5.533157110214233,hold-xy,18000,27.466239414053558,0.0018657972,0.0010704636,0.0,0.006196726,0.00010424666,0.03747253,0.0019901993218809366,-0.009213662706315517,-0.6162900924682617,-0.7874628901481628,76.09942372217846,0.0059413909912109375,114,0.00042932853,-0.00035131536,0.0005547481108066262,0.00022166998,-0.0003611691,0.0004237696419212212,0.00023788583,0.0005011545,-0.0002973384,-0.00030194464,4.0170087814331055,103.3922119140625
1779201645.3686397,5.635532855987549,hold-xy,18000,27.466239414053558,0.0014975207,0.00046652195,0.0,0.006176356,0.00018796138,0.0374616,0.0043218317441642284,-0.013008329086005688,-0.6162605881690979,-0.7874231338500977,76.10240256236581,0.005681276321411133,115,0.00040895864,-0.00026760064,0.000488730261173401,9.562871e-05,-8.123985e-06,9.59731679816272e-05,0.00016154037,0.0004612613,1.5082637e-05,-9.478061e-05,4.0170087814331055,103.32169342041016
1779201645.450766,5.71765923500061,hold-xy,19000,28.9921416037232,0.0011891292,0.0005164708,0.0,0.006138785,0.0001910273,0.03742243,0.0037248542066663504,-0.01023989450186491,-0.6162790060043335,-0.7874525189399719,76.09916283393945,0.0054666996002197266,116,0.00037138723,-0.00026453473,0.0004559682864193076,-6.994712e-05,5.4835236e-06,7.01617309867381e-05,0.0001675644,0.0004240628,-1.1481325e-05,6.921595e-05,4.0170087814331055,103.28789520263672
1779201645.5737548,5.84064793586731,hold-xy,19000,28.9921416037232,0.0005972077,0.00029413478,0.0,0.006050883,0.00024895556,0.037370134,0.005062798969447613,-0.0088154012337327,-0.6163240075111389,-0.7874270677566528,76.1026793716035,0.016486406326293945,117,0.00028348528,-0.00020660646,0.0003507850374799176,-0.00028447984,0.00015904642,0.000325921075385448,0.00013247039,0.0003248103,8.606365e-05,0.00031435268,4.006451606750488,103.33488464355469
1779201645.6550806,5.921973705291748,hold-xy,19000,28.9921416037232,0.0016562057,0.0004927786,0.0,0.0061779674,0.00019251741,0.037413232,0.003688785247504711,-0.01094016619026661,-0.6163062453269958,-0.7874220609664917,76.10456143001953,0.005694150924682617,118,0.00041056983,-0.0002630446,0.0004876064479619399,0.00021473932,-7.246915e-05,0.0002266379364266583,0.00015674811,0.0004617251,-1.877857e-05,-0.00022585863,4.006451606750488,103.3313980102539
1779201645.7401109,6.007004022598267,hold-xy,20000,30.518043793392845,-0.00013927743,-0.00015916256,0.0,0.005972879,0.00033356063,0.03729598,0.008313355967402458,-0.01116082351654768,-0.6165684461593628,-0.7871782779693604,76.14117953737163,0.00813150405883789,119,0.00020548142,-0.000122001395,0.0002389706166221859,-0.0005946191,0.00046157875,0.0007527461692110973,6.923077e-05,0.00022872267,0.0003057124,0.0006878711,4.006451606750488,103.35079193115234
1779201645.8451624,6.112055540084839,hold-xy,20000,30.518043793392845,0.0001593827,-5.367212e-06,0.0,0.0059789717,0.00032500923,0.03731283,0.008042256347835064,-0.011180018074810505,-0.6162938475608826,-0.7873958349227905,76.1013733156376,0.00754547119140625,120,0.00021157414,-0.0001305528,0.00024861145208116497,-0.00039893066,0.00029881997,0.0004984366064658408,7.590938e-05,0.00023673913,0.00019424612,0.00045902887,4.00117301940918,103.34639739990234
1779201645.906091,6.1729841232299805,hold-xy,20000,30.518043793392845,0.0017145752,0.0006502669,0.0,0.006115947,0.00022260658,0.03743789,0.003822636790573597,-0.009186578914523125,-0.6161202192306519,-0.7875893115997314,76.07407583350133,0.006613731384277344,121,0.00034854934,-0.00023295544,0.00041923129334350514,0.00038502828,-0.0002874415,0.0004804887132853639,0.00014222394,0.00039436942,-0.00018632924,-0.00044288917,3.995894432067871,103.30130004882812
1779201645.9871182,6.254011392593384,hold-xy,20000,30.518043793392845,0.0009304828,0.00045738005,0.0,0.0060434975,0.00025694817,0.037355445,0.006619811523705721,-0.011222544126212597,-0.6163108944892883,-0.787395179271698,76.10460601507062,0.01484990119934082,122,0.0002760999,-0.00019861385,0.00034011559344970354,-2.9072136e-05,-5.9674203e-05,6.63792124797149e-05,0.00012649619,0.0003157172,-6.490956e-05,1.3890604e-05,3.995894432067871,103.30130004882812
1779201646.048749,6.3156421184539795,hold-xy,20000,30.518043793392845,0.0006748858,-5.2441756e-05,0.0,0.006026402,0.00032411516,0.037323218,0.007611889857798815,-0.010950060561299324,-0.6163620948791504,-0.7873499393463135,76.11104961864787,0.003949403762817383,123,0.00025900453,-0.00013144687,0.0002904507369075329,-9.105946e-05,0.00023604077,0.0002529961819675886,6.5432054e-05,0.00028298458,0.0002072816,0.00014505656,3.995894432067871,103.28217315673828
1779201646.1320937,6.39898681640625,hold-xy,20000,30.518043793392845,0.0023304033,0.0008827343,0.0,0.0062079374,0.000159977,0.03748111,0.002534253755584359,-0.010744821280241013,-0.6163222789764404,-0.7874166369438171,76.10690580349664,0.006125211715698242,124,0.0004405398,-0.00029558502,0.0005305146624781629,0.0006072122,-0.00044142563,0.0007507084781741036,0.00018115934,0.0004986252,-0.00028271356,-0.00069543964,3.995894432067871,103.18267059326172
1779201646.213849,6.4807422161102295,hold-xy,20000,30.518043793392845,-0.00046179944,-3.380931e-05,0.0,0.00589969,0.0003501419,0.037264988,0.009591720066964626,-0.011890134774148464,-0.6161034107208252,-0.7875171303749084,76.07434176282013,0.005499839782714844,125,0.00013229251,-0.00010542013,0.00016915883246524505,-0.00069747295,0.0003835116,0.0007959583463694494,7.048383e-05,0.00015377498,0.00020438399,0.0007692703,3.995894432067871,103.18286895751953
1779201646.3159733,6.582866430282593,hold-xy,20000,30.518043793392845,0.0008286343,7.571145e-05,0.0,0.006049445,0.00030738488,0.037401445,0.005755043588578701,-0.009805750101804733,-0.6163036823272705,-0.7874264717102051,76.1011680666233,0.005115032196044922,126,0.00028204732,-0.00014817715,0.0003186018748873154,-4.9962866e-05,0.0001433266,0.00015178538422875752,7.608863e-05,0.00030938274,0.0001271287,8.292825e-05,3.995894432067871,103.24140930175781
1779201646.417544,6.684437036514282,hold-xy,20000,30.518043793392845,0.00031505493,-5.0320814e-06,0.0,0.005977407,0.00034410506,0.037298303,0.008293424732983112,-0.011130903847515583,-0.6163666844367981,-0.7873370051383972,76.11175704207004,0.014397621154785156,127,0.00021000952,-0.00011145696,0.00023775333488947138,-0.00026914678,0.00021969466,0.0003474273092099356,5.7790265e-05,0.00023062293,0.00014866906,0.00031401153,3.995894432067871,103.22409057617188
1779201646.501363,6.768256187438965,hold-xy,21000,32.043945983062486,0.0020436049,0.0007036914,0.0,0.006181663,0.0001957696,0.0374489,0.00337949744425714,-0.010309295728802681,-0.6162319183349609,-0.7874900102615356,76.0925705728793,0.006053924560546875,128,0.00041426532,-0.00025979243,0.0004889865666852911,0.00047647193,-0.0003290617,0.0005790570839950508,0.0001526064,0.00046456337,-0.00020489347,-0.00054159557,3.985337257385254,103.17633819580078
1779201646.6032724,6.870165586471558,hold-xy,21000,32.043945983062486,0.0016149671,0.00040038003,0.0,0.006155368,0.0002385322,0.0374425,0.003677756292745471,-0.009692267514765263,-0.6162624359130859,-0.7874726057052612,76.09572647578884,0.005861043930053711,129,0.00038797036,-0.00021702982,0.000444548031903199,0.0002562697,-0.000104696795,0.00027683133270171135,0.000117441086,0.00042875463,-4.00473e-05,-0.00027391932,3.985337257385254,103.12142944335938
1779201646.684823,6.951716184616089,hold-xy,21000,32.043945983062486,0.001008507,3.4762867e-05,0.0,0.0060999114,0.00030142628,0.037408624,0.0056004710495471954,-0.01128536555916071,-0.6163762211799622,-0.7873511910438538,76.11469860754076,0.004953145980834961,130,0.00033251382,-0.00015413575,0.00036650139495620444,-2.2372842e-05,0.0001555331,0.00015713398195510433,6.983526e-05,0.00035978647,0.0001456191,5.9043745e-05,3.985337257385254,103.12142944335938
1779201646.7868488,7.053741931915283,hold-xy,21000,32.043945983062486,0.0020937193,0.00091855135,0.0,0.006220063,0.00014792942,0.03745573,0.0023669747170060873,-0.0102318674325943,-0.6161379218101501,-0.7875683903694153,76.07909015872042,0.01534414291381836,131,0.0004526656,-0.0003076326,0.0005473061157007527,0.00037770002,-0.0003936552,0.0005455471921012327,0.00018969373,0.0005133812,-0.00029122515,-0.00046131294,3.985337257385254,103.03611755371094
1779201646.8901014,7.156994581222534,hold-xy,21000,32.043945983062486,0.0012365334,0.00027281183,0.0,0.006137209,0.00025395676,0.037440646,0.004444149788469076,-0.010836717672646046,-0.6162672638893127,-0.7874500155448914,76.09837917812804,0.016423940658569336,132,0.00036981143,-0.00020160526,0.0004211949307217381,2.1113505e-05,3.5758945e-05,4.152688555244846e-05,0.00010685095,0.00040741632,3.9784187e-05,-1.19037995e-05,3.985337257385254,103.05291748046875
1779201647.0260205,7.2929136753082275,hold-xy,21000,32.043945983062486,0.0006013169,0.00010408891,0.0,0.0060319286,0.00031500123,0.037344795,0.007442915346473455,-0.011275365017354488,-0.6164653301239014,-0.7872661352157593,76.12681646334242,0.002246379852294922,133,0.000264531,-0.00014056079,0.0002995563174960464,-0.00019564583,0.00014704159,0.0002447417376449584,7.30329e-05,0.0002905171,9.584149e-05,0.00022519531,3.985337257385254,103.11579895019531
1779201647.1077514,7.37464451789856,hold-xy,22000,33.56984817273213,0.0014508751,0.00044121844,0.0,0.0061146542,0.00025629066,0.037458617,0.004925417248159647,-0.011769548989832401,-0.6164654493331909,-0.7872785925865173,76.12902706269689,0.01396322250366211,134,0.00034725666,-0.00019927137,0.0004003701623831466,0.00021751558,-0.00014863737,0.00026345037226419113,0.00011021023,0.00038490255,-9.215645e-05,-0.00024680616,3.9747800827026367,103.12828826904297
1779201647.1691127,7.4360058307647705,hold-xy,22000,33.56984817273213,0.0010255895,0.00024255904,0.0,0.006078953,0.0002863072,0.037413616,0.0066385092213749886,-0.012426920235157013,-0.616445004940033,-0.7872719168663025,76.12676256046532,0.0038690567016601562,135,0.00031155534,-0.00016925484,0.0003545616149760749,2.3718167e-06,2.1975786e-05,2.2103407800412933e-05,8.9614376e-05,0.00034304985,2.1903423e-05,2.9666078e-06,3.9747800827026367,103.12828826904297
1779201647.2921076,7.559000730514526,hold-xy,22000,33.56984817273213,0.00077495794,0.00033033534,0.0,0.006036585,0.00028356165,0.037341684,0.0072038425132632256,-0.011577031575143337,-0.6165415644645691,-0.7872043251991272,76.13866115581538,0.014964818954467773,136,0.0002691876,-0.00017200038,0.00031944655475804807,-0.00011192701,8.022298e-06,0.0001122141379943806,0.00010250137,0.0003025551,-1.9026014e-05,0.00011058943,3.9747800827026367,103.0174331665039
1779201647.374066,7.6409592628479,hold-xy,22000,33.56984817273213,-0.00088905543,-0.00045054467,0.0,0.005836893,0.00044126436,0.037322227,0.010897268541157246,-0.013587226159870625,-0.616446316242218,-0.7872043251991272,76.12738275171762,0.014250755310058594,137,6.949529e-05,-1.4297664e-05,7.095081772153715e-05,-0.0008029868,0.0005778828,0.0009893110493713819,-2.7818578e-06,7.089626e-05,0.00036849923,0.00091812015,3.9747800827026367,103.01414489746094
1779201647.4565172,7.723410367965698,hold-xy,22000,33.56984817273213,-8.086671e-05,-1.3096898e-05,0.0,0.005893305,0.00038200617,0.03731189,0.009307998232543468,-0.011090737767517567,-0.61626136302948,-0.7874085903167725,76.09584170254844,0.004990100860595703,138,0.00012590736,-7.355586e-05,0.0001458188135006618,-0.00037756015,0.00021067739,0.00043236169061065745,4.1145253e-05,0.00013989353,0.00011377721,0.00041712273,3.9747800827026367,102.99714660644531
1779201647.5643926,7.831285715103149,hold-xy,22000,33.56984817273213,0.00069219136,1.276892e-05,0.0,0.0059846826,0.00036179274,0.03736063,0.007518362253904343,-0.009757781401276588,-0.616536557674408,-0.7872299551963806,76.13425594101142,0.0144500732421875,139,0.000217285,-9.376928e-05,0.00023665471577013643,1.4254794e-05,8.58575e-05,8.703280845937272e-05,3.8965005e-05,0.0002334249,8.677174e-05,6.736137e-06,3.9747800827026367,102.94857025146484
1779201647.6486635,7.9155566692352295,hold-xy,23000,35.09575036240177,-0.000573392,-0.0002596221,0.0,0.005828589,0.00044247136,0.037300453,0.011175516992807388,-0.01415654644370079,-0.6164729595184326,-0.7871695160865784,76.13250568443189,0.017281293869018555,140,6.119162e-05,-1.309067e-05,6.257619116318793e-05,-0.00056502374,0.00035729652,0.0006685152372720303,-1.957129e-06,6.254558e-05,0.00021145892,0.0006341906,3.9747800827026367,103.01422882080078
1779201647.7792165,8.046109676361084,hold-xy,23000,35.09575036240177,7.9071295e-05,0.00015927349,0.0,0.0058889277,0.00036295876,0.037335776,0.010655352845788002,-0.015307003632187843,-0.6165258884429932,-0.7871137261390686,76.143610028881,0.0017120838165283203,141,0.000121530145,-9.2603266e-05,0.00015279051665443975,-0.00027163702,8.686216e-05,0.0002851871417413332,6.080328e-05,0.00014017097,1.9280276e-05,0.00028453468,3.9642229080200195,103.06150817871094
1779201647.8402371,8.107130289077759,hold-xy,23000,35.09575036240177,0.0013622652,8.038346e-05,0.0,0.0060089957,0.00034238026,0.03733618,0.006931487005203962,-0.010209833271801472,-0.6164332628250122,-0.7873104810714722,76.12028816415392,0.009143352508544922,142,0.00024159811,-0.00011318177,0.00026679535702214276,0.00048200996,-5.4397595e-05,0.00048506979153003105,5.1921434e-05,0.00026169434,6.281736e-05,-0.00048098512,3.9642229080200195,102.98905181884766
1779201647.9248881,8.191781282424927,hold-xy,23000,35.09575036240177,0.0018752869,0.00022726788,0.0,0.006096039,0.00030342862,0.037413087,0.0051350779831409454,-0.009993184357881546,-0.6165240406990051,-0.7872558832168579,76.13382982813299,0.010312795639038086,143,0.00032864138,-0.0001521334,0.0003621460104040279,0.0006502064,-0.00017805526,0.0006741454280857515,6.893946e-05,0.00035552366,-1.7041268e-05,-0.00067393,3.9642229080200195,102.9510269165039
1779201648.0122492,8.279142379760742,hold-xy,23000,35.09575036240177,0.0008609253,6.146652e-05,0.0,0.005990302,0.00035401992,0.037349764,0.007276868913322687,-0.010562766343355179,-0.6166132092475891,-0.7871617674827576,76.1470021593906,0.0009930133819580078,144,0.00022290461,-0.0001015421,0.0002449433858455097,0.00012704407,3.234575e-05,0.0001310970727795981,4.5218156e-05,0.00024073343,6.182329e-05,-0.000115604176,3.9642229080200195,102.94227600097656
1779201648.0739644,8.34085750579834,hold-xy,23000,35.09575036240177,0.0026066564,0.00081573485,0.0,0.006166104,0.0002254583,0.037450064,0.0033872330095618963,-0.009377759881317616,-0.6163602471351624,-0.7874011397361755,76.10948752034845,0.0013675689697265625,145,0.00039870664,-0.00023010373,0.0004603419487512552,0.0009487307,-0.0006061179,0.0011258191953120056,0.0001276582,0.00044228733,-0.0003606335,-0.0010664953,3.9642229080200195,102.94227600097656
1779201648.176067,8.442960262298584,hold-xy,23000,35.09575036240177,0.0023822547,0.0007583697,0.0,0.0061858427,0.00020997785,0.037474293,0.0028560576029121876,-0.009032640606164932,-0.6164661049842834,-0.7873244285583496,76.12445666782462,0.013066768646240234,146,0.0004184451,-0.00024558417,0.00048518851577846443,0.0007296126,-0.00047565365,0.0008709655208497708,0.0001380689,0.00046512886,-0.00028680247,-0.00082239,3.958944320678711,102.90965270996094
1779201648.2372813,8.50417447090149,hold-xy,23000,35.09575036240177,0.0015585325,0.0002439512,0.0,0.0061342604,0.00027552433,0.037401866,0.004685354419052601,-0.009672694839537144,-0.6164507865905762,-0.787320077419281,76.12274551209914,0.002564668655395508,147,0.00036686286,-0.00018003769,0.00040865869467113366,0.00029495265,-5.8766833e-05,0.00030075008284848466,8.679335e-05,0.0003993355,1.36906965e-05,-0.0003004383,3.958944320678711,102.89701080322266
1779201648.343406,8.610299110412598,hold-xy,23000,35.09575036240177,0.001840726,0.00043137706,0.0,0.0061828215,0.00023637153,0.037456453,0.0035908850841224194,-0.00901740975677967,-0.6165464520454407,-0.7872586846351624,76.13589285482672,0.016534090042114258,148,0.00041542388,-0.0002191905,0.0004697036013172904,0.0003645513,-0.00016859392,0.00040164854247550755,0.00011326095,0.00045584366,-7.63285e-05,-0.0003943292,3.958944320678711,102.88970947265625
1779201648.429023,8.695916175842285,hold-xy,23000,35.09575036240177,0.0011866665,0.00021321488,0.0,0.0061190464,0.00027994998,0.037359927,0.006314905360341072,-0.010273691266775131,-0.6167217493057251,-0.787088930606842,76.16267083727305,0.013825178146362305,149,0.00035164878,-0.00017561205,0.00039306036131262417,3.8573155e-05,2.999886e-05,4.88653245335967e-05,8.6413085e-05,0.0003834439,3.8353646e-05,-3.0279001e-05,3.958944320678711,102.89998626708984
1779201648.5314758,8.79836893081665,hold-xy,24000,36.62165255207141,0.0021015117,0.0006835941,0.0,0.006241113,0.00017696992,0.037461385,0.0025551398284733295,-0.009423110634088516,-0.6165198683738708,-0.7872787714004517,76.13307128223538,0.012362003326416016,150,0.00047371536,-0.0002785921,0.0005495633064658135,0.00037940126,-0.00027629902,0.00046934685084847,0.00015693827,0.00052667846,-0.00017731605,-0.00043456355,3.9483871459960938,102.92918395996094
1779201648.6179888,8.884881973266602,hold-xy,24000,36.62165255207141,0.0010072064,-6.928868e-05,0.0,0.006139802,0.00029847026,0.03742494,0.004443841520696878,-0.008632304146885872,-0.6165934205055237,-0.7872219681739807,76.14181084999692,0.016251802444458008,151,0.00037240423,-0.00015709177,0.0004041815530052276,-0.00010227374,0.00024775113,0.000268030867544295,6.332094e-05,0.00039919067,0.00021604291,0.00015863797,3.9536657333374023,102.87499237060547
1779201648.7409437,9.007836818695068,hold-xy,24000,36.62165255207141,0.0015983268,0.00010100052,0.0,0.006226696,0.0002603773,0.03744497,0.003571469336748123,-0.009563314728438854,-0.6166152954101562,-0.7871984839439392,76.14688842318095,0.006469011306762695,152,0.0004592985,-0.00019518472,0.0004990512921561526,0.0001247979,8.733199e-05,0.00015232002833056793,7.953586e-05,0.00049267255,0.00011467255,-0.00010025766,3.9483871459960938,102.84664916992188
1779201648.802106,9.06899905204773,hold-xy,24000,36.62165255207141,0.0012034868,-6.382454e-05,0.0,0.0061931387,0.0002924055,0.037451196,0.003778796410188079,-0.008608387783169746,-0.6164390444755554,-0.7873465418815613,76.11951581064893,0.006740570068359375,153,0.00042574108,-0.00016315654,0.0004559336749044068,-7.7974255e-05,0.00021893086,0.000232402033643384,5.6257908e-05,0.00045244955,0.00019383187,0.0001282182,3.9483871459960938,102.86601257324219
1779201648.9043705,9.171263694763184,hold-xy,24000,36.62165255207141,0.0011153889,-0.000113955444,0.0,0.0061776415,0.00031514093,0.037439164,0.00486510805785656,-0.009830988943576813,-0.6165424585342407,-0.7872452735900879,76.1363135780033,0.007627964019775391,154,0.00041024387,-0.00014042109,0.00043361056281425724,-0.000100442,0.00022053134,0.0002423276002461544,3.8030754e-05,0.00043193952,0.00019003975,0.0001503581,3.9483871459960938,102.81366729736328
1779201648.9996033,9.266496419906616,hold-xy,24000,36.62165255207141,0.001263674,7.8233075e-05,0.0,0.0061856657,0.00029661693,0.037424043,0.004527125507593155,-0.009142703376710415,-0.6165816783905029,-0.7872248291969299,76.14092058521253,0.026262760162353516,155,0.00041826814,-0.0001589451,0.0004474503175829023,-3.888188e-05,8.1821636e-05,9.059018264901887e-05,5.412812e-05,0.0004441643,7.0126065e-05,5.734906e-05,3.9483871459960938,102.81366729736328
1779201649.0857534,9.352646589279175,hold-xy,25000,38.147554741741054,0.0007896499,7.4758704e-05,0.0,0.0061129928,0.00031911582,0.03737082,0.006610472686588764,-0.009904083795845509,-0.6166646480560303,-0.787135899066925,76.15354801753186,0.009941577911376953,156,0.00034559518,-0.00013644621,0.00037155563977131994,-0.00023997815,0.00012314398,0.00026972941209440696,4.9773073e-05,0.0003682068,6.213375e-05,0.00026247543,3.9536657333374023,102.77305603027344
1779201649.167503,9.434396266937256,hold-xy,25000,38.147554741741054,0.0011693866,-8.6476626e-05,0.0,0.006152954,0.00033282302,0.037369553,0.0072919814847409725,-0.0123478714376688,-0.6166572570800781,-0.7871012091636658,76.15716557864347,0.02012801170349121,157,0.00038555637,-0.000122739,0.00040462151152872023,-4.6355126e-07,0.0001436627,0.00014366345442153622,2.6926144e-05,0.0004037246,0.0001393792,3.482274e-05,3.943108558654785,102.72561645507812
1779201649.2327595,9.499652624130249,hold-xy,25000,38.147554741741054,0.0017375083,0.00031402925,0.0,0.006211458,0.00027223304,0.0373864,0.00557318888604641,-0.01053232979029417,-0.6168798208236694,-0.7869671583175659,76.18649310150914,0.010295629501342773,158,0.0004440602,-0.00018332899,0.0004804154187769748,0.00023341426,-0.00014150963,0.0002729600678359389,7.200188e-05,0.00047498918,-8.168635e-05,-0.00026045064,3.9378299713134766,102.68081665039062
1779201649.3198345,9.586727619171143,hold-xy,25000,38.147554741741054,0.00041614825,-0.0005559141,0.0,0.006066937,0.0004339423,0.037327666,0.009823035448789597,-0.012930097989737988,-0.6167377233505249,-0.7870011925697327,76.16888338569674,0.004082441329956055,159,0.00029953942,-2.1619722e-05,0.00030031861637308684,-0.00030136592,0.00042097463,0.0005177268091493642,-5.0615294e-05,0.0002960226,0.00033672352,0.00039326624,3.943108558654785,102.66275024414062
1779201649.4057665,9.672659635543823,hold-xy,25000,38.147554741741054,0.0014915747,0.00029706402,0.0,0.006162228,0.0003125351,0.037344556,0.007033018860965967,-0.01124098151922226,-0.6169995665550232,-0.7868517637252808,76.20473112108911,0.013161420822143555,160,0.00039483048,-0.00014302693,0.00041993786566658307,0.00016101774,-0.00017923745,0.0002409414385445692,4.4752553e-05,0.00041754643,-0.00013567196,-0.00019911278,3.9378299713134766,102.62283325195312
1779201649.4694347,9.736327886581421,hold-xy,25000,38.147554741741054,0.0023968117,0.0009123012,0.0,0.0062593333,0.00020483509,0.037402913,0.005527901463210583,-0.011952622793614864,-0.617116391658783,-0.7867617011070251,76.22396695148012,0.006852149963378906,161,0.00049193576,-0.00025072694,0.0005521456185502174,0.0005290116,-0.00058718596,0.0007903420905640379,0.00012637122,0.0005374896,-0.00044432294,-0.00065361895,3.9378299713134766,102.62283325195312
1779201649.594475,9.861368179321289,hold-xy,26000,39.6734569314107,0.00059432915,0.00021208255,0.0,0.0060241614,0.00035640225,0.037285086,0.009314107708632946,-0.009818673133850098,-0.6172413229942322,-0.7866575121879578,76.23619830728296,0.008811712265014648,162,0.00025676377,-9.915978e-05,0.0002752458856930148,-0.00020290591,-4.159662e-05,0.00020712577181721523,3.522318e-05,0.00027298284,-8.867751e-05,0.00018718277,3.9378299713134766,102.5600357055664
1779201649.663934,9.930827140808105,hold-xy,26000,39.6734569314107,0.0012647071,0.00037326256,0.0,0.0060893297,0.00031660683,0.037332237,0.008318073116242886,-0.010909128934144974,-0.6175886392593384,-0.7863816022872925,76.28929099393248,0.010237932205200195,163,0.00032193214,-0.00013895519,0.0003506406244966165,0.00014533503,-0.00020460115,0.00025096593546044724,5.869136e-05,0.00034569373,-0.00016432373,-0.00018968819,3.9272727966308594,102.5228500366211
1779201649.7661717,10.033064842224121,hold-xy,26000,39.6734569314107,0.0031275325,0.0016754095,0.0,0.006316021,5.727634e-05,0.037491675,0.003806372871622443,-0.010683409869670868,-0.6178086996078491,-0.786246657371521,76.32281745750258,0.019180774688720703,164,0.0005486235,-0.0003982857,0.0006779522326733407,0.00083068584,-0.0009771269,0.0012825037772115158,0.00025726896,0.00062724156,-0.0007530022,-0.0010381732,3.9272727966308594,102.5398941040039
1779201649.8474822,10.114375352859497,hold-xy,26000,39.6734569314107,0.0010050873,2.7425544e-05,0.0,0.0061172377,0.0003106892,0.03730526,0.008146388456225395,-0.01040482148528099,-0.617728590965271,-0.7862803339958191,76.30880034874181,0.008421659469604492,165,0.00034984015,-0.00014487281,0.0003786505896990704,-6.62363e-05,0.00014173263,0.00015644610980800603,5.795304e-05,0.0003741894,0.000122027974,9.7900775e-05,3.9272727966308594,102.60250854492188
1779201649.9489532,10.215846300125122,hold-xy,27000,41.19935912108034,0.00047103871,-7.192415e-06,0.0,0.0060390756,0.00034159794,0.0372421,0.00975753366947174,-0.012140774168074131,-0.61795574426651,-0.7860585451126099,76.34463879580471,0.016089677810668945,166,0.00027167797,-0.00011396408,0.00029461285033048433,-0.00029634326,0.00019806498,0.0003564394237816439,4.6604648e-05,0.00029090332,0.0001225053,0.00033472604,3.916715621948242,102.66706848144531
1779201650.0328135,10.29970669746399,hold-xy,27000,41.19935912108034,0.0027620369,0.0014479884,0.0,0.0062963124,6.933138e-05,0.037441168,0.005043879151344299,-0.011928495019674301,-0.6182755827903748,-0.7858546376228333,76.39308107918244,0.007901191711425781,167,0.00052891485,-0.00038623065,0.0006549236857505965,0.0006309302,-0.00074870884,0.000979100548330546,0.0002509579,0.000604934,-0.0005792622,-0.0007893625,3.916715621948242,102.6400146484375
1779201650.1148932,10.381786346435547,hold-xy,27000,41.19935912108034,0.0017652507,0.0010264269,0.0,0.006210029,0.000119620934,0.037394185,0.005227046553045511,-0.009468534961342812,-0.618272066116333,-0.7858896851539612,76.38753056959243,0.009044885635375977,168,0.00044263154,-0.0003359411,0.0005556789605267468,0.00012183041,-0.00033769116,0.0003589957818776251,0.00022232949,0.0005092629,-0.0002995321,-0.000197885,3.916715621948242,102.58119201660156
1779201650.1966174,10.463510513305664,hold-xy,27000,41.19935912108034,0.0014093765,0.0007105596,0.0,0.0061790664,0.00015635416,0.03743329,0.006518620997667313,-0.012419735081493855,-0.6183852553367615,-0.7857498526573181,76.40954111403904,0.007831335067749023,169,0.0004116688,-0.00029920787,0.0005089170368817416,-2.6716312e-05,-0.000103513405,0.00010690550409507786,0.00019409606,0.00047045003,-0.00010689285,1.644652e-06,3.916715621948242,102.58119201660156
1779201650.2818544,10.548747539520264,hold-xy,27000,41.19935912108034,0.0009501527,0.0004599312,0.0,0.006124934,0.00019922666,0.037350107,0.007049846928566694,-0.009658338502049446,-0.618495523929596,-0.7856974005699158,76.41975087437446,0.009992122650146484,170,0.0003575366,-0.00025633536,0.00043993209153641395,-0.0002141804,8.2359256e-05,0.00022946958403012097,0.00016521664,0.00040772994,2.976559e-05,0.00022753088,3.916715621948242,102.48323822021484
1779201650.36912,10.63601303100586,hold-xy,27000,41.19935912108034,0.0011570856,0.0003988084,0.0,0.006144777,0.00020494685,0.037348602,0.006679366808384657,-0.008860956877470016,-0.6182335615158081,-0.7859160900115967,76.38034864188505,0.006157636642456055,171,0.00037737936,-0.00025061518,0.00045301561247309473,-8.4582374e-05,7.648853e-05,0.00011403803655925888,0.00015470438,0.0004257813,5.4420627e-05,0.00010021512,3.916715621948242,102.49349975585938
1779201650.4559486,10.722841739654541,hold-xy,27000,41.19935912108034,0.0005279274,0.00041460324,0.0,0.0060547087,0.00022739172,0.0373335,0.008001891896128654,-0.010410319082438946,-0.6186172962188721,-0.7855827212333679,76.43847462861957,0.006496906280517578,172,0.00028731115,-0.0002281703,0.00036689152872978635,-0.0003716211,0.00013139498,0.00039416607021435293,0.0001544372,0.00033280405,4.0590312e-05,0.00039207056,3.916715621948242,102.45723724365234
1779201650.539199,10.806092262268066,hold-xy,27000,41.19935912108034,0.0034838936,0.0021166268,0.0,0.0063728318,-8.616224e-05,0.037453998,0.0038628934416919947,-0.012461140751838684,-0.6181195974349976,-0.7859758138656616,76.37208084654199,0.006936311721801758,173,0.0006054342,-0.00054172426,0.0008124135385400129,0.0008923302,-0.0010439361,0.0013733374567921272,0.0003838229,0.0007160277,-0.00080429844,-0.0011131755,3.916715621948242,102.4967041015625
1779201650.642476,10.909369230270386,hold-xy,27000,41.19935912108034,0.0021628984,0.0006822951,0.0,0.006282363,0.00010653213,0.0374187,0.005291976500302553,-0.013315834105014801,-0.61819988489151,-0.7858902812004089,76.38526680970077,0.017934560775756836,174,0.0005149655,-0.0003490299,0.0006221023551700823,0.0003305156,-0.00010430196,0.00034658255347547504,0.00021800357,0.0005826541,-2.3570385e-05,-0.00034578014,3.916715621948242,102.46978759765625
1779201650.7240634,10.990956544876099,hold-xy,27000,41.19935912108034,0.0011959485,0.00037998194,0.0,0.006181076,0.00017191656,0.03739583,0.006767209153622389,-0.012834390625357628,-0.6182215213775635,-0.7858699560165405,76.38652229033931,0.017720937728881836,175,0.0004136786,-0.00028364547,0.0005015822052480747,-0.00014010275,0.0001667821,0.0002178188521027066,0.00017830881,0.0004688184,0.0001291204,0.00017542229,3.9114370346069336,102.43196105957031
1779201650.827538,11.094431161880493,hold-xy,28000,42.72526131074998,0.00092592556,0.00032691273,0.0,0.0061349142,0.0001989454,0.037410147,0.006896895822137594,-0.011037833988666534,-0.6184931397438049,-0.7856823801994324,76.42208668443222,0.018337011337280273,176,0.00036751665,-0.00025661662,0.0004482416552549197,-0.00023270908,0.00019558053,0.00030398233263798004,0.00016316366,0.00041749034,0.00013548185,0.00027212116,3.916715621948242,102.4603500366211
1779201650.9097927,11.176685810089111,hold-xy,28000,42.72526131074998,0.0022598102,0.00095860113,0.0,0.006289758,7.4166805e-05,0.03742545,0.0036382731050252914,-0.009237298741936684,-0.6183758974075317,-0.7858197689056396,76.40281525087268,0.007609128952026367,177,0.0005223602,-0.00038139522,0.0006467785447774148,0.00033669284,-0.0002656809,0.0004288920626450234,0.00024790174,0.0005973836,-0.00017907994,-0.00038971627,3.906158447265625,102.52764892578125
1779201651.011553,11.278446197509766,hold-xy,28000,42.72526131074998,0.0021976489,0.0009678875,0.0,0.006298175,6.086938e-05,0.037433963,0.00472102640196681,-0.00882505252957344,-0.6181473135948181,-0.785998523235321,76.36841845035391,0.016073226928710938,178,0.0005307775,-0.00039469264,0.0006614431605094914,0.0002627513,-0.00022873531,0.0003483648726128361,0.00025848218,0.0006088465,-0.00016036748,-0.00030925777,3.906158447265625,102.52198791503906
1779201651.0981636,11.36505675315857,hold-xy,28000,42.72526131074998,0.0013683606,0.00056683837,0.0,0.006205436,0.00013659708,0.03743104,0.006027290131896734,-0.011087513528764248,-0.618290901184082,-0.7858479619026184,76.39306864940424,0.003974199295043945,179,0.00043803826,-0.00031896494,0.000541863593178832,-9.792892e-05,7.0038324e-05,0.00012039700791702342,0.00020695965,0.0005007832,4.50338e-05,0.0001116575,3.906158447265625,102.52198791503906
1779201651.1825402,11.449433326721191,hold-xy,28000,42.72526131074998,-0.00078687875,-0.0008287071,0.0,0.0059678443,0.00038576126,0.03720783,0.012344811111688614,-0.012926156632602215,-0.6180877089500427,-0.7859058976173401,76.36414826795334,0.009765625,180,0.0002004467,-6.9800764e-05,0.00021225226558144896,-0.0009755597,0.001000215,0.0013971924362245263,2.057798e-05,0.0002112524,0.0007420342,0.0011838633,3.906158447265625,102.50419616699219
