wall_time_s,elapsed_s,mode,thrust_raw,thrust_percent,roll_cmd_deg,pitch_cmd_deg,yawrate_cmd_deg_s,mocap_x,mocap_y,mocap_z,mocap_qx,mocap_qy,mocap_qz,mocap_qw,yaw_deg,mocap_age_s,mocap_frame_count,drift_x_m,drift_y_m,horizontal_drift_m,velocity_x_m_s,velocity_y_m_s,horizontal_speed_m_s,body_error_x_m,body_error_y_m,body_velocity_x_m_s,body_velocity_y_m_s,battery_v,estimate_z
1779201893.243904,0.0008528232574462891,hold-xy,0,0.0,0.0,0.0,0.0,0.0065411497,-0.0011275932,0.03695447,0.014981230720877647,-0.014634819701313972,-0.6537638306617737,-0.7564087510108948,81.6694641088558,0.011928796768188477,49,0.0,0.0,0.0,0.0,0.0,0.0,0.0,0.0,0.0,0.0,4.059237480163574,104.38065338134766
1779201893.3275602,0.08450889587402344,hold-xy,0,0.0,0.00024145214,-0.00012896201,0.0,0.0065635815,-0.0011195401,0.03694447,0.015469096601009369,-0.015346188098192215,-0.6535655856132507,-0.7565562129020691,81.64127939326829,0.0030667781829833984,50,2.2431836e-05,8.053146e-06,2.383359914096897e-05,7.2737676e-05,2.6113206e-05,7.728304488063344e-05,-1.12285215e-05,2.102286e-05,3.6409707e-05,-6.816892e-05,4.059237480163574,104.38323211669922
1779201893.42954,0.18648862838745117,hold-xy,0,0.0,-6.89823e-05,0.00012963198,0.0,0.006538665,-0.0011356855,0.036938265,0.014903269708156586,-0.014137531630694866,-0.653692901134491,-0.7564810514450073,81.65735281785791,0.020329713821411133,51,-2.4847686e-06,-8.092262e-06,8.465150685908114e-06,-3.731857e-05,-3.8895043e-05,5.390268862238561e-05,8.367152e-06,-1.284347e-06,-4.389811e-05,3.128028e-05,4.059237480163574,104.37153625488281
1779201893.5109415,0.26789021492004395,hold-xy,0,0.0,-0.00024026324,-6.3525506e-05,0.0,0.006523952,-0.0011183703,0.03696014,0.015340487472712994,-0.015074378810822964,-0.6534773111343384,-0.7566404342651367,81.62715464612786,0.0038805007934570312,52,-1.7197803e-05,9.2228875e-06,1.9514765310585666e-05,-7.1231574e-05,2.5859854e-05,7.578040281682942e-05,-6.620341e-06,-1.8357483e-05,1.5211898e-05,7.423791e-05,4.059237480163574,104.35613250732422
1779201893.6178393,0.3747880458831787,hold-xy,0,0.0,0.0002214693,-0.00015310451,0.0,0.0065616686,-0.0011151005,0.03694792,0.015455466695129871,-0.015382898971438408,-0.6536574959754944,-0.7564762830734253,81.65532422187789,0.015883207321166992,53,2.0518899e-05,1.2492761e-05,2.402278629274847e-05,6.937491e-05,2.8439226e-05,7.497778054793741e-05,-1.5338359e-05,1.8488616e-05,3.820636e-05,-6.451311e-05,4.059237480163574,104.35508728027344
1779201893.7013483,0.4582970142364502,hold-xy,0,0.0,0.0001944698,2.6960292e-05,0.0,0.0065606944,-0.0011287378,0.036966365,0.015086838975548744,-0.01458214595913887,-0.6536120772361755,-0.7565388083457947,81.64626751626268,0.007475137710571289,54,1.9544736e-05,-1.1445954e-06,1.957822196240087e-05,4.538295e-05,-2.4602321e-05,5.162253685766288e-05,-1.7070884e-06,1.9503657e-05,-1.7747867e-05,-4.847576e-05,4.059237480163574,104.35444641113281
1779201893.803827,0.5607757568359375,hold-xy,0,0.0,-0.00020504347,0.00026367288,0.0,0.006523676,-0.0011462886,0.036911566,0.015743650496006012,-0.015577039681375027,-0.653465211391449,-0.7566325068473816,81.62663540434627,0.007798671722412109,55,-1.7473474e-05,-1.869537e-05,2.55898246841889e-05,-7.6943616e-05,-6.8763125e-05,0.00010319247678635402,2.1040622e-05,-1.4564732e-05,-7.923489e-05,6.6109904e-05,4.059237480163574,104.33323669433594
1779201893.8861895,0.6431381702423096,hold-xy,0,0.0,-0.00016736687,1.6828557e-05,0.0,0.0065258667,-0.0011303024,0.03693835,0.015357608906924725,-0.015187443234026432,-0.6535382270812988,-0.7565852999687195,81.63671229288246,0.008535385131835938,56,-1.5283003e-05,-2.7092174e-06,1.5521277071020884e-05,-4.5809866e-05,1.0619926e-05,4.7024745372261636e-05,4.903306e-06,-1.4726427e-05,3.8439866e-06,4.686737e-05,4.059237480163574,104.32909393310547
1779201893.9671414,0.7240900993347168,hold-xy,0,0.0,-8.097039e-05,3.93356e-05,0.0,0.0065303,-0.0011326075,0.036917314,0.015379361808300018,-0.015253083780407906,-0.6534796357154846,-0.7566341161727905,81.62801913238633,0.007767677307128906,57,-1.0849908e-05,-5.0142407e-06,1.1952535723883302e-05,-1.579262e-05,-1.0279969e-06,1.5826042526942753e-05,6.540545e-06,-1.0004218e-05,-3.3164356e-06,1.5474654e-05,4.059237480163574,104.32909393310547
1779201894.0509775,0.8079261779785156,hold-xy,0,0.0,0.00019157646,-1.9366362e-05,0.0,0.0065521616,-0.0011311546,0.03694965,0.015139132738113403,-0.015029252506792545,-0.6536425352096558,-0.7565026879310608,81.65215325246244,0.009317398071289062,58,1.1011958e-05,-3.5613775e-06,1.1573531507892729e-05,6.8649264e-05,4.5772586e-06,6.880169013213415e-05,1.924901e-06,1.1412335e-05,1.4495434e-05,-6.725739e-05,4.059237480163574,104.3648681640625
1779201894.1186619,0.8756105899810791,hold-xy,0,0.0,-0.00017599057,-0.0002826134,0.0,0.006532328,-0.001109058,0.03695084,0.015389830805361271,-0.01526923943310976,-0.6535332202911377,-0.7565873265266418,81.63618209807163,0.012681245803833008,59,-8.821487e-06,1.8535182e-05,2.052733797343381e-05,-4.445145e-05,0.0001062655,0.00011518805407590286,-1.705489e-05,-1.1423761e-05,9.866947e-05,5.943588e-05,4.059237480163574,104.38225555419922
1779201894.204167,0.9611155986785889,hold-xy,0,0.0,-7.704536e-05,-0.00025952602,0.0,0.00653808,-0.0011068117,0.036931258,0.015538956969976425,-0.015330233611166477,-0.6534108519554138,-0.7566887140274048,81.61775198799245,0.010126829147338867,60,-3.0696392e-06,2.0781532e-05,2.100701670255692e-05,-1.1520671e-05,8.203869e-05,8.284366467481197e-05,-2.0112053e-05,-6.066307e-06,7.9482874e-05,2.3356915e-05,4.059237480163574,104.35765838623047
1779201894.2854333,1.042382001876831,hold-xy,0,0.0,0.0005267493,3.105129e-05,0.0,0.006582505,-0.0011332333,0.03696811,0.01618691347539425,-0.017658768221735954,-0.6535616517066956,-0.7564941644668579,81.64782520166476,0.009630441665649414,61,4.135538e-05,-5.6400895e-06,4.1738208363334595e-05,0.00015493762,-3.9517825e-05,0.0001598978557008689,-4.2689726e-07,4.1736028e-05,-1.6592889e-05,-0.0001590346,4.059237480163574,104.32637023925781
1779201894.3670478,1.1239964962005615,hold-xy,0,0.0,-7.51174e-05,-0.00012535174,0.0,0.0065436773,-0.001115555,0.036921095,0.0156712643802166,-0.015666699036955833,-0.6536163091659546,-0.7565015554428101,81.64984076067714,0.009693384170532227,62,2.5276095e-06,1.2038276e-05,1.230076754070094e-05,-3.4377626e-05,3.7370126e-05,5.0777431359568594e-05,-1.2277724e-05,7.5258686e-07,3.1981563e-05,3.944017e-05,4.059237480163574,104.32637023925781
1779201894.4552755,1.2122242450714111,hold-xy,0,0.0,-0.00029943415,6.851649e-05,0.0,0.006520001,-0.0011275122,0.036946233,0.015231030993163586,-0.014958715066313744,-0.6535192131996155,-0.756608784198761,81.63321595377644,0.004675149917602539,63,-2.1148473e-05,8.1025064e-08,2.1148628216885987e-05,-0.00010023732,-1.2310937e-05,0.00010099048922919492,2.997141e-06,-2.0935178e-05,-2.6765392e-05,9.7379125e-05,4.059237480163574,104.30760192871094
1779201894.5803103,1.33725905418396,hold-xy,0,0.0,-0.0001054717,0.00012392757,0.0,0.0065318067,-0.0011361437,0.036916323,0.015610786154866219,-0.015639740973711014,-0.6535600423812866,-0.7565520405769348,81.64126130850994,0.020198583602905273,64,-9.343028e-06,-8.550473e-06,1.2665020593770944e-05,-3.7825794e-05,-3.226314e-05,4.971620303279241e-05,9.817844e-06,-8.000792e-06,-3.7419173e-05,3.2733868e-05,4.059237480163574,104.32806396484375
1779201894.6457791,1.4027278423309326,hold-xy,0,0.0,0.00012627518,0.00015913873,0.0,0.006547464,-0.0011429694,0.03693956,0.01519839372485876,-0.015125982463359833,-0.6536859273910522,-0.7564620971679688,81.6589872848174,0.00943756103515625,65,6.314367e-06,-1.5376136e-05,1.6622176850411747e-05,3.514113e-05,-4.944638e-05,6.066171030315811e-05,1.42975e-05,8.478106e-06,-4.3825617e-05,-4.1942327e-05,4.059237480163574,104.30648803710938
1779201894.7275624,1.484511137008667,hold-xy,0,0.0,0.00016634565,3.4230146e-05,0.0,0.0065539926,-0.0011356771,0.0369083,0.01589595340192318,-0.016164984554052353,-0.653539776802063,-0.756552517414093,81.6396868623329,0.006413459777832031,66,1.2842938e-05,-8.08388e-06,1.5175314685955316e-05,4.769314e-05,-8.81664e-06,4.8501221862918074e-05,6.13064e-06,1.3881838e-05,-1.7884722e-06,-4.8468235e-05,4.059237480163574,104.34288787841797
1779201894.829899,1.5868477821350098,hold-xy,0,0.0,-4.739909e-05,-0.00017573626,0.0,0.0065407865,-0.0011154301,0.03697753,0.015019834972918034,-0.014776036143302917,-0.6535406708717346,-0.7565980553627014,81.63603451479473,0.016920089721679688,67,-3.632158e-07,1.2163073e-05,1.216849468029879e-05,-9.758067e-06,5.9973238e-05,6.076190535897245e-05,-1.1980873e-05,-2.1286032e-06,5.791595e-05,1.8378038e-05,4.059237480163574,104.3841552734375
1779201894.9327745,1.689723253250122,hold-xy,0,0.0,-0.0003229433,-0.00024095848,0.0,0.0065158773,-0.0011024065,0.03694349,0.015628639608621597,-0.015580723993480206,-0.6534902453422546,-0.7566131949424744,81.63049584812632,0.016300439834594727,68,-2.527237e-05,2.5186688e-05,3.567999268690483e-05,-7.90345e-05,7.973265e-05,0.00011226641251551137,-2.1239892e-05,-2.8669303e-05,6.7379515e-05,8.9798385e-05,4.059237480163574,104.38148498535156
1779201895.0192683,1.776216983795166,hold-xy,0,0.0,2.2181808e-05,-3.7159207e-05,0.0,0.006538205,-0.0011196379,0.036987495,0.015143581666052341,-0.01512838900089264,-0.6535977125167847,-0.7565394043922424,81.64565208290668,0.015073537826538086,69,-2.944842e-06,7.955357e-06,8.482912190425521e-06,2.1034837e-05,-3.1173986e-06,2.1264584204976843e-05,-7.443068e-06,-4.069464e-06,-2.8066552e-08,-2.1264565e-05,4.059237480163574,104.38789367675781
1779201895.1017878,1.858736515045166,hold-xy,0,0.0,-4.6516634e-06,-0.00020033823,0.0,0.00653906,-0.0011053523,0.036935102,0.015476672910153866,-0.015457705594599247,-0.6535877585411072,-0.7565345764160156,81.64497152756854,0.004474639892578125,70,-2.0898879e-06,2.2240914e-05,2.233888708457134e-05,1.7478795e-05,4.3841657e-05,4.719744925520841e-05,-2.170119e-05,-5.2994565e-06,4.5916135e-05,-1.0922809e-05,4.059237480163574,104.41825103759766
1779201895.183277,1.940225601196289,hold-xy,0,0.0,-7.357595e-05,3.606417e-05,0.0,0.006531611,-0.0011213357,0.03692756,0.015285119414329529,-0.015036996454000473,-0.6534803509712219,-0.7566397190093994,81.62753183132062,0.004438638687133789,71,-9.538606e-06,6.2575564e-06,1.1407980026327964e-05,-1.5175003e-05,-2.8127186e-05,3.195965085052646e-05,-4.801972e-06,-1.0348095e-05,-3.0037016e-05,1.091774e-05,4.053958892822266,104.40890502929688
1779201895.2668276,2.0237762928009033,hold-xy,0,0.0,2.3799363e-05,-6.668926e-05,0.0,0.006539909,-0.0011156015,0.036925174,0.01556896697729826,-0.015402485616505146,-0.6535480618476868,-0.7565681338310242,81.63874513671736,0.00595402717590332,72,-1.2405217e-06,1.19917095e-05,1.2055703631189249e-05,1.9723278e-05,1.2805522e-06,1.9764805642663976e-05,-1.1683859e-05,-2.9710986e-06,4.134982e-06,-1.9327428e-05,4.053958892822266,104.40890502929688
1779201895.3498158,2.106764554977417,hold-xy,1000,1.525902189669642,-0.00031351298,0.00019196619,0.0,0.0065107755,-0.0011323066,0.0369747,0.014743883162736893,-0.014416374266147614,-0.6536105275154114,-0.756550133228302,81.64572002409179,0.007190227508544922,73,-3.0374154e-05,-4.7134236e-06,3.073769149005889e-05,-9.310342e-05,-6.040531e-05,0.00011098219998853099,9.076577e-06,-2.9367013e-05,-7.329165e-05,8.3338964e-05,4.059237480163574,104.46595001220703
1779201895.4306889,2.1876375675201416,hold-xy,1000,1.525902189669642,0.00015166549,0.00012559927,0.0,0.0065417886,-0.0011351649,0.036945134,0.0148787721991539,-0.01462878193706274,-0.6536348462104797,-0.7565223574638367,81.6499464602701,0.01620960235595703,74,6.388873e-07,-7.5716525e-06,7.598559009713361e-06,6.431184e-05,-5.421726e-05,8.411613499541297e-05,7.3986084e-06,1.7316745e-06,-4.4303117e-05,-7.150356e-05,4.059237480163574,104.41841888427734
1779201895.512934,2.2698826789855957,hold-xy,2000,3.051804379339284,0.00018593803,-0.00024352786,0.0,0.0065519754,-0.001108692,0.03695804,0.014980229549109936,-0.014142557978630066,-0.6536428332328796,-0.7565227746963501,81.64974562422633,0.017142295837402344,75,1.0825694e-05,1.8901192e-05,2.1781889287871512e-05,8.2602244e-05,5.971877e-05,0.00010192871344008083,-2.0272966e-05,7.96602e-06,7.1081515e-05,-7.305396e-05,4.059237480163574,104.36891174316406
1779201895.5954285,2.35237717628479,hold-xy,2000,3.051804379339284,0.0005998441,0.000115867166,0.0,0.006587169,-0.0011415398,0.036938958,0.015683744102716446,-0.01624603196978569,-0.6536527276039124,-0.7564576864242554,81.65716888145667,0.008202314376831055,76,4.6019442e-05,-1.3946556e-05,4.8086333466083346e-05,0.0001732936,-6.5971566e-05,0.0001854263233710389,7.1217364e-06,4.7556037e-05,-4.0129242e-05,-0.00018103195,4.059237480163574,104.36225891113281
1779201895.6971564,2.4541051387786865,hold-xy,3000,4.577706569008926,0.00016928487,0.00022304294,0.0,0.0065575335,-0.0011488376,0.036944773,0.015043847262859344,-0.014642494730651379,-0.6537986397743225,-0.7563773393630981,81.67473385713711,0.016010046005249023,77,1.6383827e-05,-2.12444e-05,2.6828236173766905e-05,2.6643436e-05,-6.949087e-05,7.442347328600441e-05,1.8648268e-05,1.9287205e-05,-6.49008e-05,-3.6424426e-05,4.059237480163574,104.3938980102539
1779201895.7789187,2.53586745262146,hold-xy,3000,4.577706569008926,-0.000109586996,-0.00011576067,0.0,0.0065392125,-0.0011198064,0.036952846,0.015454989857971668,-0.015275370329618454,-0.6534612774848938,-0.7566479444503784,81.62526759026098,0.005532026290893555,78,-1.937151e-06,7.786788e-06,8.024127431366386e-06,-4.0936255e-05,4.5776662e-05,6.141074607057608e-05,-7.421615e-06,-3.0506149e-06,3.9326296e-05,4.716696e-05,4.059237480163574,104.3938980102539
1779201895.881614,2.6385626792907715,hold-xy,4000,6.103608758678568,-0.0005940124,5.608904e-06,0.0,0.0064941198,-0.0011217194,0.036975507,0.015007642097771168,-0.01405251119285822,-0.6535274386405945,-0.7566235661506653,81.63200058217316,0.01683664321899414,79,-4.7029927e-05,5.8738515e-06,4.7395318799703456e-05,-0.00017667752,2.5764231e-05,0.00017854619843928553,1.0329704e-06,-4.738406e-05,-2.2202585e-07,0.00017854605,4.059237480163574,104.37614440917969
1779201895.963502,2.7204506397247314,hold-xy,4000,6.103608758678568,0.00010573162,-0.0001853827,0.0,0.0065471735,-0.001112855,0.036976527,0.015401121228933334,-0.015423077158629894,-0.6535489559173584,-0.7565703392028809,81.63902293749523,0.007460832595825195,80,6.0237944e-06,1.473818e-05,1.592168503272737e-05,5.072262e-05,4.7173562e-05,6.926853145052725e-05,-1.5457452e-05,3.8167036e-06,5.404772e-05,-4.332405e-05,4.059237480163574,104.39453887939453
1779201896.0689538,2.8259024620056152,hold-xy,5000,7.629510948348211,1.7755234e-05,-4.521371e-05,0.0,0.006540397,-0.0011214418,0.036968164,0.015180925838649273,-0.015159566886723042,-0.6536646485328674,-0.7564801573753357,81.65587023887288,0.018623828887939453,81,-7.5250864e-07,6.1513856e-06,6.197242390924682e-06,1.3945581e-05,5.7007765e-06,1.5065791556502516e-05,-5.9770664e-06,-1.6372214e-06,7.664189e-06,-1.29706705e-05,4.059237480163574,104.41159057617188
1779201896.1514373,2.908385992050171,hold-xy,5000,7.629510948348211,2.7057971e-05,-0.00029501802,0.0,0.006545143,-0.0010995334,0.03695579,0.015282437205314636,-0.015096551738679409,-0.6534566283226013,-0.7566590905189514,81.62411442284542,0.006978511810302734,82,3.993511e-06,2.8059818e-05,2.8342574625475092e-05,2.4888046e-05,7.381537e-05,7.789816003696117e-05,-2.8342247e-05,-1.3646422e-07,7.665339e-05,-1.3870146e-05,4.059237480163574,104.42373657226562
1779201896.2204232,2.97737193107605,hold-xy,5000,7.629510948348211,0.00025341328,-0.000292587,0.0,0.006562639,-0.001098874,0.036926527,0.015308254398405552,-0.014754206873476505,-0.6535601019859314,-0.7565760016441345,81.63878272138675,0.0064334869384765625,83,2.1489337e-05,2.8719194e-05,3.5868980030713195e-05,9.2909555e-05,5.451572e-05,0.00010772255864574849,-3.1538777e-05,1.7084772e-05,6.744656e-05,-8.39947e-05,4.059237480163574,104.4164810180664
1779201896.306184,3.0631327629089355,hold-xy,6000,9.155413138017853,-7.7592966e-05,-8.959326e-05,0.0,0.0065365825,-0.0011092527,0.03691377,0.01567281410098076,-0.015580270439386368,-0.6535751819610596,-0.7565389275550842,81.64334385117117,0.0007600784301757812,84,-4.567206e-06,1.8340535e-05,1.8900650862075368e-05,-2.045605e-05,4.1081403e-06,2.0864485300927817e-05,-1.7482032e-05,-7.1842287e-06,1.0915503e-06,2.0835912e-05,4.059237480163574,104.40863037109375
1779201896.3899798,3.146928548812866,hold-xy,7000,10.681315327687495,0.00025547168,-0.000112825706,0.0,0.0065624937,-0.0011111097,0.03691469,0.015560389496386051,-0.015336195006966591,-0.6535446643829346,-0.7565725445747375,81.63803456560213,0.003194093704223633,85,2.134405e-05,1.6483478e-05,2.6968010210184145e-05,8.1221675e-05,-3.9717092e-06,8.131872357691615e-05,-1.941223e-05,1.8720013e-05,7.88228e-06,-8.09358e-05,4.053958892822266,104.40020751953125
1779201896.4509296,3.207878351211548,hold-xy,7000,10.681315327687495,-5.8886544e-05,4.0318482e-05,0.0,0.006543329,-0.0011183964,0.036963243,0.015072817914187908,-0.01488477922976017,-0.653590738773346,-0.7565516829490662,81.64391278784092,0.0032155513763427734,86,2.1792948e-06,9.19681e-06,9.451489144372594e-06,-3.7508576e-05,-3.8658418e-05,5.386433609027205e-05,-9.415882e-06,8.196348e-07,-4.3698947e-05,3.149236e-05,4.053958892822266,104.40020751953125
1779201896.5355766,3.292525291442871,hold-xy,8000,12.207217517357137,-0.00024181987,0.00031787547,0.0,0.0065236446,-0.0011402974,0.036947664,0.014792424626648426,-0.014263266697525978,-0.6536448001861572,-0.7565224170684814,81.65046186674506,0.006621599197387695,87,-1.750514e-05,-1.2704171e-05,2.1629281856494906e-05,-9.894514e-05,-0.00010793512,0.00014642448453604332,1.5111466e-05,-1.5474801e-05,-0.00012115907,8.2222934e-05,4.053958892822266,104.39662170410156
1779201896.6180003,3.3749489784240723,hold-xy,8000,12.207217517357137,0.00073437835,0.0004054263,0.0,0.00659596,-0.0011639856,0.03696129,0.01547349151223898,-0.016226517036557198,-0.6537752747535706,-0.7563564777374268,81.675784441852,0.007550716400146484,88,5.4810196e-05,-3.639236e-05,6.579180427094163e-05,0.00019694757,-0.00016275619,0.00025549544714353645,2.8073844e-05,5.9501435e-05,-0.00013252854,-0.0002184356,4.048680305480957,104.4238052368164
1779201896.700114,3.4570627212524414,hold-xy,8000,12.207217517357137,-0.00034607036,-7.424113e-05,0.0,0.0065305494,-0.0011243885,0.03694448,0.015120502561330795,-0.0144187081605196,-0.6536080837249756,-0.7565447092056274,81.64518421166704,0.018865585327148438,89,-1.06003135e-05,3.204681e-06,1.1074142092228885e-05,-0.00013930429,5.385741e-05,0.00014935295824165421,-1.6304149e-06,-1.0953464e-05,3.3044525e-05,0.00014565152,4.048680305480957,104.38481903076172
1779201896.8026245,3.559573173522949,hold-xy,9000,13.733119707026779,5.0308277e-05,-0.00019444746,0.0,0.0065622926,-0.0011152728,0.036958784,0.01541865710169077,-0.015879357233643532,-0.6535349488258362,-0.7565726041793823,81.63829216051434,0.007575273513793945,90,2.1142885e-05,1.2320466e-05,2.447070692048145e-05,-1.3832017e-05,6.1731094e-05,6.326178081029186e-05,-1.5264133e-05,1.9126466e-05,5.9063397e-05,2.2662029e-05,4.043401718139648,104.37721252441406
1779201896.905101,3.6620497703552246,hold-xy,10000,15.259021896696423,-5.4793647e-05,-0.00013121057,0.0,0.00655164,-0.0011161705,0.036973007,0.01511845551431179,-0.014883582480251789,-0.6534972786903381,-0.7566315531730652,81.62972680530551,0.016330957412719727,91,1.04904175e-05,1.1422671e-05,1.5508909232159474e-05,-4.378089e-05,4.033793e-05,5.9530789842616246e-05,-1.2828084e-05,8.715878e-06,3.3535078e-05,4.9186518e-05,4.03812313079834,104.3642349243164
1779201896.9658926,3.722841262817383,hold-xy,10000,15.259021896696423,-0.0004194831,0.00022929697,0.0,0.0065185446,-0.0011371877,0.036988504,0.01481173187494278,-0.01394475158303976,-0.6533492207527161,-0.7567833662033081,81.60479594367433,0.004689455032348633,92,-2.2605062e-05,-9.594485e-06,2.45569328074602e-05,-0.00016772012,-5.881145e-05,0.00017773245561056715,1.2792019e-05,-2.0962043e-05,-8.266843e-05,0.00015733644,4.03812313079834,104.3642349243164
1779201897.0679252,3.824873924255371,hold-xy,10000,15.259021896696423,-0.00012959207,-4.1592233e-05,0.0,0.0065380614,-0.0011207303,0.036974594,0.014677013270556927,-0.01428556814789772,-0.6536250114440918,-0.75654137134552,81.64757766252103,0.015289783477783203,93,-3.0882657e-06,6.862916e-06,7.525755818849996e-06,-5.336722e-05,1.28306165e-05,5.488793119044172e-05,-6.3415173e-06,-4.052427e-06,4.9423234e-06,5.4664964e-05,4.03812313079834,104.3816909790039
1779201897.14926,3.9062087535858154,hold-xy,11000,16.784924086366065,-0.0003140389,4.1783285e-05,0.0,0.0065184664,-0.0011248821,0.036965262,0.014974184334278107,-0.014708871953189373,-0.6536387801170349,-0.7565155029296875,81.65072838546982,0.005234956741333008,94,-2.2683293e-05,2.71108e-06,2.284473034461731e-05,-0.00010168062,-4.6475825e-06,0.00010178677701497763,6.1142873e-07,-2.2836546e-05,-1.9363071e-05,9.9928075e-05,4.03812313079834,104.36064910888672
1779201897.2521882,4.009136915206909,hold-xy,12000,18.310826276035705,5.7155037e-05,-0.00028436806,0.0,0.0065492634,-0.0011017183,0.036970664,0.015118509531021118,-0.014891456812620163,-0.6535875201225281,-0.7565534114837646,81.64342313918837,0.015615224838256836,95,8.113682e-06,2.5874935e-05,2.7117229189751377e-05,2.8653965e-05,7.1833834e-05,7.733789367226463e-05,-2.6779402e-05,4.2670495e-06,7.5235526e-05,-1.7909895e-05,4.032844543457031,104.3255844116211
1779201897.3395133,4.09646201133728,hold-xy,12000,18.310826276035705,-0.00023005891,-6.095743e-05,0.0,0.006522551,-0.0011138711,0.036957145,0.015128763392567635,-0.014656146988272667,-0.6536681056022644,-0.7564881443977356,81.65495016526796,0.006331443786621094,96,-1.8598512e-05,1.3722107e-05,2.311278542759012e-05,-6.289173e-05,1.2545446e-05,6.41307927453365e-05,-1.0877537e-05,-2.0393138e-05,3.2848748e-06,6.404661e-05,4.032844543457031,104.31865692138672
1779201897.444452,4.2014007568359375,hold-xy,13000,19.83672846570535,3.936321e-05,-0.00031619816,0.0,0.006546933,-0.0010936111,0.036936697,0.015499330125749111,-0.015699999406933784,-0.65361088514328,-0.7565091252326965,81.64920496763125,0.009677886962890625,97,5.783513e-06,3.3982098e-05,3.447074059651204e-05,2.7975413e-05,6.860916e-05,7.409345843007391e-05,-3.446176e-05,7.868575e-07,7.194469e-05,-1.7714461e-05,4.027565956115723,104.3272476196289
1779201897.5260098,4.282958507537842,hold-xy,13000,19.83672846570535,0.001795823,0.0009924264,0.0,0.0066754073,-0.001217585,0.037054513,0.012913836166262627,-0.015027457848191261,-0.6534720063209534,-0.7566913962364197,81.62731784505742,0.0076045989990234375,98,0.0001342576,-8.999184e-05,0.0001616280700700167,0.00048044312,-0.00039669106,0.0006230484666078105,6.948326e-05,0.0001459305,-0.00032250508,-0.0005330852,4.0170087814331055,104.2835464477539
1779201897.6281152,4.385063886642456,hold-xy,14000,21.36263065537499,0.0036219056,0.0033410687,0.0,0.0068256278,-0.0014599478,0.037208486,0.00932097528129816,-0.016988568007946014,-0.6533971428871155,-0.7567672729492188,81.62381963607517,0.019718170166015625,99,0.00028447807,-0.00033235457,0.0004374783755752506,0.00083709066,-0.0010856331,0.001370882904839104,0.00028736892,0.0003298582,-0.0009521121,-0.0009863074,4.0170087814331055,104.1994400024414
1779201897.6889753,4.4459240436553955,hold-xy,15000,22.888532845044633,0.0031263456,0.0023218414,0.0,0.006837547,-0.0014280397,0.03716527,0.009592843241989613,-0.0182958897203207,-0.6533359885215759,-0.7567862272262573,81.61913348414124,0.009513378143310547,100,0.00029639713,-0.00030044653,0.0004220419159301199,0.00063627964,-0.00062524364,0.000892065790745348,0.00025403738,0.0003370228,-0.0005258273,-0.00072061573,4.011730194091797,104.10903930664062
1779201897.7726698,4.529618501663208,hold-xy,15000,22.888532845044633,0.001978496,0.0016782562,0.0,0.0067835227,-0.0013929233,0.037068903,0.010716291144490242,-0.016087569296360016,-0.653409481048584,-0.7567578554153442,81.62208632654621,0.010050773620605469,101,0.00024237297,-0.00026533008,0.0003593670952507084,0.0002504965,-0.00031098333,0.00039932332725034904,0.00022718447,0.00027844554,-0.0002711669,-0.00029313413,4.011730194091797,104.10903930664062
1779201897.8560433,4.61299204826355,hold-xy,16000,24.414435034714273,0.005022078,0.003638212,0.0,0.007016992,-0.0016013589,0.037297178,0.005976045969873667,-0.017424829304218292,-0.6534404158592224,-0.7567537426948547,81.63324241267682,0.011472940444946289,102,0.0004758425,-0.00047376566,0.0006714759927832633,0.0010300111,-0.0009807099,0.0014222218014434105,0.00039948395,0.0005397153,-0.00082039624,-0.0011617508,4.006451606750488,104.04415893554688
1779201897.9373639,4.694312572479248,hold-xy,16000,24.414435034714273,0.0031249411,0.002236506,0.0,0.0069257747,-0.001508534,0.03721153,0.00820539053529501,-0.018599679693579674,-0.6533593535423279,-0.7567750215530396,81.62442478816904,0.0014696121215820312,103,0.00038462505,-0.00038094074,0.000541343021473054,0.00042135725,-0.0003815659,0.0005684491691066423,0.00032085282,0.00043601115,-0.00031612086,-0.00047244265,3.995894432067871,103.96432495117188
1779201898.0393097,4.796258449554443,hold-xy,17000,25.940337224383917,0.0041612154,0.0026744916,0.0,0.00703083,-0.0015791487,0.037256874,0.005967256147414446,-0.016999073326587677,-0.6532018184661865,-0.7569695115089417,81.59559894740028,0.01170802116394043,104,0.0004896801,-0.00045155548,0.0006660998025192278,0.0006386136,-0.0004980961,0.0008098932093087626,0.0003751351,0.0005504204,-0.000399408,-0.0007045568,3.995894432067871,103.8753890991211
1779201898.1203887,4.877337455749512,hold-xy,18000,27.466239414053558,0.0012705375,0.0012783135,0.0,0.0068342183,-0.0014489023,0.03724936,0.008123806677758694,-0.015822883695364,-0.6533340811729431,-0.7568607926368713,81.61085447806882,0.0012660026550292969,105,0.0002930686,-0.00032130908,0.00043488932718773333,-0.00019745031,7.8272016e-05,0.00021239852350002516,0.00027511365,0.00033681036,4.8627375e-05,0.00020675713,3.985337257385254,103.71729278564453
1779201898.222582,4.9795308113098145,hold-xy,18000,27.466239414053558,0.0022900894,0.0021830718,0.0,0.0069002956,-0.0015358236,0.037257258,0.007075522094964981,-0.01653369516134262,-0.6532816290855408,-0.7569013833999634,81.6056621453634,0.010732173919677734,106,0.00035914592,-0.00040823035,0.0005437258406627914,7.556463e-05,-0.00022642573,0.00023870196488088614,0.0003514269,0.00041489393,-0.00021296866,-0.000107809916,3.9800586700439453,103.6050796508789
1779201898.304678,5.061626672744751,hold-xy,18000,27.466239414053558,0.0019774765,0.0020123343,0.0,0.0068805143,-0.0015292894,0.03719972,0.008210609667003155,-0.017786657437682152,-0.6532957553863525,-0.7568493485450745,81.61175786554868,0.007960796356201172,107,0.00033936463,-0.0004016962,0.0005258594847233834,-1.70303e-05,-0.00013540019,0.00013646699826515117,0.00034789243,0.00039433365,-0.0001364361,-2.9040657e-06,3.9800586700439453,103.61321258544922
1779201898.4059494,5.162898063659668,hold-xy,18000,27.466239414053558,0.0021974198,0.0023581036,0.0,0.0068942793,-0.0015690587,0.03724825,0.00810241512954235,-0.018418068066239357,-0.6533594131469727,-0.7567803859710693,81.62378676619953,0.016082763671875,108,0.00035312958,-0.00044146553,0.0005653249658870016,3.2410622e-05,-0.00022286254,0.0002252069278201546,0.0003853152,0.00041367204,-0.00021576392,-6.45298e-05,3.9800586700439453,103.61833953857422
1779201898.5075638,5.264512538909912,hold-xy,19000,28.9921416037232,0.0002628843,0.00063380954,0.0,0.006743988,-0.0013994453,0.037179668,0.010832790285348892,-0.017133120447397232,-0.6536227464675903,-0.7565490007400513,81.65784872029887,0.016538619995117188,109,0.00020283833,-0.00027185213,0.0003391857392813492,-0.00042302225,0.00034700843,0.0005471404592963211,0.00023954714,0.0002401336,0.00028196306,0.0004688918,3.9800586700439453,103.53785705566406
1779201898.590546,5.347494602203369,hold-xy,19000,28.9921416037232,0.0044850823,0.0028114128,0.0,0.0070366133,-0.0016074991,0.037224077,0.006438902113586664,-0.01761348359286785,-0.6532392501831055,-0.756919264793396,81.6032823436969,0.017529010772705078,110,0.0004954636,-0.00047990587,0.0006897780988634275,0.0007745735,-0.00051834364,0.00093201085597327,0.00040241086,0.00056023145,-0.00039967924,-0.00084196246,3.969501495361328,103.48173522949219
1779201898.6774886,5.434437274932861,hold-xy,19000,28.9921416037232,0.004352977,0.0030667349,0.0,0.0070611145,-0.0016521681,0.037276477,0.006372939795255661,-0.018662061542272568,-0.653329610824585,-0.7568167448043823,81.62092147965316,0.020656347274780273,111,0.00051996484,-0.0005245749,0.0007386083290945712,0.0006298986,-0.00052272424,0.0008185431713507805,0.00044320518,0.00059085654,-0.0004253545,-0.0006993471,3.969501495361328,103.48173522949219
1779201898.7608926,5.517841339111328,hold-xy,19000,28.9921416037232,0.0023371584,0.0017210736,0.0,0.0069303494,-0.0015314883,0.037184417,0.008706385269761086,-0.018358709290623665,-0.6532784700393677,-0.7568449974060059,81.61104418742008,0.0017397403717041016,112,0.0003891997,-0.00040389504,0.000560898950248712,5.7530968e-05,-1.2078584e-05,5.8785239553056164e-05,0.0003427923,0.00044396066,-3.5560224e-06,-5.8677586e-05,3.969501495361328,103.4665298461914
1779201898.8420713,5.599020004272461,hold-xy,19000,28.9921416037232,0.003201318,0.001921865,0.0,0.006998401,-0.001557881,0.03723047,0.007214054930955172,-0.017961107194423676,-0.6531224250793457,-0.757004976272583,81.5865586443348,0.004225730895996094,113,0.00045725144,-0.0004302878,0.0006278745472166045,0.00029970525,-0.00010907207,0.0003189356598526502,0.00035875427,0.0005152881,-6.4046835e-05,-0.0003124387,3.969501495361328,103.38089752197266
1779201898.926574,5.683522701263428,hold-xy,19000,28.9921416037232,0.0023640292,0.0022012433,0.0,0.006944813,-0.001574886,0.037236433,0.0069920774549245834,-0.017328545451164246,-0.6533122062683105,-0.7568579912185669,81.61309017807096,0.012214183807373047,114,0.00040366314,-0.0004472928,0.0006025071001830143,-3.1740637e-07,-0.00014302439,0.00014302473892391105,0.0003836322,0.000464587,-0.00014154112,-2.0547097e-05,3.969501495361328,103.38987731933594
1779201899.011596,5.768544673919678,hold-xy,19000,28.9921416037232,0.0034959381,0.002415182,0.0,0.007033618,-0.0016125981,0.037235256,0.00720653822645545,-0.018766144290566444,-0.6533088088035583,-0.7568246126174927,81.61783011991155,0.014578104019165039,115,0.0004924685,-0.00048500486,0.0006911981591415249,0.00032208883,-0.00023698955,0.00039988155153647485,0.00040803425,0.0005579095,-0.00018750541,-0.0003531954,3.969501495361328,103.43428802490234
1779201899.0931904,5.850139141082764,hold-xy,19000,28.9921416037232,0.00031514675,0.0004827301,0.0,0.006816916,-0.0014314577,0.037148993,0.010317616164684296,-0.018060829490423203,-0.6533903479576111,-0.7567353844642639,81.62617463907512,0.014309167861938477,116,0.00027576648,-0.00030386448,0.00041034227120980533,-0.00056867296,0.00049792184,0.000755853868098434,0.00026046482,0.00031707864,0.000409797,0.00063512323,3.969501495361328,103.42352294921875
1779201899.176818,5.933766603469849,hold-xy,19000,28.9921416037232,0.0017247339,0.0011445667,0.0,0.0068998374,-0.0014802068,0.03721283,0.008520342409610748,-0.01784270629286766,-0.6531825065612793,-0.7569423317909241,81.5946809542985,0.0060749053955078125,117,0.0003586877,-0.00035261363,0.000502984325498791,-0.00012726872,0.00018934139,0.00022813918969245538,0.00029639498,0.00040637824,0.00016870414,0.00015357866,3.969501495361328,103.42352294921875
1779201899.2784157,6.035364389419556,hold-xy,19000,28.9921416037232,0.0013154836,0.0011241232,0.0,0.006858563,-0.001463512,0.037190866,0.008695625700056553,-0.01808909885585308,-0.6531282067298889,-0.7569813132286072,81.5872877849599,0.016634225845336914,118,0.00031741336,-0.00033591874,0.0004621608402274538,-0.00022509992,0.00018755381,0.00029299557862275436,0.00028586586,0.00036314368,0.00015260302,0.00025011742,3.969501495361328,103.44960021972656
1779201899.3608415,6.117790222167969,hold-xy,20000,30.518043793392845,0.0010662912,0.0010287942,0.0,0.006826721,-0.0014423467,0.037183367,0.00986413098871708,-0.018072307109832764,-0.6533713340759277,-0.7567574977874756,81.62353845094734,0.007063388824462891,119,0.00028557144,-0.0003147535,0.00042499507771443705,-0.00026140604,0.00020030726,0.00032932675783099046,0.00026979472,0.00032837724,0.00016008968,0.0002877975,3.969501495361328,103.41008758544922
1779201899.462354,6.219302654266357,hold-xy,20000,30.518043793392845,0.0034771445,0.0024981655,0.0,0.0070010386,-0.0015883101,0.037264813,0.006490366533398628,-0.01742062158882618,-0.6532493829727173,-0.7569145560264587,81.60410026453955,0.01696157455444336,120,0.00045988895,-0.0004607169,0.0006509669043348361,0.0003878359,-0.00033775665,0.000514291975893464,0.00038862988,0.0005222305,-0.00027750805,-0.00043299596,3.958944320678711,103.36185455322266
1779201899.5480845,6.305033206939697,hold-xy,21000,32.043945983062486,0.0014782059,0.0010593514,0.0,0.0068669114,-0.0014560968,0.037182186,0.009250522591173649,-0.017809655517339706,-0.6532803177833557,-0.7568501234054565,81.6090623744886,0.009546518325805664,121,0.00032576174,-0.00032850355,0.0004626394729618466,-0.00016050696,0.00018939833,0.0002482623826198934,0.00027744976,0.000370212,0.00016394867,0.00018642705,3.958944320678711,103.36900329589844
1779201899.633064,6.390012741088867,hold-xy,21000,32.043945983062486,0.0030509946,0.0017237966,0.0,0.006986825,-0.0015241634,0.03722479,0.00755102327093482,-0.018578266724944115,-0.6532281637191772,-0.7568955421447754,81.60475035537884,0.00022482872009277344,122,0.0004456751,-0.0003965702,0.0005965686894402923,0.00026912495,-8.396123e-05,0.00028191794779108435,0.0003272517,0.0004987991,-4.3769032e-05,-0.00027849956,3.9483871459960938,103.419189453125
1779201899.7179534,6.474902153015137,hold-xy,22000,33.56984817273213,0.0020144123,0.0022017816,0.0,0.0069098435,-0.0015548067,0.037263423,0.0069272201508283615,-0.01609041914343834,-0.6533913612365723,-0.7568175792694092,81.62085158894068,0.0008566379547119141,123,0.00036869384,-0.0004272135,0.0005643106628986929,-8.570505e-05,-0.00016787865,0.0001884903099719638,0.00036892598,0.00042701303,-0.0001785758,6.03264e-05,3.9483871459960938,103.36105346679688
1779201899.8030686,6.560017347335815,hold-xy,22000,33.56984817273213,0.00012199965,0.00042458443,0.0,0.006780755,-0.0014049076,0.037206706,0.010042161680758,-0.016802772879600525,-0.6532161235809326,-0.7569184303283691,81.59546055972392,0.00999307632446289,124,0.00023960508,-0.00027731434,0.00036648852164469336,-0.0005696969,0.00047435763,0.0007413296681487809,0.00023931515,0.00027756454,0.0003859957,0.0006329115,3.9378299713134766,103.25677490234375
1779201899.8839326,6.640881299972534,hold-xy,23000,35.09575036240177,-0.0009136199,-0.0013813304,0.0,0.0066923834,-0.0012267586,0.037044283,0.012529750354588032,-0.014093253761529922,-0.6533026099205017,-0.7568619847297668,81.59913001958853,0.010592460632324219,125,0.00015123375,-9.9165365e-05,0.0001808463858220556,-0.000729088,0.0009979069,0.0012358751715432655,7.600637e-05,0.00016409889,0.00088068115,0.0008670572,3.9272727966308594,103.16024780273438
1779201899.9855592,6.7425079345703125,hold-xy,23000,35.09575036240177,-0.00018028036,-0.0009856783,0.0,0.006712595,-0.0012179753,0.03715447,0.010839369148015976,-0.013472245074808598,-0.6531639099121094,-0.7570191025733948,81.57710644200047,0.018604516983032227,126,0.00017144531,-9.038206e-05,0.00019381024701393515,-0.000445591,0.0007266821,0.0008524190098189824,6.4294174e-05,0.0001828351,0.0006535746,0.0005472279,3.932551383972168,103.09851837158203
1779201900.0740924,6.831041097640991,hold-xy,23000,35.09575036240177,0.0014710149,0.0014070502,0.0,0.0067986622,-0.0014022933,0.037216827,0.009297431446611881,-0.016516873612999916,-0.6529155373573303,-0.7571935653686523,81.54929489288261,0.01879262924194336,127,0.00025751255,-0.0002747001,0.00037652736732133766,-1.9648607e-05,-0.0001172254,0.00011886068125039661,0.00023387396,0.00029508618,-0.00011884017,2.208013e-06,3.932551383972168,103.09851837158203
1779201900.1593685,6.9163172245025635,hold-xy,23000,35.09575036240177,-0.0005144057,-0.0006611225,0.0,0.006652292,-0.0012037773,0.03708236,0.0116920480504632,-0.012840930372476578,-0.6529595851898193,-0.7571936249732971,81.54419953775997,0.010621070861816406,128,0.00011114217,-7.618405e-05,0.0001347464013389238,-0.00048365456,0.0005552488,0.0007363579333790974,5.901284e-05,0.0001211366,0.00047809337,0.00056004437,3.932551383972168,103.05154418945312
1779201900.2211726,6.978121280670166,hold-xy,23000,35.09575036240177,0.0013056818,0.00014846961,0.0,0.0067567695,-0.0012591286,0.03716495,0.009687494486570358,-0.013937498442828655,-0.6524931788444519,-0.7576045393943787,81.47729840403754,0.00022864341735839844,129,0.0002156198,-0.00013153534,0.0002525736395918444,9.558053e-05,0.00015867145,0.0001852357012815216,9.81277e-05,0.00023273246,0.00017108444,-7.1009745e-05,3.9272727966308594,103.07374572753906
1779201900.324162,7.081110715866089,hold-xy,23000,35.09575036240177,0.004450351,0.0028949229,0.0,0.0069799144,-0.0015091188,0.03727842,0.006523242685943842,-0.01809830404818058,-0.6521384716033936,-0.7578557729721069,81.43844274890469,0.021686553955078125,130,0.0004387647,-0.0003815256,0.000581443233406887,0.00088798103,-0.00080878375,0.0012011000813616326,0.00031195433,0.00049067376,-0.00066757563,-0.000998491,3.9272727966308594,103.0367660522461
1779201900.392807,7.1497557163238525,hold-xy,23000,35.09575036240177,0.0033587383,0.0019339537,0.0,0.0069453865,-0.001455416,0.037274465,0.006603317800909281,-0.01713218167424202,-0.6521749496459961,-0.7578460574150085,81.44042605084242,0.0006003379821777344,131,0.00040423684,-0.00032782275,0.0005204566999388651,0.0005061491,-0.0003866029,0.0006369055481899845,0.00026400565,0.00044852667,-0.00030696273,-0.00055805244,3.9272727966308594,103.05979919433594
1779201900.4759204,7.2328691482543945,hold-xy,23000,35.09575036240177,0.0031520496,0.0017881759,0.0,0.006955182,-0.0014600866,0.037302613,0.005877992138266563,-0.015701621770858765,-0.652142345905304,-0.7579111456871033,81.43093794707605,0.00168609619140625,132,0.0004140325,-0.00033249334,0.0005310129063357213,0.00039013,-0.00028770376,0.0004847420725388733,0.0002670903,0.00045895262,-0.0002263622,-0.00042864325,3.9272727966308594,103.05979919433594
1779201900.577233,7.334181785583496,hold-xy,23000,35.09575036240177,-0.0020481006,-0.0023872121,0.0,0.0065618716,-0.0010259505,0.03706573,0.013308925554156303,-0.013407688587903976,-0.652224600315094,-0.7577902674674988,81.43377821732936,0.0012569427490234375,133,2.0721927e-05,0.00010164268,0.00010373347228990852,-0.0008866406,0.0010787186,0.0013963400085008344,-0.000103595376,5.3508384e-06,0.0009346176,0.0010374273,3.9272727966308594,103.09027862548828
1779201900.6789916,7.435940265655518,hold-xy,23000,35.09575036240177,0.00481839,0.002714734,0.0,0.0070124026,-0.0014707306,0.037270173,0.006263350136578083,-0.0176923219114542,-0.6517634391784668,-0.7581901550292969,81.3803420725892,0.019638538360595703,134,0.00047125295,-0.00034313742,0.000582943079581803,0.0010004162,-0.000845269,0.0013096993360405722,0.00026863287,0.0005173577,-0.0006857848,-0.0011158009,3.9272727966308594,103.14557647705078
1779201900.7812588,7.538207530975342,hold-xy,24000,36.62165255207141,0.002358682,0.0005570195,0.0,0.006872352,-0.0012855558,0.03720995,0.008874684572219849,-0.017613330855965614,-0.6517101526260376,-0.7582116723060608,81.370915385106,0.01793193817138672,135,0.00033120252,-0.00015796255,0.00036694315635034044,0.00029619818,-5.739578e-05,0.00030170786695685246,0.00010648176,0.0003511537,-1.2305321e-05,-0.00030145684,3.916715621948242,103.08956146240234
1779201900.863245,7.620193719863892,hold-xy,24000,36.62165255207141,0.0046613584,0.0019752276,0.0,0.007066224,-0.0014398042,0.03729666,0.005293240305036306,-0.01645294949412346,-0.651648223400116,-0.758324384689331,81.35893177749519,0.008442878723144531,136,0.0005250741,-0.000312211,0.0006108833953792613,0.0008431552,-0.0005460465,0.0010045284648629738,0.00022977783,0.0005660218,-0.00041316927,-0.0009156247,3.916715621948242,103.08956146240234
1779201900.9655485,7.722497224807739,hold-xy,25000,38.147554741741054,0.0035127087,0.00089817465,0.0,0.007025281,-0.001360544,0.037280858,0.006408669054508209,-0.01669260673224926,-0.6513970494270325,-0.7585263252258301,81.32137438857316,0.017734050750732422,137,0.00048413128,-0.00023295078,0.0005372608078695275,0.00045815256,-0.00012658833,0.0004753192195403237,0.00015723199,0.00051373855,-5.6007353e-05,-0.000472008,3.916715621948242,103.0519790649414
1779201901.0520182,7.808966875076294,hold-xy,25000,38.147554741741054,0.0034708162,0.00084226043,0.0,0.007046232,-0.0013618525,0.037238248,0.007175571285188198,-0.017260368913412094,-0.651301920413971,-0.7585883736610413,81.3086712682191,0.01235342025756836,138,0.0005050823,-0.00023425929,0.0005567634613496001,0.00038913672,-9.288566e-05,0.00040006891549319303,0.00015524564,0.00053468155,-3.3016113e-05,-0.00039870426,3.906158447265625,103.03189849853516
1779201901.1339025,7.890851259231567,hold-xy,26000,39.6734569314107,0.003231198,0.0010114964,0.0,0.0070437696,-0.0013773674,0.037216358,0.008290302939713001,-0.0177898146212101,-0.6510317921638489,-0.7587966918945312,81.26928606408644,0.010622501373291016,139,0.0005026199,-0.0002497742,0.0005612610094478456,0.00026356088,-0.00012068526,0.00028987803332690995,0.00017058698,0.00053470925,-7.9280755e-05,-0.00027882584,3.906158447265625,103.05323791503906
1779201901.2252367,7.982185363769531,hold-xy,26000,39.6734569314107,-0.0015524668,-0.0029517815,0.0,0.0067032576,-0.0009854753,0.037145536,0.012492810375988483,-0.011520317755639553,-0.6514649987220764,-0.7584883570671082,81.31469341114182,0.011891841888427734,140,0.00016210787,0.00014211796,0.00021558403466186775,-0.0009497314,0.0012208882,0.0015467894781596638,-0.00016496773,0.00013878806,0.0010634714,0.0011232035,3.895601272583008,103.09394836425781
1779201901.3065848,8.063533544540405,hold-xy,26000,39.6734569314107,0.005767664,0.003288379,0.0,0.0071660224,-0.0015143715,0.03728373,0.005265477579087019,-0.0158801581710577,-0.6513462662696838,-0.7585961818695068,81.31140216545109,0.011814594268798828,141,0.00062487274,-0.00038677827,0.0007348900285332198,0.0010401772,-0.0010940186,0.0015095844324841535,0.00028794375,0.00067613,-0.0009243301,-0.001193507,3.895601272583008,103.00521087646484
1779201901.389101,8.146049737930298,hold-xy,26000,39.6734569314107,0.0045096655,0.0016949915,0.0,0.0071350904,-0.001425013,0.037219062,0.0065965051762759686,-0.01639784872531891,-0.6508366465568542,-0.7590120434761047,81.23564822948758,0.01264810562133789,142,0.0005939407,-0.00029741973,0.0006642469978598341,0.0006145185,-0.0004376215,0.0007544173428227272,0.00020344758,0.0006323236,-0.0003388768,-0.00067402376,3.895601272583008,102.90937042236328
1779201901.451293,8.208241701126099,hold-xy,26000,39.6734569314107,0.005312508,0.0019583213,0.0,0.0072208773,-0.0014737919,0.037305295,0.005670459009706974,-0.01741333119571209,-0.6512274146080017,-0.7586616277694702,81.2985555271476,0.0008997917175292969,143,0.00067972764,-0.00034619868,0.0007628127082211659,0.0007782287,-0.00050424726,0.0009273107274693773,0.00023938087,0.0007242789,-0.0003807085,-0.00084555673,3.895601272583008,102.90937042236328
1779201901.539762,8.296710729598999,hold-xy,26000,39.6734569314107,0.0036653788,0.00097400194,0.0,0.007139653,-0.0013998281,0.037261378,0.00659228814765811,-0.01703340746462345,-0.6514105200767517,-0.7585055828094482,81.32451748601572,0.00888371467590332,144,0.0005985033,-0.0002722349,0.0006575089488584529,0.00024200455,-7.728068e-05,0.00025404429597716664,0.00017884318,0.0006327188,-3.989304e-05,-0.0002508925,3.895601272583008,102.82453155517578
1779201901.6419575,8.398906230926514,hold-xy,26000,39.6734569314107,0.0025626984,0.00012699756,0.0,0.007069107,-0.0013172925,0.037265506,0.007620254065841436,-0.01581198163330555,-0.6512823700904846,-0.758632481098175,81.30065473222987,0.019971132278442383,145,0.00052795745,-0.00018969923,0.0005610034509176458,-6.288958e-05,0.00021767634,0.00022657908995789365,0.00010766354,0.0005505755,0.00020566008,9.508952e-05,3.895601272583008,102.77327728271484
1779201901.7074196,8.464368343353271,hold-xy,26000,39.6734569314107,0.0041141766,0.0013394854,0.0,0.0071740765,-0.0014216164,0.037297122,0.005240990314632654,-0.015151224099099636,-0.6511698961257935,-0.7587626576423645,81.28243790131118,0.005409955978393555,146,0.0006329268,-0.0002940232,0.000697886816652135,0.0003494979,-0.00023872759,0.0004232489018360114,0.00019469768,0.0006701782,-0.00018299845,-0.00038164278,3.895601272583008,102.76307678222656
1779201901.7942262,8.551174879074097,hold-xy,26000,39.6734569314107,0.0046879933,0.0015322261,0.0,0.007237233,-0.001457138,0.037286397,0.005301820579916239,-0.016735637560486794,-0.6511491537094116,-0.7587466835975647,81.28448584920079,0.004492759704589844,147,0.00069608353,-0.00032954477,0.0007701506533305635,0.00046063354,-0.00028858695,0.0005435675637433292,0.000220263,0.00073798123,-0.00021545551,-0.0004990437,3.895601272583008,102.82093811035156
1779201901.8958004,8.652749061584473,hold-xy,26000,39.6734569314107,0.0016603302,-0.00039099736,0.0,0.0070167147,-0.0012583276,0.037210844,0.008196753449738026,-0.015388941392302513,-0.6510770320892334,-0.758811354637146,81.26806945834548,0.006003141403198242,148,0.00047556497,-0.0001307344,0.0004932073987698437,-0.00033869044,0.00039404002,0.0005195947996235325,5.7022815e-05,0.00048989995,0.00033805572,0.0003945847,3.895601272583008,102.82368469238281
1779201901.9769542,8.733902931213379,hold-xy,27000,41.19935912108034,0.00437376,0.0012090629,0.0,0.0071978476,-0.0014004372,0.03727822,0.004828453995287418,-0.014650301076471806,-0.6512776613235474,-0.7586827874183655,81.29731842278917,0.00551295280456543,149,0.0006566979,-0.000272844,0.0007111230109349224,0.00042848726,-0.00024635176,0.0004942575282885269,0.00017033966,0.0006904205,-0.00017868231,-0.00046082877,3.895601272583008,102.82368469238281
1779201902.0828118,8.839760541915894,hold-xy,27000,41.19935912108034,0.0015475418,-0.0015328033,0.0,0.007005345,-0.0011291439,0.037184704,0.008956779725849628,-0.014834943227469921,-0.6510608196258545,-0.7588276863098145,81.26363311370038,0.011667728424072266,150,0.0004641954,-1.5506521e-06,0.0004641979733699799,-0.00027928772,0.00064385956,0.0007018238745880127,-6.8973146e-05,0.00045904517,0.0005939688,0.00037384202,3.8850440979003906,102.79950714111328
1779201902.167598,8.924546718597412,hold-xy,28000,42.72526131074998,0.003764729,0.00017532767,0.0,0.00715784,-0.0012708167,0.03725973,0.0076172444969415665,-0.016056444495916367,-0.6509916186332703,-0.7588768601417542,81.25752517705247,0.005129814147949219,151,0.00061669014,-0.00014322344,0.00063310321968413,0.0003054445,-1.4694e-05,0.0003057977366113627,4.7826463e-05,0.00063129416,3.1902324e-05,-0.0003041291,3.8850440979003906,102.79950714111328
1779201902.269589,9.026537656784058,hold-xy,28000,42.72526131074998,0.0057021906,0.00053244526,0.0,0.0073349476,-0.0013271533,0.037293,0.005721083376556635,-0.016046591103076935,-0.6513731479644775,-0.7585662603378296,81.31584708261373,0.015498638153076172,152,0.0007937979,-0.00019956008,0.000818498204724707,0.0007937184,-0.0001947499,0.00081726150499528,7.741876e-05,0.0008148286,-7.2675735e-05,-0.0008140237,3.8850440979003906,102.76471710205078
1779201902.370883,9.12783169746399,hold-xy,29000,44.25116350041962,0.0025849808,-0.0028939727,0.0,0.00714254,-0.000982454,0.037123907,0.012352019548416138,-0.013849616050720215,-0.6515576243400574,-0.7583721280097961,81.33450839145094,0.014326810836791992,153,0.0006013904,0.00014513917,0.0006186564061510313,-7.728755e-06,0.0008728871,0.0008729213025721047,-0.00023409113,0.00057265797,0.0008617585,0.00013915444,3.8744869232177734,102.67017364501953
1779201902.4378624,9.19481110572815,hold-xy,29000,44.25116350041962,0.0026967607,-0.004210959,0.0,0.0071659107,-0.0008449834,0.03721576,0.011392350308597088,-0.014671573415398598,-0.651256799697876,-0.758630096912384,81.29176638762651,0.007597208023071289,154,0.000624761,0.00028260984,0.0006857073769512091,8.9709625e-05,0.0011705346,0.0011739672731182925,-0.00037394254,0.0005747709,0.0011706232,8.854684e-05,3.869208335876465,102.71146392822266
1779201902.5252323,9.282181024551392,hold-xy,29000,44.25116350041962,0.009269239,-0.00076231017,0.0,0.0076572727,-0.0011461563,0.037305303,0.0048931133933365345,-0.013924943283200264,-0.6515157222747803,-0.758491575717926,81.33113080245961,0.012432336807250977,155,0.001116123,-1.8563122e-05,0.0011162774168684585,0.0018488149,-0.00027533853,0.0018692051269538026,-0.00014987515,0.0011061704,6.4671913e-06,-0.001869194,3.8639297485351562,102.65975952148438
1779201902.6065001,9.363448858261108,hold-xy,29000,44.25116350041962,0.00898719,-0.0022906181,0.0,0.007737493,-0.0010368191,0.037186574,0.012261307798326015,-0.011918354779481888,-0.653647243976593,-0.7566061615943909,81.64588159656267,0.020168066024780273,156,0.0011963435,9.077415e-05,0.0011997823196063383,0.0016214576,0.00025334276,0.0016411299008197485,-0.00026362864,0.0011704604,0.0004862374,-0.0015674441,3.8639297485351562,102.6284408569336
1779201902.677261,9.434209823608398,hold-xy,29000,44.25116350041962,0.01192135,-0.0011387471,0.0,0.008035047,-0.001148344,0.03730802,0.007644000928848982,-0.0132869528606534,-0.6543574929237366,-0.7560300230979919,81.75858287023654,0.010579347610473633,157,0.0014938973,-2.0750798e-05,0.0014940413845968665,0.002245991,-0.00023905856,0.002258677608232022,-0.00019360526,0.0014814442,8.53604e-05,-0.0022570642,3.8639297485351562,102.6284408569336
1779201902.7428591,9.499807834625244,hold-xy,29000,44.25116350041962,0.01603536,0.0012978131,0.0,0.00838251,-0.0013623387,0.037277695,0.004558522719889879,-0.013277899473905563,-0.6548193693161011,-0.75565505027771,81.82953176822431,0.013701915740966797,158,0.0018413607,-0.00023474544,0.001856263608164179,0.0032406738,-0.001194919,0.0034539538847406623,-2.932921e-05,0.001856032,-0.0007222296,-0.0033776,3.8639297485351562,102.71459197998047
1779201902.824383,9.581331729888916,hold-xy,30000,45.777065690089266,0.016885173,0.0009494379,0.0,0.008628072,-0.0014019106,0.037329204,0.004981301259249449,-0.013602123595774174,-0.6556086540222168,-0.7549619078636169,81.95007845222058,0.003954887390136719,159,0.0020869225,-0.00027431734,0.0021048741553397698,0.003075613,-0.00096651283,0.0032239017746062623,-2.0629668e-05,0.0021047732,-0.0005262931,-0.0031806538,3.8586511611938477,102.61503601074219
1779201902.9262502,9.683198928833008,hold-xy,30000,45.777065690089266,0.017283008,-0.0015401989,0.0,0.0088532865,-0.0012404546,0.037397824,0.007141862064599991,-0.01733790710568428,-0.6561173796653748,-0.7544258832931519,82.03858317876015,0.013471364974975586,160,0.0023121368,-0.000112861395,0.002314889659090253,0.0028845347,-0.00015207165,0.002888540495698021,-0.00020847176,0.0023054834,0.00024892006,-0.0028777951,3.853372573852539,102.48030853271484
1779201903.0147598,9.771708488464355,hold-xy,30000,45.777065690089266,0.023087118,-0.007080973,0.0,0.00959174,-0.0008333791,0.037441622,0.012720393016934395,-0.022706998512148857,-0.6553142070770264,-0.7549079656600952,81.93609148541736,0.00483393669128418,161,0.00305059,0.0002942141,0.0030647448529049904,0.004299594,0.0011506414,0.004450897038325002,-0.00071923435,0.002979155,0.0017424007,-0.004095671,3.853372573852539,102.28997039794922
1779201903.1177728,9.87472152709961,hold-xy,30000,45.777065690089266,0.024305396,-0.006766231,0.0,0.009917121,-0.0008173939,0.03730024,0.011076687835156918,-0.02073674649000168,-0.6550060510635376,-0.7552578449249268,81.88140510453985,0.015673398971557617,162,0.0033759717,0.00031019934,0.0033901929499047597,0.0040687453,0.0008574765,0.004158119104237211,-0.0007838537,0.0032983304,0.0014234813,-0.0039068726,3.8480939865112305,102.19390106201172
1779201903.2192297,9.976178407669067,hold-xy,31000,47.30296787975891,0.02652329,-0.007175339,0.0,0.010350708,-0.00077088736,0.03704516,0.011330641806125641,-0.016990413889288902,-0.6536970734596252,-0.7564807534217834,81.66840046137513,0.01466989517211914,163,0.0038095582,0.00035670586,0.0038262218198749543,0.0041176463,0.0007364028,0.004182977538444673,-0.00090495346,0.0037176649,0.0013252858,-0.0039674826,3.853372573852539,102.30152130126953
1779201903.3003798,10.057328462600708,hold-xy,31000,47.30296787975891,0.029836278,-0.0046376837,0.0,0.010786325,-0.000976719,0.037242368,0.010720246471464634,-0.017727553844451904,-0.6537609696388245,-0.756417453289032,81.68094116482736,0.01421213150024414,164,0.004245175,0.00015087426,0.004247855322248829,0.0044837315,-0.00024117943,0.0044902132535038835,-0.00076350133,0.0041786768,0.00041008854,-0.0044714473,3.842815399169922,102.38632202148438
1779201903.386105,10.143053770065308,hold-xy,31000,47.30296787975891,0.03295557,-0.0062003923,0.0,0.011319462,-0.0008760225,0.037691858,0.008004629984498024,-0.01993725448846817,-0.6557489037513733,-0.7546733021736145,81.99227756385876,0.0038535594940185547,165,0.0047783125,0.00025157072,0.00478493027919864,0.0048032124,0.00014557615,0.00480541791878544,-0.0009147681,0.0046966746,0.00081327575,-0.004736098,3.842815399169922,102.33460998535156
1779201903.4511986,10.208147287368774,hold-xy,31000,47.30296787975891,0.045727484,-0.016786905,0.0,0.012515131,-0.0002626814,0.03798966,0.008859952911734581,-0.0241449773311615,-0.6551337242126465,-0.7550750374794006,81.91765324739552,0.0039594173431396484,166,0.0059739817,0.0008649118,0.006036267855750881,0.00888177,0.0029332459,0.009353596467865386,-0.0016962397,0.0057930388,0.004152853,-0.008381144,3.842815399169922,102.33460998535156
1779201903.5338893,10.29083800315857,hold-xy,31000,47.30296787975891,0.0747305,-0.034569044,0.0,0.015464915,0.00094551593,0.03830088,0.007303592748939991,-0.026851514354348183,-0.6536702513694763,-0.7562677264213562,81.71078753740845,0.005761384963989258,167,0.008923765,0.0020731091,0.009161406687892207,0.01715739,0.0065342314,0.01835952724484972,-0.0033379896,0.008531658,0.008939547,-0.016036106,3.8375368118286133,102.33126831054688
1779201903.636971,10.393919706344604,hold-xy,32000,48.82887006942855,0.1028305,-0.061224822,0.0,0.019105826,0.003230202,0.03860517,0.012783728539943695,-0.018356839194893837,-0.6541478037834167,-0.7560359239578247,81.74091564488663,0.016727209091186523,168,0.012564676,0.004357795,0.013298927032066768,0.023867773,0.0120146535,0.026721199291815365,-0.0061175087,0.011808367,0.01531864,-0.021894332,3.8322582244873047,102.23047637939453
1779201903.7287345,10.48568320274353,hold-xy,32000,48.82887006942855,0.1543508,-0.109294325,0.0,0.02526021,0.00717175,0.03933986,0.012111478485167027,-0.02544974908232689,-0.6520227193832397,-0.7576754689216614,81.45088554748591,0.020304203033447266,169,0.01871906,0.008299343,0.020476384576155835,0.037643924,0.021818936,0.04351012597532234,-0.010989849,0.017277313,0.02717254,-0.033982117,3.826979637145996,102.2247543334961
1779201903.7925885,10.549537181854248,hold-xy,32000,48.82887006942855,0.2060878,-0.163521,0.0,0.031124743,0.011252978,0.042343665,0.006238291971385479,-0.019029326736927032,-0.6497109532356262,-0.7599175572395325,81.07546101622805,0.01819157600402832,170,0.024583593,0.012380571,0.027525107715210887,0.053021207,0.033833683,0.06289647309141753,-0.016044425,0.022365332,0.041649442,-0.04713057,3.826979637145996,102.22244262695312
1779201903.874387,10.631335735321045,hold-xy,32000,48.82887006942855,0.2514291,-0.22468133,0.0,0.038259953,0.01705472,0.04724103,0.013773919083178043,-0.025939254090189934,-0.6462857723236084,-0.7625300884246826,80.58681342470754,0.017608642578125,171,0.031718805,0.018182313,0.0365606221965978,0.06309839,0.04481117,0.07739152516512174,-0.023125187,0.028317925,0.0545277,-0.054919742,3.826979637145996,102.22244262695312
1779201903.9604075,10.717356204986572,hold-xy,32000,48.82887006942855,0.2900955,-0.2876401,0.0,0.046013705,0.024025857,0.05461106,0.012765569612383842,-0.00748333940282464,-0.6431235671043396,-0.7656193971633911,80.05287375908613,0.01006174087524414,172,0.039472558,0.02515345,0.04680575780037968,0.06902932,0.053719,0.08746872144888071,-0.031593796,0.0345342,0.06483555,-0.058712255,3.826979637145996,102.44046020507812
1779201904.0618744,10.818823099136353,hold-xy,32000,48.82887006942855,0.30396992,-0.36359882,0.0,0.0522884,0.032655172,0.06184673,0.020390711724758148,-0.012157285585999489,-0.6377633810043335,-0.7698663473129272,79.25684231873151,0.01979804039001465,173,0.04574725,0.033782765,0.05686902577468233,0.06884157,0.065825015,0.09524754182861292,-0.041718237,0.038648088,0.07750381,-0.055364735,3.816422462463379,102.66700744628906
1779201904.1508155,10.907764196395874,hold-xy,32000,48.82887006942855,0.28150696,-0.43113357,0.0,0.055164397,0.04240226,0.06883886,0.022686295211315155,-0.0018745085690170527,-0.6373212933540344,-0.7702619433403015,79.17959835271597,0.012576580047607422,174,0.04862325,0.043529853,0.0652615393541788,0.0571614,0.07648567,0.09548551283514074,-0.051884007,0.039586846,0.085856766,-0.041786358,3.816422462463379,102.88611602783203
1779201904.235193,10.992141723632812,hold-xy,32000,48.82887006942855,0.22631544,-0.51146907,0.0,0.054366756,0.054062884,0.073364876,0.021883616223931313,-0.011063979007303715,-0.6411199569702148,-0.7670488953590393,79.75451451518623,0.009529352188110352,175,0.047825605,0.055190478,0.0730292913621496,0.03727586,0.09355366,0.10070638944308075,-0.062817,0.037246503,0.09869203,-0.020041468,3.8217010498046875,103.18567657470703
1779201904.342013,11.098961591720581,hold-xy,32000,48.82887006942855,0.15704629,-0.59736747,0.0,0.05090175,0.0678087,0.07430334,0.016814861446619034,-0.019238591194152832,-0.6471239924430847,-0.7619564533233643,80.68093230953501,0.023047447204589844,176,0.0443606,0.068936296,0.08197606592037938,0.014951808,0.109685495,0.11069988455300096,-0.07520988,0.032612115,0.110659026,0.0030071437,3.8217010498046875,103.4113540649414
1779201904.403575,11.160523653030396,hold-xy,32000,48.82887006942855,0.071821764,-0.71777546,0.0,0.04604756,0.0841975,0.07271945,0.01450832188129425,-0.02518443763256073,-0.6488012671470642,-0.7604025602340698,80.96128050741305,0.0008463859558105469,177,0.039506413,0.08532509,0.0940272731101667,-0.0069191447,0.13547678,0.13565335694747352,-0.090472095,0.025611104,0.13270748,0.028116884,3.8217010498046875,103.59172058105469
1779201904.5054653,11.26241397857666,hold-xy,32000,48.82887006942855,0.016159989,-0.80591464,0.0,0.042060804,0.09959713,0.06932785,0.012315846048295498,-0.025642167776823044,-0.649060845375061,-0.760204553604126,81.00423675747055,0.010508537292480469,178,0.035519652,0.10072473,0.10680410304860771,-0.017811533,0.14492571,0.14601614186096967,-0.10503971,0.019333296,0.14035808,0.040253244,3.8217010498046875,103.64566802978516
1779201904.5889387,11.345887422561646,hold-xy,32000,48.82887006942855,-0.053553693,-0.97879505,0.0,0.037676863,0.12286873,0.062243186,0.014890788123011589,-0.030603667721152306,-0.6481265425682068,-0.7607717514038086,80.88975403690287,0.0021505355834960938,179,0.031135714,0.123996325,0.12784569290631745,-0.02678977,0.17747293,0.17948352597728975,-0.12736203,0.011110039,0.17099245,0.054551944,3.8217010498046875,103.48750305175781
1779201904.6908574,11.447806119918823,hold-xy,32000,48.82887006942855,-0.09878201,-1.1195414,0.0,0.034805402,0.14470726,0.054572042,0.014784160070121288,-0.02649126574397087,-0.646490216255188,-0.7623188495635986,80.61974061858749,0.012461423873901367,180,0.028264252,0.14583486,0.1485485615095366,-0.028156385,0.19574854,0.1977631743343221,-0.14849149,0.0041172653,0.18854196,0.05968417,3.8217010498046875,103.20567321777344
