wall_time_s,elapsed_s,mode,thrust_raw,thrust_percent,roll_cmd_deg,pitch_cmd_deg,yawrate_cmd_deg_s,mocap_x,mocap_y,mocap_z,mocap_qx,mocap_qy,mocap_qz,mocap_qw,yaw_deg,mocap_age_s,mocap_frame_count,drift_x_m,drift_y_m,horizontal_drift_m,velocity_x_m_s,velocity_y_m_s,horizontal_speed_m_s,body_error_x_m,body_error_y_m,body_velocity_x_m_s,body_velocity_y_m_s,battery_v,estimate_z
1779207182.783259,0.00032639503479003906,hold-xy,0,0.0,0.0,-0.0,0.0,0.0045988364,0.00839062,0.037765745,-0.004804280120879412,-0.006606923416256905,0.6321851015090942,0.7747743129730225,78.428043934639,0.009085893630981445,201,0.0,0.0,0.0,0.0,0.0,0.0,0.0,0.0,0.0,0.0,4.043401718139648,109.31985473632812
1779207182.8251288,0.04219627380371094,hold-xy,0,0.0,0.0017099814,0.00028282555,0.0,0.004642493,0.008388902,0.03769149,-0.005981472320854664,-0.005016278941184282,0.6317018270492554,0.775172233581543,78.35452934409686,0.015316009521484375,202,4.3656677e-05,-1.7182902e-06,4.369047906107662e-05,0.00036748292,-1.4463818e-05,0.0003677674397997917,-7.12941e-06,4.3104865e-05,6.0012273e-05,-0.00036283804,4.043401718139648,109.31985473632812
1779207182.8658607,0.08292818069458008,hold-xy,0,0.0,-7.4693584e-05,-0.00038304727,0.0,0.0045975456,0.008379247,0.037745398,-0.004386929329484701,-0.007981738075613976,0.632250189781189,0.7747107744216919,78.43984601851605,0.00999307632446289,204,-1.2908131e-06,-1.1373311e-05,1.1446327116544813e-05,-3.554873e-05,-7.3017225e-05,8.121100587518283e-05,1.1401277e-05,1.0145445e-06,-7.8659905e-05,2.0195213e-05,4.043401718139648,109.29277801513672
1779207182.9074435,0.1245110034942627,hold-xy,0,0.0,-3.4851313e-05,0.0005870436,0.0,0.004603396,0.008405405,0.03772181,-0.0050893076695501804,-0.0062548089772462845,0.6320040822029114,0.7749230861663818,78.40078452036714,0.006592273712158203,205,4.5597553e-06,1.4784746e-05,1.547191233560798e-05,1.4133879e-05,0.00012333847,0.0001241456581985687,-1.5399617e-05,1.4939485e-06,0.00012366148,1.0953751e-05,4.043401718139648,109.29277801513672
1779207182.9279063,0.1449737548828125,hold-xy,0,0.0,0.0012748954,0.00055916107,0.0,0.004628767,0.008402602,0.037743535,-0.005170118063688278,-0.0063911001197993755,0.6318958401679993,0.7750096917152405,78.38497728751034,0.00040078163146972656,206,2.993038e-05,1.1981465e-05,3.223946376869347e-05,0.00029544625,5.4785316e-05,0.0003004828166362899,-1.776214e-05,2.6905192e-05,0.00011314705,-0.00027836606,4.043401718139648,109.29277801513672
1779207182.9685752,0.18564271926879883,hold-xy,0,0.0,0.0011816985,0.00061247556,0.0,0.0046347864,0.008405595,0.0376937,-0.005881639663130045,-0.0055723306722939014,0.6317729949951172,0.775111198425293,78.36573020354486,0.010716915130615234,207,3.5949983e-05,1.4974736e-05,3.89441142226168e-05,0.00026630866,6.793448e-05,0.00027483703644925545,-2.1916887e-05,3.219152e-05,0.00012024357,-0.00024713736,4.043401718139648,109.29742431640625
1779207183.010513,0.22758054733276367,hold-xy,0,0.0,-0.00052220945,-0.0003530077,0.0,0.0045858845,0.008389089,0.037749123,-0.00462903780862689,-0.007465352304279804,0.6321327686309814,0.7748103141784668,78.421627906913,0.005723476409912109,208,-1.2951903e-05,-1.5310943e-06,1.3042087576668588e-05,-0.00012618079,-5.7956535e-05,0.00013885442832641158,4.0994905e-06,-1.2381043e-05,-8.210269e-05,0.0001119808,4.043401718139648,109.29742431640625
1779207183.0309677,0.24803519248962402,hold-xy,0,0.0,-0.0018576547,0.0013122282,0.0,0.004576819,0.008403835,0.03775125,-0.004792289808392525,-0.007140391040593386,0.6320633292198181,0.7748690843582153,78.4108493650551,0.016018390655517578,209,-2.2017397e-05,1.3214536e-05,2.567858572842376e-05,-0.00035601555,0.00039484442,0.0005316476109996192,-8.522007e-06,-2.4223236e-05,0.00031527402,0.0004280788,4.043401718139648,109.29742431640625
1779207183.0512593,0.2683267593383789,hold-xy,0,0.0,-0.0007107767,0.0017766851,0.0,0.0045959977,0.008420788,0.037710626,-0.005230031441897154,-0.006565533112734556,0.6319356560707092,0.7749754190444946,78.39112137076613,0.0022225379943847656,210,-2.8386712e-06,3.01674e-05,3.030066216241429e-05,-8.042081e-05,0.0004255916,0.0004331232119599944,-2.8979075e-05,-8.851181e-06,0.00040070267,0.0001644174,4.043401718139648,109.30158233642578
1779207183.092079,0.3091464042663574,hold-xy,0,0.0,0.0006694632,0.0010117411,0.0,0.0046203313,0.008409383,0.037755,-0.00556325726211071,-0.005103146657347679,0.6319769620895386,0.774950385093689,78.39530227745385,0.012482166290283203,211,2.1494925e-05,1.8762425e-05,2.8531743281218544e-05,0.00018258224,0.00018595433,0.0002606056033751638,-2.270278e-05,1.7281327e-05,0.00021888112,-0.0001414438,4.043401718139648,109.30158233642578
1779207183.1330166,0.3500840663909912,hold-xy,0,0.0,0.00051512534,0.00039214763,0.0,0.004618859,0.008400228,0.037743986,-0.005439334083348513,-0.005187569186091423,0.6319882869720459,0.7749415040016174,78.39707548969204,0.01652836799621582,212,2.0022504e-05,9.607524e-06,2.2208223677361577e-05,0.00011583389,5.572071e-05,0.00012853905754470148,-1.3438279e-05,1.7681003e-05,7.7879486e-05,-0.00010225983,4.043401718139648,109.30158233642578
1779207183.154479,0.37154650688171387,hold-xy,0,0.0,0.00035917724,-0.00023862424,0.0,0.004615385,0.008387385,0.03775131,-0.005096788052469492,-0.005969423335045576,0.6320995092391968,0.7748474478721619,78.41450360180538,0.0031626224517822266,213,1.654867e-05,-3.2354146e-06,1.686198160111646e-05,5.116112e-05,-7.1620896e-05,8.801711656850617e-05,-1.53972e-07,1.6861279e-05,-5.9887017e-05,-6.450239e-05,4.043401718139648,109.34071350097656
1779207183.1750357,0.3921031951904297,hold-xy,0,0.0,0.00013467416,0.00041559344,0.0,0.0046149623,0.008396739,0.037748154,-0.005168818403035402,-0.005686192773282528,0.6320735812187195,0.7748702168464661,78.41029856481727,0.0030808448791503906,214,1.612585e-05,6.1187893e-06,1.724768453646313e-05,2.966668e-05,8.583776e-05,9.081978422982989e-05,-9.233749e-06,1.45677905e-05,9.004774e-05,-1.1816854e-05,4.043401718139648,109.34071350097656
1779207183.2222464,0.4393138885498047,hold-xy,0,0.0,-3.7912832e-07,0.00048569194,0.0,0.00461312,0.008401184,0.037734654,-0.0055214352905750275,-0.004777426831424236,0.6318777799606323,0.775033712387085,78.38026598227992,0.019293785095214844,215,1.4283694e-05,1.0563992e-05,1.7765749688074224e-05,2.9380662e-06,0.00010310764,0.00010314948874049095,-1.3224448e-05,1.1863214e-05,0.000101586316,1.7889603e-05,4.043401718139648,109.34071350097656
1779207183.2429867,0.4600541591644287,hold-xy,0,0.0,0.00019499098,0.00088269834,0.0,0.0046193693,0.008411953,0.037734505,-0.00520674791187048,-0.006435216870158911,0.6319489479064941,0.7749658226966858,78.39289541249533,0.008416414260864258,216,2.0532869e-05,2.1332875e-05,2.9608956008790888e-05,6.135115e-05,0.00017435453,0.00018483361902599837,-2.5027824e-05,1.5820817e-05,0.00018313284,-2.5016518e-05,4.043401718139648,109.32904815673828
1779207183.3053942,0.5224616527557373,hold-xy,0,0.0,0.0003126356,0.00039381062,0.0,0.0046225004,0.008401807,0.03774651,-0.005247343797236681,-0.006298086605966091,0.6318936944007874,0.7750117182731628,78.38453172413912,0.018461942672729492,217,2.3663975e-05,1.1187047e-05,2.617505926505839e-05,6.088501e-05,6.391917e-05,8.827595794837311e-05,-1.5722508e-05,2.0926931e-05,7.48689e-05,-4.6768502e-05,4.043401718139648,109.32904815673828
1779207183.3278606,0.5449280738830566,hold-xy,0,0.0,-0.0002352914,0.0011051773,0.0,0.0046159676,0.008419816,0.03769374,-0.005683633033186197,-0.0051766070537269115,0.6319688558578491,0.7749556303024292,78.39419234509272,0.013071060180664062,218,1.7131213e-05,2.9196031e-05,3.3850948566401956e-05,-2.7732913e-05,0.00023868521,0.00024029095624466108,-3.2045526e-05,1.0907387e-05,0.00022822604,7.518393e-05,4.043401718139648,109.32904815673828
1779207183.3481534,0.565220832824707,hold-xy,0,0.0,0.00053489633,0.00049770565,0.0,0.004625292,0.0084126,0.03773805,-0.005650786682963371,-0.0047521223314106464,0.631974458694458,0.774954080581665,78.39453247149685,0.012757539749145508,219,2.6455615e-05,2.1979213e-05,3.4394552843469994e-05,0.00011633785,6.2012376e-05,0.00013183333449238185,-2.6851983e-05,2.149317e-05,8.414844e-05,-0.00010148433,4.043401718139648,109.35432434082031
1779207183.3690507,0.586118221282959,hold-xy,0,0.0,-2.5715999e-05,0.00026048342,0.0,0.0046151336,0.008411596,0.037736267,-0.005285355728119612,-0.006238359492272139,0.6318609118461609,0.7750386595726013,78.37960226419891,0.0028913021087646484,220,1.6297214e-05,2.0975247e-05,2.656238253334751e-05,-1.7625971e-05,3.3618213e-05,3.7958649853495666e-05,-2.3828024e-05,1.1738206e-05,2.9378822e-05,2.4036308e-05,4.043401718139648,109.35432434082031
1779207183.3892891,0.6063566207885742,hold-xy,0,0.0,-0.0010443185,-0.0014287876,0.0,0.0045942347,0.008389932,0.037730627,-0.0050629256293177605,-0.006730786059051752,0.6318157315254211,0.7750728130340576,78.37362607005886,0.0028045177459716797,222,-4.601665e-06,-6.882474e-07,4.6528488085790366e-06,-0.00032080594,-0.00029622074,0.00043664994258717444,1.6014944e-06,-4.368549e-06,-0.00035479467,0.00025452682,4.043401718139648,109.35432434082031
1779207183.4096694,0.6267368793487549,hold-xy,0,0.0,0.0074940547,0.0050871493,0.0,0.004668829,0.008424498,0.03772582,-0.006552055478096008,-0.002516841283068061,0.6318252086639404,0.7750791907310486,78.37045284613326,0.013063430786132812,223,6.999262e-05,3.387779e-05,7.77603444165019e-05,0.001986435,0.0008171941,0.0021479594370335414,-4.7291654e-05,6.1726576e-05,0.0012008499,-0.0017809238,4.043401718139648,109.35432434082031
1779207183.452124,0.6691915988922119,hold-xy,0,0.0,0.00324277,0.0013524304,0.0,0.0045820056,0.008362103,0.03774967,-0.004742101766169071,-0.006842977833002806,0.6317941546440125,0.7750915288925171,78.37058603741463,0.003740072250366211,224,-1.6830862e-05,-2.8517097e-05,3.311348164180616e-05,0.0008874528,0.0002105225,0.0009120812354340982,3.1324475e-05,-1.0736857e-05,0.00038509432,-0.0008267978,4.043401718139648,109.33140563964844
1779207183.4724796,0.689547061920166,hold-xy,0,0.0,0.003321062,0.0039088577,0.0,0.004607672,0.008404652,0.037744485,-0.004887199494987726,-0.006943592336028814,0.632044792175293,0.774885356426239,78.40780728825273,0.003574848175048828,225,8.835457e-06,1.4031306e-05,1.6581400612367877e-05,0.000996443,0.0007693976,0.0012589167447220754,-1.552054e-05,5.8357246e-06,0.0009539336,-0.00082151196,4.043401718139648,109.33140563964844
1779207183.4927883,0.7098557949066162,hold-xy,0,0.0,0.007503491,0.0035606439,0.0,0.004649791,0.008402524,0.03767519,-0.005983683280646801,-0.0043533798307180405,0.6317939162254333,0.7751010656356812,78.36741067405535,0.013717174530029297,226,5.095452e-05,1.1903234e-05,5.232637966593485e-05,0.0019403995,0.00047578115,0.001997878385265789,-2.1932967e-05,4.750784e-05,0.00085726153,-0.001804611,4.043401718139648,109.33140563964844
1779207183.5130272,0.7300946712493896,hold-xy,0,0.0,0.0035467132,0.0029195377,0.0,0.0046128477,0.008418908,0.037756,-0.005075166933238506,-0.005453536752611399,0.6321136951446533,0.7748398184776306,78.41593404808673,0.0035178661346435547,227,1.40112825e-05,2.8287992e-05,3.1567808412419544e-05,0.0009941655,0.00049453566,0.0011103741196309951,-3.052534e-05,8.045505e-06,0.0006840964,-0.00087461004,4.043401718139648,109.33140563964844
1779207183.5346165,0.7516839504241943,hold-xy,0,0.0,0.0062049725,0.0011054657,0.0,0.004640666,0.008404965,0.037706755,-0.0047850897535681725,-0.007331906817853451,0.6318997144699097,0.7750007510185242,78.38696208570116,0.014885663986206055,228,4.1829422e-05,1.434423e-05,4.422055600785195e-05,0.001512377,-6.307382e-05,0.001513691751095805,-2.2470893e-05,3.8085647e-05,0.00024266008,-0.0014941146,4.043401718139648,109.33140563964844
1779207183.5549972,0.7720646858215332,hold-xy,0,0.0,0.0035063708,0.0009714347,0.0,0.0046269693,0.008410366,0.037733357,-0.005584413185715675,-0.004810093902051449,0.6320473551750183,0.7748947143554688,78.40537509259124,0.014014720916748047,229,2.8132927e-05,1.9745901e-05,3.4370948768403934e-05,0.0008653169,3.210119e-05,0.0008659121548342261,-2.4997293e-05,2.35902e-05,0.00020536274,-0.0008412074,4.043401718139648,109.35174560546875
1779207183.575361,0.7924284934997559,hold-xy,0,0.0,0.0008453576,2.7241433e-05,0.0,0.004600062,0.008404992,0.037743747,-0.004723245743662119,-0.0070912763476371765,0.6322203278541565,0.7747417688369751,78.43398374291435,0.014154911041259766,230,1.2256205e-06,1.4371239e-05,1.4423406153406872e-05,0.00020657503,-5.7257676e-05,0.00021436343752448013,-1.4325155e-05,-1.6806548e-06,-1.4677375e-05,-0.00021386039,4.043401718139648,109.35174560546875
1779207183.6385531,0.8556206226348877,hold-xy,0,0.0,0.0012482589,0.0002418152,0.0,0.0046271915,0.008407396,0.037783653,-0.005328993313014507,-0.004484035540372133,0.6322570443153381,0.7747274041175842,78.43603212108106,0.015082597732543945,231,2.8355047e-05,1.6775914e-05,3.294601584616354e-05,0.00027531642,-2.8494265e-05,0.00027678701509416915,-2.2119493e-05,2.4416551e-05,2.7274562e-05,-0.0002754399,4.043401718139648,109.31279754638672
1779207183.6629694,0.8800368309020996,hold-xy,0,0.0,-0.00095093437,-0.0003366355,0.0,0.0045816842,0.008403668,0.037738573,-0.005242710001766682,-0.006230244413018227,0.6318182945251465,0.775073766708374,78.37328855091862,0.006744861602783203,232,-1.7152168e-05,1.3047829e-05,2.1550932845608114e-05,-0.00022408832,-5.4092263e-05,0.0002305245063998983,-9.323351e-06,-1.9429819e-05,-9.814391e-05,0.00020858887,4.043401718139648,109.31279754638672
1779207183.6849794,0.9020469188690186,hold-xy,0,0.0,0.002534966,0.00085398357,0.0,0.0046358863,0.008410076,0.037728567,-0.005274287424981594,-0.005544525105506182,0.6320343017578125,0.7749026417732239,78.40431379648582,0.0074994564056396484,234,3.7049875e-05,1.9455329e-05,4.184737698375524e-05,0.00060814584,5.2570856e-05,0.0006104138415197657,-2.6505431e-05,3.2383097e-05,0.00017373775,-0.00058516685,4.043401718139648,109.31279754638672
1779207183.7090676,0.9261350631713867,hold-xy,0,0.0,-0.00044008304,-0.0010050415,0.0,0.004591942,0.008390149,0.03770269,-0.004826946649700403,-0.0070678978227078915,0.632029116153717,0.7748973369598389,78.40567722153209,0.008605480194091797,235,-6.894581e-06,-4.7124922e-07,6.9106672906639894e-06,-0.00014793244,-0.00022331449,0.0002678681942080788,1.8473123e-06,-6.6591865e-06,-0.0002484894,0.000100031975,4.043401718139648,109.31279754638672
1779207183.7303255,0.9473929405212402,hold-xy,0,0.0,0.0018372636,0.0008567614,0.0,0.004629316,0.008407063,0.037730884,-0.005214362870901823,-0.005483720917254686,0.6321262121200562,0.7748284935951233,78.41782705876489,0.009507179260253906,236,3.0479394e-05,1.64425e-05,3.4631622638152694e-05,0.00044724776,9.2946924e-05,0.00045680377573701855,-2.2227136e-05,2.655755e-05,0.00018084965,-0.00041947956,4.043401718139648,109.31279754638672
1779207183.751262,0.9683294296264648,hold-xy,0,0.0,0.0019327691,-0.0010611931,0.0,0.0046022544,0.008412706,0.037708282,-2.0,1.818739414215088,-8.404655456542969,4.661061683302027e+23,-90.0,0.020313262939453125,237,3.4179538e-06,2.2085384e-05,2.2348301841357207e-05,-0.0004883192,0.00023217019,0.0005407019836092026,2.2085384e-05,-3.4179538e-06,-0.00023217019,-0.0004883192,4.043401718139648,109.29131317138672
1779207183.7715816,0.9886491298675537,hold-xy,0,0.0,0.00016342205,0.0013109926,0.0,0.0046416344,0.0084231105,0.037646633,-0.005652780644595623,-0.005859887693077326,0.6314985156059265,0.7753342986106873,78.32552909991276,0.009863853454589844,239,4.2797998e-05,3.249012e-05,5.373338271457564e-05,4.21335e-05,0.00026396572,0.0002673071954525896,-4.0478215e-05,3.533823e-05,0.00026703085,1.21518315e-05,4.043401718139648,109.29131317138672
1779207183.7922752,1.0093426704406738,hold-xy,0,0.0,-0.00099521,-0.00060550263,0.0,0.004618815,0.008402532,0.037722513,-0.0051045725122094154,-0.00610778434202075,0.6319593787193298,0.7749606370925903,78.3939713706971,0.010038375854492188,241,1.9978732e-05,1.1911616e-05,2.326018759277288e-05,-0.00030413753,-0.000116093725,0.0003255416904103069,-1.5687412e-05,1.7173857e-05,-0.00017490677,0.0002745633,4.043401718139648,109.29131317138672
1779207183.8126621,1.0297296047210693,hold-xy,0,0.0,-0.0015322238,0.0007028937,0.0,0.004609136,0.008421805,0.037726447,-0.005185290705412626,-0.0063553499057888985,0.632000744342804,0.7749243378639221,78.40043771333701,0.010041236877441406,242,1.0299496e-05,3.1184405e-05,3.2841234696613705e-05,-0.00035534918,0.00020237922,0.0004089381156491975,-3.261844e-05,3.8188855e-06,0.00012679576,0.00038878428,4.043401718139648,109.29131317138672
1779207183.8329735,1.0500409603118896,hold-xy,0,0.0,-0.004026719,-0.00086073816,0.0,0.0045597916,0.008409571,0.03775064,-0.0047256676480174065,-0.007301284931600094,0.6321999430656433,0.7747565507888794,78.4313044721811,0.009851455688476562,243,-3.9044768e-05,1.8950552e-05,4.340065969736089e-05,-0.00097081554,-3.7356614e-05,0.0009715340032668493,-1.0735427e-05,-4.2051965e-05,-0.00023128767,0.0009436018,4.043401718139648,109.29131317138672
1779207183.8542917,1.0713591575622559,hold-xy,0,0.0,1.6107937e-05,0.00031867594,0.0,0.004609309,0.008414467,0.03773626,-0.005274166353046894,-0.005888940300792456,0.6320067644119263,0.7749225497245789,78.40068861437044,0.009445905685424805,245,1.0472722e-05,2.3846515e-05,2.6044849137881415e-05,4.254398e-06,4.1462503e-05,4.16801993673975e-05,-2.5465222e-05,5.4641177e-06,4.1471158e-05,4.169193e-06,4.043401718139648,109.2883071899414
1779207183.8947794,1.111846923828125,hold-xy,0,0.0,0.0012804756,0.00045708963,0.0,0.0046374043,0.008412931,0.037672643,-0.005921101663261652,-0.005276327952742577,0.6318313479423523,0.7750653028488159,78.37398528244466,0.019367694854736328,246,3.856793e-05,2.2310764e-05,4.455620625160203e-05,0.0002787279,1.395061e-05,0.0002790768015048216,-2.9625346e-05,3.3280543e-05,6.983439e-05,-0.0002701981,4.043401718139648,109.2883071899414
1779207183.915213,1.1322805881500244,hold-xy,0,0.0,-0.0007458082,0.00027375616,0.0,0.0046002376,0.008418327,0.037739623,-0.005097959190607071,-0.006800906267017126,0.6321098208427429,0.7748322486877441,78.41721947089914,0.009347200393676758,247,1.4011748e-06,2.7706847e-05,2.7742254611174578e-05,-0.0001710154,6.292155e-05,0.0001822234580423645,-2.7423946e-05,-4.1904373e-06,2.7303122e-05,0.00018016639,4.043401718139648,109.2883071899414
1779207183.935494,1.1525614261627197,hold-xy,0,0.0,0.0017039428,0.00024208998,0.0,0.0046345918,0.0084112985,0.037697785,-0.005115572828799486,-0.006639859173446894,0.6320384740829468,0.77489173412323,78.40642843890535,0.008829832077026367,248,3.5755336e-05,2.0678155e-05,4.1304117167327005e-05,0.00037582472,-5.7339024e-05,0.0003801736196134896,-2.7441954e-05,3.08702e-05,1.9359566e-05,-0.0003796804,4.043401718139648,109.2883071899414
1779207183.9971864,1.2142539024353027,hold-xy,0,0.0,-0.00011885631,-0.00050400844,0.0,0.0045838864,0.008396503,0.03768302,-0.005106050055474043,-0.0068763564340770245,0.6318601369857788,0.7750350832939148,78.38041486874305,0.018981218338012695,249,-1.4950056e-05,5.8822334e-06,1.6065640830614572e-05,-3.205848e-05,-0.00012625844,0.00013026488410501332,-2.7505534e-06,-1.5828433e-05,-0.00013012794,5.9714275e-06,4.043401718139648,109.2562026977539
1779207184.017657,1.234724521636963,hold-xy,0,0.0,0.0001284595,-0.0013536542,0.0,0.0045843883,0.008380506,0.037719496,-0.004883940331637859,-0.006830254569649696,0.6317992210388184,0.7750865817070007,78.37132455293344,0.018977642059326172,250,-1.4448073e-05,-1.0114163e-05,1.763641425961428e-05,-1.5085587e-05,-0.00032276954,0.0003231218755338102,1.2818836e-05,-1.2112825e-05,-0.0003191853,-5.0284114e-05,4.043401718139648,109.2562026977539
1779207184.037971,1.2550384998321533,hold-xy,0,0.0,0.0026843902,0.0012210588,0.0,0.0046303505,0.008405305,0.037731923,-0.005269919987767935,-0.005943179130554199,0.6320082545280457,0.7749209403991699,78.40098126280324,0.019075393676757812,251,3.1514093e-05,1.4685094e-05,3.4767659959560295e-05,0.0006714986,0.00014207151,0.000686363362585409,-2.0721465e-05,2.7917933e-05,0.0002741825,-0.0006292206,4.043401718139648,109.27476501464844
1779207184.079058,1.2961254119873047,hold-xy,0,0.0,0.0020474098,0.001528557,0.0,0.0046373075,0.008422426,0.037694752,-0.006206891033798456,-0.003150053322315216,0.6320151090621948,0.7749248743057251,78.39901134125311,0.018822908401489258,252,3.8471073e-05,3.1805597e-05,4.991612319965e-05,0.0005205358,0.00022369355,0.0005665653722910465,-3.8892198e-05,3.1289233e-05,0.00032380095,-0.0004649186,4.043401718139648,109.27476501464844
1779207184.0997522,1.316819667816162,hold-xy,0,0.0,0.00050753495,0.0011922354,0.0,0.0046163276,0.008427909,0.037725538,-0.005680959206074476,-0.00476623373106122,0.6319963335990906,0.7749359011650085,78.3977822271583,0.009019613265991211,253,1.749117e-05,3.7288293e-05,4.118686345134138e-05,0.00015799877,0.00021051799,0.00026321366591260375,-4.004415e-05,9.634514e-06,0.00023799263,-0.00011243196,4.043401718139648,109.27476501464844
1779207184.141037,1.3581044673919678,hold-xy,1000,1.525902189669642,0.0002316612,0.00016396627,0.0,0.0046081245,0.008407957,0.03772427,-0.005515598226338625,-0.0052292547188699245,0.6320203542709351,0.7749144434928894,78.40186707641554,0.008984088897705078,254,9.28808e-06,1.733657e-05,1.9667869730340613e-05,5.1041843e-05,2.5061017e-06,5.1103329728495675e-05,-1.8849918e-05,5.6129857e-06,1.271669e-05,-4.949582e-05,4.043401718139648,109.31178283691406
1779207184.1641722,1.381239652633667,hold-xy,1000,1.525902189669642,0.0009860792,0.0010757977,0.0,0.0046237297,0.008419768,0.037713803,-0.005240622907876968,-0.006382606457918882,0.6319870352745056,0.7749349474906921,78.39845268677887,0.011078596115112305,255,2.4893321e-05,2.9147603e-05,3.8330929521503036e-05,0.0002582303,0.00017015713,0.0003092512652609302,-3.3558266e-05,1.8523036e-05,0.00021861203,-0.00021873527,4.043401718139648,109.31178283691406
1779207184.22746,1.4445273876190186,hold-xy,1000,1.525902189669642,-0.000222858,0.00034425547,0.0,0.004586578,0.008409973,0.037757203,-0.004795311950147152,-0.007133584935218096,0.6321165561676025,0.7748256325721741,78.41870895630342,0.018548011779785156,256,-1.2258533e-05,1.9352883e-05,2.2908638084753842e-05,-1.891439e-05,6.646749e-05,6.910630350296542e-05,-1.6497876e-05,-1.5894206e-05,6.1317056e-05,3.187319e-05,4.043401718139648,109.31178283691406
1779207184.250331,1.4673984050750732,hold-xy,1000,1.525902189669642,0.0009710155,0.0011241825,0.0,0.0046180696,0.008424554,0.037719678,-0.005360117647796869,-0.00623084232211113,0.6319727301597595,0.7749470472335815,78.39612777186179,0.007522106170654297,257,1.9233208e-05,3.393367e-05,3.900525887657894e-05,0.00026547324,0.00017557248,0.0003182793376529559,-3.710877e-05,1.2014555e-05,0.00022538246,-0.00022473204,4.043401718139648,109.31058502197266
1779207184.291241,1.5083084106445312,hold-xy,1000,1.525902189669642,-0.00035698205,-0.0001290864,0.0,0.00458311,0.008403323,0.037712146,-0.005089231766760349,-0.006736386101692915,0.6317815780639648,0.7751004695892334,78.36858756087322,0.007489681243896484,258,-1.5726313e-05,1.2702309e-05,2.0215477878297923e-05,-7.03298e-05,-3.2669137e-05,7.75471031757372e-05,-9.270806e-06,-1.7964347e-05,-4.617781e-05,6.229899e-05,4.043401718139648,109.31058502197266
1779207184.3114753,1.5285427570343018,hold-xy,2000,3.051804379339284,0.0007623697,0.001421426,0.0,0.00460336,0.008422513,0.03771196,-0.0056628999300301075,-0.004517350345849991,0.6320567727088928,0.774888277053833,78.40644980433025,0.007512331008911133,259,4.5234337e-06,3.189221e-05,3.221140280685994e-05,0.00025133396,0.00026196524,0.0003630351720886034,-3.2150605e-05,-1.978157e-06,0.00030713057,-0.00019355967,4.043401718139648,109.31058502197266
1779207184.3317275,1.5487949848175049,hold-xy,2000,3.051804379339284,-0.0013664457,-0.0011240593,0.0,0.004584896,0.008408416,0.037740234,-0.0048506855964660645,-0.007091987878084183,0.6322165727615356,0.7747440934181213,78.43343959532892,0.017620325088500977,260,-1.3940502e-05,1.7795712e-05,2.260586084586853e-05,-0.00037010858,-0.00023350646,0.00043761356750158473,-1.4639167e-05,-1.7225555e-05,-0.00030297358,0.0003157731,4.043401718139648,109.31058502197266
1779207184.3533225,1.570389986038208,hold-xy,2000,3.051804379339284,-0.0008122706,2.4468434e-05,0.0,0.0045922007,0.00842471,0.03772443,-0.005153722129762173,-0.006298326421529055,0.632089376449585,0.7748527526855469,78.41346186875037,0.008491992950439453,261,-6.6356733e-06,3.40892e-05,3.472903194432676e-05,-0.00018774753,-4.3556647e-06,0.00018779804280388544,-3.2061787e-05,-1.3347194e-05,-4.1975574e-05,0.00018304687,4.043401718139648,109.31177520751953
1779207184.3769875,1.594054937362671,hold-xy,2000,3.051804379339284,0.0010534241,-0.00019138366,0.0,0.004618171,0.00841485,0.03770765,-0.005139651708304882,-0.006654000375419855,0.6319172382354736,0.7749902606010437,78.38852372426645,0.009944677352905273,262,1.9334722e-05,2.4229288e-05,3.099822451665568e-05,0.00021933421,-0.00013621744,0.00025819118117771525,-2.7625014e-05,1.4062309e-05,-8.9283436e-05,-0.00024226257,4.043401718139648,109.31177520751953
1779207184.4004626,1.617530107498169,hold-xy,2000,3.051804379339284,-0.00027293144,-0.00078790024,0.0,0.004598502,0.008406658,0.037744503,-0.004839127883315086,-0.0068475548177957535,0.6322798132896423,0.7746947407722473,78.44241437018654,0.010667562484741211,263,-3.343448e-07,1.6037375e-05,1.604085951461805e-05,-0.00010581233,-0.0002033666,0.00022924707311319117,-1.5645212e-05,-3.5406972e-06,-0.00022044287,6.292181e-05,4.043401718139648,109.31177520751953
1779207184.4222796,1.6393470764160156,hold-xy,2000,3.051804379339284,-0.0017257591,-0.00033379594,0.0,0.0045757582,0.0084143635,0.037724163,-0.005189595744013786,-0.006559474393725395,0.6317319273948669,0.7751418352127075,78.36099133802703,0.011853218078613281,264,-2.3078173e-05,2.3743138e-05,3.311100551933597e-05,-0.00040478673,-3.0307085e-05,0.00040591970921497936,-1.8599032e-05,-2.7393697e-05,-0.00011134753,0.00039034925,4.043401718139648,109.31177520751953
1779207184.4462755,1.6633429527282715,hold-xy,2000,3.051804379339284,-0.00069637,-0.0012157585,0.0,0.0045830337,0.008391017,0.037731174,-0.004721394740045071,-0.007224945817142725,0.6320816874504089,0.7748537063598633,78.41369216566662,0.006926536560058594,265,-1.5802681e-05,3.9674342e-07,1.580766088817233e-05,-0.00020788546,-0.00026337605,0.00033553436189094214,2.7852118e-06,-1.5560357e-05,-0.0002997618,0.00015075198,4.043401718139648,109.2720947265625
1779207184.4925122,1.7095797061920166,hold-xy,2000,3.051804379339284,-0.0007435216,-0.0005324738,0.0,0.0045775813,0.008403503,0.037763856,-0.004965089727193117,-0.005862342659384012,0.6322259306907654,0.7747460007667542,78.43305233307612,0.0010614395141601562,267,-2.125511e-05,1.2882985e-05,2.485459638569382e-05,-0.00017691465,-0.00011246804,0.00020963743309935183,-8.359424e-06,-2.3406645e-05,-0.00014565758,0.00015077043,4.043401718139648,109.2720947265625
1779207184.5131044,1.7301719188690186,hold-xy,3000,4.577706569008926,0.00036861605,0.000816201,0.0,0.004595189,0.008418268,0.037724774,-0.005095616448670626,-0.006384226959198713,0.6318874359130859,0.7750170826911926,78.38372093589176,0.0013890266418457031,268,-3.6475249e-06,2.7647242e-05,2.7886814534052752e-05,0.0001368246,0.00013984425,0.00019564607028335664,-2.634652e-05,-9.139761e-06,0.00016453046,-0.000105863655,4.043401718139648,109.2720947265625
1779207184.5541267,1.7711942195892334,hold-xy,3000,4.577706569008926,0.00022039349,0.00038346022,0.0,0.0045936913,0.0084133,0.037715964,-0.005238145589828491,-0.005931745283305645,0.6319509148597717,0.7749680280685425,78.3924866913624,0.012053966522216797,269,-5.1450916e-06,2.2679567e-05,2.325585444271753e-05,8.097784e-05,4.879901e-05,9.454498730961932e-05,-2.118052e-05,-9.603142e-06,6.4094274e-05,-6.950308e-05,4.043401718139648,109.25276947021484
1779207184.596163,1.8132305145263672,hold-xy,4000,6.103608758678568,0.00038456407,0.0011642701,0.0,0.004606345,0.008437404,0.03771698,-0.0052110059186816216,-0.006453786510974169,0.631996214389801,0.7749270796775818,78.39991114105224,0.00930166244506836,271,7.5087883e-06,4.678406e-05,4.738280365117723e-05,0.00014144185,0.0001956144,0.0002413934395039345,-4.733835e-05,-2.0518914e-06,0.00022006,-9.921886e-05,4.043401718139648,109.25276947021484
1779207184.6171377,1.834205150604248,hold-xy,4000,6.103608758678568,-0.0011051847,-0.0003731829,0.0,0.004585632,0.008424813,0.037718024,-0.0053515080362558365,-0.005870608147233725,0.6320387125015259,0.7748961448669434,78.40539170118484,0.01341867446899414,272,-1.32042915e-05,3.4192577e-05,3.6653589947751474e-05,-0.0002696028,-8.714922e-05,0.00028333841389582213,-3.0840976e-05,-1.9807068e-05,-0.00013955719,0.00024658558,4.043401718139648,109.25276947021484
1779207184.6390128,1.8560802936553955,hold-xy,4000,6.103608758678568,-0.0003179059,-0.00036642695,0.0,0.004594164,0.008419946,0.037727024,-0.005286757834255695,-0.005852986127138138,0.6319889426231384,0.7749373316764832,78.39800694260606,0.009557962417602539,274,-4.6724454e-06,2.9325485e-05,2.9695384196341034e-05,-8.926718e-05,-0.000117739604,0.0001477539994985972,-2.778663e-05,-1.0474686e-05,-0.00013328668,6.376445e-05,4.043401718139648,109.30583190917969
1779207184.6594813,1.8765487670898438,hold-xy,4000,6.103608758678568,0.00024008336,-0.00040404007,0.0,0.0046007996,0.008415488,0.037741877,-0.004991937428712845,-0.006849710363894701,0.6321267485618591,0.7748186588287354,78.41978981593776,0.009726524353027344,275,1.963228e-06,2.4867244e-05,2.494462061407894e-05,3.557755e-05,-0.00014830334,0.0001525111245137858,-2.475516e-05,-3.0685742e-06,-0.00013814276,-6.46237e-05,4.043401718139648,109.30583190917969
1779207184.6797798,1.8968472480773926,hold-xy,4000,6.103608758678568,-5.4439326e-05,1.0525211e-05,0.0,0.0045994865,0.0084178075,0.0377207,-0.005121155641973019,-0.006176888011395931,0.6321278214454651,0.7748225927352905,78.41897560099825,0.01984119415283203,276,6.5006316e-07,2.7187169e-05,2.7194939653912067e-05,-1.37796105e-05,-3.5470795e-05,3.805331797930891e-05,-2.6764188e-05,-4.82109e-06,-3.751498e-05,6.3781963e-06,4.043401718139648,109.30583190917969
1779207184.7020562,1.919123649597168,hold-xy,4000,6.103608758678568,0.00015265991,0.0007261286,0.0,0.004605607,0.008429235,0.037706003,-0.005206516943871975,-0.006698128767311573,0.6319330930709839,0.7749764919281006,78.39093736826068,0.017102718353271484,277,6.770715e-06,3.8614497e-05,3.9203595792504745e-05,6.3758416e-05,0.00011221683,0.0001290649227600309,-3.918707e-05,-1.1382958e-06,0.00012275155,-3.9872422e-05,4.043401718139648,109.30583190917969
1779207184.7223942,1.9394617080688477,hold-xy,4000,6.103608758678568,0.00023407085,0.00074018416,0.0,0.004609665,0.008432627,0.037792195,-0.005610066000372171,-0.003685937263071537,0.632339596748352,0.7746622562408447,78.44746905678959,0.0011210441589355469,278,1.0828488e-05,4.2006373e-05,4.337962207562939e-05,7.814798e-05,0.000106568594,0.00013215132084918007,-4.332397e-05,2.196658e-06,0.00012006008,-5.5222725e-05,4.043401718139648,109.30583190917969
1779207184.7638369,1.9809043407440186,hold-xy,5000,7.629510948348211,-0.0013452282,-0.00054235576,0.0,0.004572149,0.008414846,0.03770817,-0.005144492257386446,-0.006978933233767748,0.631873369216919,0.7750231623649597,78.38253247010883,0.012259483337402344,279,-2.6687514e-05,2.4225563e-05,3.604304747106917e-05,-0.0003166906,-0.000101425256,0.0003325357394795549,-1.8355036e-05,-3.101925e-05,-0.0001631215,0.00028977817,4.03812313079834,109.29473876953125
1779207184.787661,2.0047285556793213,hold-xy,5000,7.629510948348211,0.00049614196,0.0002881756,0.0,0.0046098074,0.008422449,0.03771616,-0.005102499853819609,-0.007061143405735493,0.6320067644119263,0.7749139070510864,78.40238128525638,0.002973794937133789,281,1.097098e-05,3.182888e-05,3.366660078647855e-05,0.00011953016,-2.1060478e-06,0.00011954871299495743,-3.3384626e-05,4.3482028e-06,2.196696e-05,-0.000117513184,4.03812313079834,109.29473876953125
1779207184.811403,2.028470516204834,hold-xy,5000,7.629510948348211,0.0008568183,-0.002570911,0.0,0.0046091545,0.008398012,0.037726767,-0.004963842686265707,-0.006213177926838398,0.6321894526481628,0.7747730612754822,78.42813346675918,0.015970230102539062,282,1.0318123e-05,7.3919073e-06,1.2692673068554455e-05,6.5444256e-05,-0.0006837202,0.0006868451750382906,-9.311441e-06,8.625601e-06,-0.00065669493,-0.00020126617,4.03812313079834,109.29473876953125
1779207184.833829,2.050896406173706,hold-xy,5000,7.629510948348211,-2.3243992e-05,-0.00057787175,0.0,0.0045989486,0.0084328,0.037716284,-0.005206475965678692,-0.0060434238985180855,0.6321389675140381,0.7748140096664429,78.42044441620708,0.00044226646423339844,284,1.1222437e-07,4.21796e-05,4.2179748407458365e-05,-3.4859877e-05,-0.00020363054,0.00020659284581023312,-4.1343643e-05,-8.356702e-06,-0.0002064834,-6.7240544e-06,4.03812313079834,109.29473876953125
1779207184.8616245,2.0786919593811035,hold-xy,5000,7.629510948348211,0.0005309702,-0.00045517954,0.0,0.0046097087,0.008427978,0.037736204,-0.0054066358134150505,-0.005462053697556257,0.6320229172706604,0.7749115824699402,78.40253009877452,0.0002288818359375,286,1.087226e-05,3.735721e-05,3.8907161586047574e-05,9.08474e-05,-0.00019419334,0.00021439287800440685,-3.8780232e-05,3.1401987e-06,-0.00017196524,-0.00012803226,4.043401718139648,109.26499938964844
1779207184.9023252,2.1193926334381104,hold-xy,6000,9.155413138017853,0.0007674426,-0.00036415277,0.0,0.004617885,0.008423619,0.03770875,-0.005426865071058273,-0.005491910967975855,0.6320450901985168,0.7748931646347046,78.40584695598041,0.009271383285522461,287,1.9048806e-05,3.299862e-05,3.8102047723403356e-05,0.00014107599,-0.00017723831,0.00022653002256642566,-3.6153702e-05,1.2028135e-05,-0.00014526874,-0.00017381844,4.043401718139648,109.26499938964844
1779207184.923237,2.1403045654296875,hold-xy,6000,9.155413138017853,-0.0064706774,-0.0027521544,0.0,0.004558387,0.00841481,0.037729453,-0.004830391611903906,-0.007487165741622448,0.6319469213485718,0.7749605178833008,78.39419968405483,0.020047903060913086,288,-4.0449202e-05,2.4189241e-05,4.713021748556555e-05,-0.0016623398,-0.00038481737,0.0017062994581951876,-1.5557236e-05,-4.4488534e-05,-0.00071137445,0.0015509366,4.043401718139648,109.26499938964844
1779207184.9640646,2.1811320781707764,hold-xy,6000,9.155413138017853,-0.003939208,-0.0015033412,0.0,0.004584073,0.008423638,0.03771238,-0.005100165028125048,-0.006960628088563681,0.6318839192390442,0.7750149965286255,78.38406067525653,0.007905960083007812,289,-1.4763325e-05,3.3017248e-05,3.6167587845585124e-05,-0.0010181622,-0.0002193735,0.0010415272989870187,-2.936843e-05,-2.1108997e-05,-0.00041988795,0.0009531385,4.03812313079834,109.27812957763672
1779207184.9867902,2.203857660293579,hold-xy,7000,10.681315327687495,-0.0019605586,-0.0017184513,0.0,0.0045946506,0.008409928,0.037697818,-0.005117632448673248,-0.006944363471120596,0.6318690180778503,0.7750271558761597,78.38183324297053,0.009806394577026367,290,-4.1858293e-06,1.9307248e-05,1.9755784512985024e-05,-0.00056033774,-0.00035106303,0.0006612288811737921,-1.8068693e-05,-7.988326e-06,-0.00045671585,0.00047815713,4.03812313079834,109.27812957763672
1779207185.032312,2.2493793964385986,hold-xy,7000,10.681315327687495,-0.0009073769,-0.0007648117,0.0,0.0046082297,0.008417314,0.03771754,-0.005138108506798744,-0.006061818916350603,0.6321290731430054,0.7748223543167114,78.41900280483601,0.020668506622314453,291,9.3933195e-06,2.6693568e-05,2.8298074087609182e-05,-0.00027470064,-0.00018181108,0.0003294172227475668,-2.8035874e-05,3.843275e-06,-0.00023325674,0.00023260913,4.03812313079834,109.27812957763672
1779207185.0546787,2.2717461585998535,hold-xy,7000,10.681315327687495,-0.0004490283,-0.0006537761,0.0,0.0046115494,0.008412587,0.03765477,-0.005935527849942446,-0.005658884532749653,0.6316055655479431,0.7752465009689331,78.34109275885577,0.010113000869750977,292,1.2713019e-05,2.1967106e-05,2.538059390632101e-05,-0.0001620401,-0.00017033704,0.00023509933715199342,-2.4082989e-05,8.011502e-06,-0.0001995685,0.00012427433,4.03812313079834,109.30787658691406
1779207185.0954754,2.3125429153442383,hold-xy,7000,10.681315327687495,-0.0001839393,0.001111972,0.0,0.0046209185,0.008445348,0.037666652,-0.006083072163164616,-0.004570071119815111,0.6320270895957947,0.7749089598655701,78.4021140483672,0.020072460174560547,293,2.2082124e-05,5.472731e-05,5.90143910578677e-05,-2.2280918e-05,0.00019947105,0.00020071157665677386,-5.804935e-05,1.0628791e-05,0.00019091897,6.192801e-05,4.03812313079834,109.30787658691406
1779207185.1160498,2.3331172466278076,hold-xy,7000,10.681315327687495,-0.0019837683,-0.0008779515,0.0,0.004587388,0.008424678,0.037747104,-0.004712551832199097,-0.007178606931120157,0.6323032379150391,0.7746734023094177,78.44638415728909,0.020410537719726562,294,-1.1448283e-05,3.4057535e-05,3.593019453542644e-05,-0.00051268085,-0.00016679717,0.000539131679158811,-3.1074534e-05,-1.8037523e-05,-0.00026609967,0.00046888582,4.03812313079834,109.30787658691406
1779207185.1373286,2.354396104812622,hold-xy,8000,12.207217517357137,-0.0013112652,-0.0010138596,0.0,0.004587854,0.008411268,0.037721846,-0.005376810673624277,-0.005437201354652643,0.632212221622467,0.7747575044631958,78.430493004397,0.00012159347534179688,295,-1.09826215e-05,2.0647421e-05,2.3386620065568433e-05,-0.00035551586,-0.00021354048,0.0004147180504787237,-1.8025274e-05,-1.4900454e-05,-0.00028050283,0.0003054656,4.03812313079834,109.29118347167969
1779207185.178042,2.3951094150543213,hold-xy,8000,12.207217517357137,0.0005929727,0.0005534345,0.0,0.0046263775,0.008430971,0.037711605,-0.005637183785438538,-0.0045854635536670685,0.6319697499275208,0.7749590873718262,78.3936554018144,0.010469198226928711,296,2.7541071e-05,4.0350482e-05,4.8853576851303996e-05,0.0001317363,4.517936e-05,0.00013926818809270334,-4.5066325e-05,1.8859972e-05,7.0759124e-05,-0.00011995321,4.03812313079834,109.29118347167969
1779207185.2186453,2.4357128143310547,hold-xy,8000,12.207217517357137,0.0013219673,0.0005957216,0.0,0.004651526,0.008429501,0.037662458,-0.006028533447533846,-0.004510272294282913,0.6318484544754028,0.7750554084777832,78.3756383837756,0.009726285934448242,297,5.2689575e-05,3.8880855e-05,6.548215212935106e-05,0.0002746876,2.0962249e-05,0.00027548628462935565,-4.870005e-05,4.377462e-05,7.588032e-05,-0.0002648299,4.03812313079834,109.29118347167969
1779207185.2408364,2.4579038619995117,hold-xy,8000,12.207217517357137,-0.0014171704,0.00014865924,0.0,0.0046093026,0.008431903,0.037694067,-0.005994036793708801,-0.0052460599690675735,0.6318957209587097,0.7750124931335449,78.38346655961337,0.008782625198364258,298,1.0466203e-05,4.1282736e-05,4.258879736763623e-05,-0.00035525148,4.5820034e-05,0.00035819420080352864,-4.254463e-05,1.939109e-06,-2.6652135e-05,0.00035720126,4.032844543457031,109.31758117675781
1779207185.2612796,2.478347063064575,hold-xy,8000,12.207217517357137,-0.0011128734,0.0010008586,0.0,0.0046099685,0.008444678,0.037674613,-0.005856985691934824,-0.005487282294780016,0.6319533586502075,0.7749649882316589,78.39228768564867,0.008831262588500977,299,1.1132099e-05,5.4057688e-05,5.519200217727283e-05,-0.00023888082,0.00021999104,0.0003247462130228958,-5.5191995e-05,2.7492206e-08,0.00016742667,0.0002782596,4.032844543457031,109.31758117675781
1779207185.301882,2.518949508666992,hold-xy,9000,13.733119707026779,-0.000487627,-0.00014631292,0.0,0.004612671,0.008416634,0.037716065,-0.0052336519584059715,-0.006197519600391388,0.6320873498916626,0.7748547196388245,78.4130247860568,0.008265495300292969,300,1.3834797e-05,2.6013702e-05,2.9463779504090198e-05,-0.00014752152,-5.0367744e-05,0.00015588300086842856,-2.8262359e-05,8.327868e-06,-7.897177e-05,0.00013439855,4.032844543457031,109.31758117675781
1779207185.3433356,2.5604031085968018,hold-xy,9000,13.733119707026779,-0.0006474999,6.259377e-05,0.0,0.0046062376,0.008420525,0.037724856,-0.005411076359450817,-0.005850181914865971,0.6320427656173706,0.7748925685882568,78.40596573855319,0.0192108154296875,301,7.4012205e-06,2.9904768e-05,3.080703090854575e-05,-0.00016652897,3.0049741e-06,0.00016655607997647886,-3.0782063e-05,1.2400692e-06,-3.0524654e-05,0.00016373508,4.027565956115723,109.30025482177734
1779207185.365069,2.582136392593384,hold-xy,9000,13.733119707026779,-0.0026382904,-0.0003392967,0.0,0.0045549404,0.008420723,0.03773814,-0.004491476807743311,-0.008048907853662968,0.6322290897369385,0.7747266888618469,78.43685325361064,0.008934974670410156,302,-4.3896027e-05,3.0102208e-05,5.322597160757778e-05,-0.00059734494,3.9539577e-06,0.0005973580235183933,-2.0692403e-05,-4.9039052e-05,-0.00011586278,0.000586014,4.027565956115723,109.30025482177734
1779207185.3855608,2.602628231048584,hold-xy,9000,13.733119707026779,0.00036537962,-0.00048083713,0.0,0.0045886985,0.008409414,0.037726138,-0.004795152228325605,-0.007418033666908741,0.632137656211853,0.7748057246208191,78.42228620863325,0.009119510650634766,303,-1.0137912e-05,1.879409e-05,2.135404053749813e-05,8.056758e-05,-0.0001642872,0.0001829792795651786,-1.6377047e-05,-1.3703556e-05,-0.00014477485,-0.00011190024,4.027565956115723,109.30025482177734
1779207185.4263673,2.643434762954712,hold-xy,9000,13.733119707026779,0.0006314452,0.000846332,0.0,0.004602403,0.008432457,0.03770212,-0.00510810874402523,-0.006459555588662624,0.6319628357887268,0.7749549150466919,78.39497839652111,0.019572973251342773,304,3.5664998e-06,4.1836873e-05,4.1988615386138455e-05,0.00019184731,0.000112746464,0.00022252451184902406,-4.1699077e-05,-4.922471e-06,0.00014903439,-0.000165245,4.027565956115723,109.30025482177734
1779207185.4478292,2.6648967266082764,hold-xy,9000,13.733119707026779,-0.00072711625,-0.00035232946,0.0,0.004570689,0.008414361,0.03770188,-0.004856523126363754,-0.007198854815214872,0.6319684386253357,0.7749454379081726,78.39691410562355,0.007982730865478516,306,-2.8147362e-05,2.3740344e-05,3.682224824014381e-05,-0.00015355933,-8.533152e-05,0.0001756756585471247,-1.7593899e-05,-3.2347067e-05,-0.00011447321,0.00013325847,4.027565956115723,109.25413513183594
1779207185.4684722,2.685539722442627,hold-xy,9000,13.733119707026779,0.0013989952,0.00056057994,0.0,0.004587457,0.0084173065,0.03772531,-0.004672448616474867,-0.006843829061836004,0.632360577583313,0.7746298909187317,78.45434395586696,0.01846909523010254,307,-1.1379365e-05,2.6686117e-05,2.90110109904198e-05,0.0003877907,2.7278282e-05,0.00038874893231074956,-2.3868572e-05,-1.6490303e-05,0.000104342136,-0.00037448425,4.027565956115723,109.25413513183594
1779207185.4896266,2.7066941261291504,hold-xy,9000,13.733119707026779,0.0006462323,-0.0018765623,0.0,0.0045757676,0.008383479,0.037740756,-0.0047204806469380856,-0.007319942582398653,0.6319857835769653,0.7749310731887817,78.3996635258872,0.019344329833984375,308,-2.306886e-05,-7.1413815e-06,2.414894660443519e-05,9.852488e-05,-0.00048133254,0.0004913126953051177,1.16342835e-05,-2.1161643e-05,-0.00045168915,-0.00019330053,4.027565956115723,109.25413513183594
1779207185.5105941,2.727661609649658,hold-xy,9000,13.733119707026779,0.0027831327,0.0006176225,0.0,0.004635594,0.008415115,0.037682142,-0.006280138622969389,-0.004280488006770611,0.6318373084068298,0.7750638127326965,78.37374674899824,0.009815216064453125,310,3.675744e-05,2.4494715e-05,4.417126206439122e-05,0.00065748853,-2.5723304e-05,0.000657991523601015,-3.1399766e-05,3.1066946e-05,0.00010730598,-0.00064918277,4.027565956115723,109.25413513183594
1779207185.5310154,2.7480828762054443,hold-xy,9000,13.733119707026779,-0.00051015324,0.0010494319,0.0,0.0045995107,0.008431327,0.03772494,-0.005396081134676933,-0.006256668362766504,0.631861686706543,0.7750371098518372,78.37974733555288,0.00993967056274414,311,6.7427754e-07,4.0706247e-05,4.0711830893589436e-05,-7.309049e-05,0.00022161062,0.0002333527095467221,-4.000775e-05,-7.5387643e-06,0.00020234633,0.00011623016,4.027565956115723,109.25413513183594
1779207185.5519853,2.769052743911743,hold-xy,9000,13.733119707026779,-0.00068437215,-0.00055680657,0.0,0.0045895823,0.008409585,0.03773543,-0.004890086594969034,-0.007383551448583603,0.6323056221008301,0.7746684551239014,78.44708057567341,0.008078813552856445,313,-9.254087e-06,1.8964522e-05,2.1101923912469998e-05,-0.00018162391,-0.00013056293,0.0002236826365512309,-1.672696e-05,-1.2864681e-05,-0.00016429208,0.00015179602,4.027565956115723,109.29009246826172
1779207185.574962,2.79202938079834,hold-xy,9000,13.733119707026779,0.00083285326,0.00044029127,0.0,0.004613042,0.008417809,0.03767391,-0.006028010975569487,-0.004527045413851738,0.63169926404953,0.7751769423484802,78.35360195074735,0.009855508804321289,315,1.4205463e-05,2.7189031e-05,3.067635213634736e-05,0.00020483896,2.4990848e-05,0.00020635779667740263,-2.949694e-05,8.424322e-06,6.582741e-05,-0.00019557682,4.027565956115723,109.29009246826172
1779207185.615931,2.832998514175415,hold-xy,9000,13.733119707026779,0.0010328612,0.0007644292,0.0,0.0046243337,0.008424673,0.03772426,-0.005396549589931965,-0.0055069029331207275,0.6319994330406189,0.774930477142334,78.39911332894107,0.019955158233642578,316,2.5497284e-05,3.405288e-05,4.254068567220602e-05,0.00025312498,8.4198764e-05,0.0002667614783310643,-3.8484577e-05,1.812863e-05,0.00013338044,-0.00023102236,4.027565956115723,109.29009246826172
1779207185.6570191,2.874086618423462,hold-xy,9000,13.733119707026779,-0.0007153464,-0.00046001226,0.0,0.004577704,0.00840363,0.03770182,-0.005089558195322752,-0.006930138915777206,0.6319947838783264,0.7749249339103699,78.40040484369213,0.02035355567932129,317,-2.113264e-05,1.3009645e-05,2.4816111288675846e-05,-0.000166609,-9.620994e-05,0.00019239259405702178,-8.494783e-06,-2.3316905e-05,-0.00012774524,0.00014386125,4.027565956115723,109.30401611328125
1779207185.69802,2.9150874614715576,hold-xy,9000,13.733119707026779,0.0007461569,0.0004041897,0.0,0.0046265726,0.008418827,0.037726402,-0.005096377804875374,-0.006567238364368677,0.6319320797920227,0.7749791741371155,78.39058730368409,0.00863337516784668,319,2.7736183e-05,2.8206967e-05,3.955918165445918e-05,0.00016145344,1.913082e-05,0.00016258290898392175,-3.3211512e-05,2.1492426e-05,5.1230152e-05,-0.0001543006,4.027565956115723,109.30401611328125
1779207185.7182686,2.935336112976074,hold-xy,9000,13.733119707026779,-0.00051180524,0.0014208367,0.0,0.0046137245,0.008438422,0.03772304,-0.005319290328770876,-0.006071571260690689,0.631960928440094,0.7749581933021545,78.39415960406754,0.008512496948242188,321,1.4888123e-05,4.7801994e-05,5.0066823926464915e-05,-7.62073e-05,0.0003019848,0.0003114520471691264,-4.981983e-05,4.9670325e-06,0.00028047943,0.00013540186,4.027565956115723,109.30401611328125
1779207185.7385583,2.9556257724761963,hold-xy,9000,13.733119707026779,-0.0025872462,-0.0005859784,0.0,0.0045747077,0.008420101,0.037766587,-0.004981294274330139,-0.006822728551924229,0.6321386694908142,0.7748093008995056,78.42151192395863,0.008392810821533203,322,-2.4128705e-05,2.9481016e-05,3.809625607673565e-05,-0.0006268593,-5.791342e-05,0.000629528829117888,-2.4038221e-05,-2.955484e-05,-0.00018255193,0.0006024793,4.027565956115723,109.33792877197266
1779207185.7608032,2.9778707027435303,hold-xy,9000,13.733119707026779,-0.0030996026,-0.0017482527,0.0,0.0045419736,0.008395775,0.037747115,-0.004699569661170244,-0.00766850495710969,0.632138729095459,0.774803102016449,78.42285444755392,0.00021123886108398438,324,-5.686283e-05,5.1548705e-06,5.709600954970837e-05,-0.0007615543,-0.00028039096,0.0008115319109020039,6.3616444e-06,-5.6740497e-05,-0.0004275207,0.0006897899,4.027565956115723,109.33792877197266
1779207185.781151,2.998218536376953,hold-xy,9000,13.733119707026779,0.0025009755,0.0015078303,0.0,0.0045846985,0.0084099015,0.037738264,-0.005095493048429489,-0.0065668621100485325,0.6319690942764282,0.7749490737915039,78.39606066396183,0.010243892669677734,325,-1.4137942e-05,1.9281171e-05,2.3909097716043073e-05,0.0007094949,0.0002145665,0.0007412299421536644,-1.6043312e-05,-1.77273e-05,0.00035289262,-0.0006518348,4.027565956115723,109.33792877197266
1779207185.802805,3.0198724269866943,hold-xy,9000,13.733119707026779,0.005017688,0.002804851,0.0,0.0046407334,0.0084259175,0.03776166,-0.005832989700138569,-0.003239646553993225,0.6320448517799377,0.7749030590057373,78.40349414461016,0.011151313781738281,326,4.1896943e-05,3.5297126e-05,5.478358361291669e-05,0.0013069273,0.0003817919,0.0013615520826634944,-4.2998672e-05,3.3946355e-05,0.00063671474,-0.0012035025,4.027565956115723,109.33792877197266
1779207185.823142,3.0402095317840576,hold-xy,9000,13.733119707026779,0.0019296111,0.001349434,0.0,0.004613748,0.008420557,0.037720393,-0.005267372354865074,-0.006111437454819679,0.631908118724823,0.7750014066696167,78.38640572562038,0.011084794998168945,327,1.4911406e-05,2.9936433e-05,3.344458159955856e-05,0.00051807344,0.00018843461,0.000551278252283584,-3.232538e-05,8.579618e-06,0.00028887042,-0.00046953335,4.027565956115723,109.33792877197266
1779207185.8434982,3.060565710067749,hold-xy,9000,13.733119707026779,0.00017542535,-0.00045861464,0.0,0.0045815166,0.0083942525,0.037740596,-0.004864802584052086,-0.006972040049731731,0.6321543455123901,0.7747958898544312,78.42405085001772,0.0009107589721679688,328,-1.7319806e-05,3.632158e-06,1.7696560939767022e-05,4.5936817e-05,-0.0001265703,0.0001346485548182767,-8.276993e-08,-1.7696366e-05,-0.00011477782,-7.0400885e-05,4.027565956115723,109.3188247680664
1779207185.8651154,3.0821828842163086,hold-xy,9000,13.733119707026779,0.0009413217,0.001401166,0.0,0.0046012164,0.008419571,0.037711754,-0.005383206997066736,-0.005961356218904257,0.6319440603256226,0.7749723792076111,78.39151820283125,0.00024962425231933594,329,2.3799948e-06,2.8951094e-05,2.904875509214491e-05,0.00029743355,0.00025234593,0.00039005793245145895,-2.8837821e-05,-3.4943105e-06,0.00030703476,-0.0002405719,4.027565956115723,109.3188247680664
1779207185.8858118,3.102879285812378,hold-xy,9000,13.733119707026779,0.0013458121,0.0012520951,0.0,0.0046123136,0.008420732,0.03771905,-0.005120869725942612,-0.005836834199726582,0.6319957971572876,0.774932861328125,78.39899131395143,0.0006597042083740234,330,1.3477169e-05,3.0111521e-05,3.298996443241843e-05,0.00037231168,0.00019380289,0.0004197327090420134,-3.2206586e-05,7.146572e-06,0.0002647139,-0.00032573316,4.027565956115723,109.3188247680664
1779207185.9062777,3.123345136642456,hold-xy,9000,13.733119707026779,-0.0021378854,-0.0001939006,0.0,0.004562311,0.0084133,0.037732277,-0.004811710678040981,-0.007180090062320232,0.6321091651916504,0.7748311758041382,78.41769144412171,0.0008308887481689453,331,-3.652554e-05,2.2679567e-05,4.2993927655639004e-05,-0.0004785324,2.5801317e-05,0.00047922746751678146,-1.4884318e-05,-4.0335282e-05,-7.080163e-05,0.00047396845,4.027565956115723,109.3188247680664
1779207185.9268441,3.143911600112915,hold-xy,9000,13.733119707026779,-0.0015679621,-0.0018842479,0.0,0.00455681,0.008386508,0.03769685,-0.00504673458635807,-0.006871325895190239,0.6317451596260071,0.7751291990280151,78.36340515994316,0.0010077953338623047,332,-4.2026397e-05,-4.1127205e-06,4.22271539476619e-05,-0.00041590905,-0.00037614512,0.000560772231321457,1.2505063e-05,-4.0333063e-05,-0.00045230438,0.00033149094,4.027565956115723,109.3188247680664
1779207185.9688346,3.1859021186828613,hold-xy,9000,13.733119707026779,-0.0007053519,0.00029656137,0.0,0.004574279,0.008420097,0.03770205,-0.005064680241048336,-0.006598636042326689,0.6318657994270325,0.775033175945282,78.38083245721484,0.012203693389892578,333,-2.455758e-05,2.947636e-05,3.836574600345028e-05,-0.00012095578,6.3921965e-05,0.00013680759906222923,-2.3926294e-05,-2.9991048e-05,3.8250902e-05,0.0001313514,4.027565956115723,109.32381439208984
1779207186.0094059,3.226473331451416,hold-xy,9000,13.733119707026779,0.0009495301,0.00029705866,0.0,0.0046162624,0.0084128,0.03766817,-0.005654622800648212,-0.00569907994940877,0.6317097544670105,0.7751633524894714,78.35653832510201,0.011616706848144531,334,1.7425977e-05,2.2179447e-05,2.8206250934976053e-05,0.00022134697,-8.44145e-06,0.00022150787777295197,-2.5239975e-05,1.2591116e-05,3.640471e-05,-0.00021849586,4.027565956115723,109.32381439208984
1779207186.0505497,3.2676172256469727,hold-xy,9000,13.733119707026779,0.00066071714,-0.00052609376,0.0,0.0046110842,0.008391377,0.03771256,-0.005093280225992203,-0.005866602063179016,0.6318245530128479,0.7750725150108337,78.37371195440812,0.01191258430480957,335,1.2247823e-05,7.5623393e-07,1.2271147522085334e-05,0.00011691297,-0.00016324746,0.00020079436295181911,-3.2089895e-06,1.1844131e-05,-0.00013633692,-0.00014741308,4.027565956115723,109.30437469482422
1779207186.0774908,3.29455828666687,hold-xy,9000,13.733119707026779,0.0024767527,-0.0009159284,0.0,0.004640525,0.008376292,0.037722595,-0.004499499686062336,-0.006201490759849548,0.6319127678871155,0.7750016450881958,78.38717739907007,0.017624616622924805,336,4.1688792e-05,-1.4328398e-05,4.4082405141382535e-05,0.0004978869,-0.00032744312,0.0005959113683226113,5.6432636e-06,4.3719698e-05,-0.0002205172,-0.00055360864,4.027565956115723,109.30437469482422
1779207186.0997922,3.316859722137451,hold-xy,9000,13.733119707026779,0.0027676153,-0.0020470282,0.0,0.0046558627,0.008339863,0.037772853,-0.003560817101970315,-0.006965145468711853,0.6321117877960205,0.7748377323150635,78.41764018197122,0.007294416427612305,337,5.702628e-05,-5.075708e-05,7.63431556607542e-05,0.00048952654,-0.0005641185,0.0007469042221174664,3.8273993e-05,6.605588e-05,-0.00045434607,-0.00059282,4.027565956115723,109.30437469482422
1779207186.1247957,3.3418631553649902,hold-xy,9000,13.733119707026779,0.007645638,-0.002048605,0.0,0.0047554057,0.008308996,0.037767027,-0.003237516153603792,-0.005968911573290825,0.6318380832672119,0.7750706076622009,78.37573752211746,0.007234334945678711,338,0.0001565693,-8.1623904e-05,0.00017656841579751737,0.0015341578,-0.0007643462,0.0017140202003117825,4.840223e-05,0.00016980468,-0.00043954788,-0.0016567025,4.027565956115723,109.30437469482422
1779207186.1656117,3.3826792240142822,hold-xy,9000,13.733119707026779,0.007778246,-0.00467367,0.0,0.0047959886,0.008209901,0.037803862,-0.0010063479421660304,-0.006254757754504681,0.6317334771156311,0.7751597762107849,78.36042116984777,0.00735926628112793,339,0.00019715214,-0.00018071942,0.00026744808017071576,0.001373112,-0.0012656352,0.0018674231359135042,0.00013722679,0.00022955888,-0.0009625773,-0.0016002231,4.027565956115723,109.3539810180664
1779207186.186795,3.403862476348877,hold-xy,9000,13.733119707026779,0.01196919,-0.005701938,0.0,0.0048808563,0.008158258,0.037786234,-0.001129804295487702,-0.002680032979696989,0.6316864490509033,0.7752185463905334,78.35010779518392,0.008313417434692383,340,0.00028201984,-0.00023236219,0.00036541398355244173,0.0022197766,-0.0016518132,0.0027669287085820547,0.00017062698,0.00032313124,-0.0011695441,-0.0025076007,4.027565956115723,109.3539810180664
1779207186.227661,3.444728374481201,hold-xy,9000,13.733119707026779,0.0127450265,-0.0064946953,0.0,0.0049734875,0.0080756415,0.03783057,0.0005700261099264026,-0.003119235159829259,0.6317782402038574,0.7751428484916687,78.36383856247353,0.008159637451171875,341,0.00037465105,-0.00031497888,0.0004894641103305782,0.0022313078,-0.0017604916,0.0028421937914283606,0.00023293983,0.0004304813,-0.0012742641,-0.0025405346,4.027565956115723,109.3539810180664
1779207186.248073,3.4651405811309814,hold-xy,9000,13.733119707026779,0.011248227,-0.0093098,0.0,0.0049836035,0.008004558,0.037891857,0.002871704287827015,-0.005193174351006746,0.6319624185562134,0.7749763131141663,78.39246247193573,0.007952451705932617,342,0.00038476707,-0.00038606208,0.0005450592881197267,0.0017090975,-0.0022665625,0.002838718094150673,0.0003007489,0.00045457645,-0.0018763267,-0.0021301922,4.027565956115723,109.34741973876953
1779207186.288712,3.505779504776001,hold-xy,9000,13.733119707026779,0.012937949,-0.008921305,0.0,0.005067234,0.007945381,0.03788823,0.003433814039453864,-0.004504862241446972,0.6319993734359741,0.7749481797218323,78.3971941025301,0.01802659034729004,343,0.0004683975,-0.00044523925,0.0006462462579147547,0.002017219,-0.0021674307,0.0029608999744313988,0.0003419341,0.00054837513,-0.0017174251,-0.0024119245,4.027565956115723,109.34741973876953
1779207186.3093073,3.5263748168945312,hold-xy,9000,13.733119707026779,0.010987509,-0.008313036,0.0,0.0050817756,0.00790832,0.037901074,0.0043891132809221745,-0.004794997163116932,0.6320098042488098,0.7749331593513489,78.39881606597199,0.006630659103393555,344,0.00048293918,-0.0004823003,0.00068252751704653,0.0015484189,-0.0018647439,0.002423813322362205,0.00037532925,0.00057006296,-0.001515265,-0.001891783,4.027565956115723,109.34741973876953
1779207186.3504405,3.5675079822540283,hold-xy,9000,13.733119707026779,0.009765636,-0.0063386518,0.0,0.0051115383,0.007906677,0.037890933,0.004511884413659573,-0.004574595484882593,0.6319897174835205,0.7749501466751099,78.39563204015536,0.007141590118408203,345,0.0005127019,-0.00048394315,0.00070502780561033,0.0013036946,-0.0013174533,0.0018534570173118327,0.00037092,0.00059956865,-0.0010282829,-0.001542056,4.027565956115723,109.31830596923828
1779207186.3918536,3.6089210510253906,hold-xy,9000,13.733119707026779,0.006829471,-0.005140553,0.0,0.005087752,0.007910754,0.03792394,0.004479176830500364,-0.004579415079206228,0.6320017576217651,0.7749404311180115,78.39742190698195,0.017789602279663086,346,0.0004889155,-0.00047986675,0.0006850623590934165,0.00068063685,-0.000882467,0.001114457089770969,0.0003717296,0.00057543686,-0.00072754384,-0.0008442124,4.027565956115723,109.31830596923828
1779207186.4123955,3.629462957382202,hold-xy,9000,13.733119707026779,0.005180084,-0.0039676093,0.0,0.005079121,0.007917215,0.037903212,0.00453589390963316,-0.0055411700159311295,0.6319835782051086,0.7749487161636353,78.3956244358917,0.018078088760375977,347,0.00048028445,-0.00047340523,0.0006743779825519041,0.00034860027,-0.0005220169,0.0006277131512516026,0.00036711828,0.0005656941,-0.0004412249,-0.00044647994,4.027565956115723,109.31830596923828
1779207186.4328272,3.6498947143554688,hold-xy,9000,13.733119707026779,0.0036868334,-0.0028922628,0.0,0.005060328,0.007933728,0.037910543,0.004492208827286959,-0.005583872087299824,0.6320045590400696,0.7749315500259399,78.39878074418206,0.006976127624511719,348,0.00046149176,-0.00045689195,0.0006494034998856434,6.523353e-05,-0.00020831065,0.0002182859135736602,0.00035475267,0.0005439443,-0.0001909367,-0.000105791885,4.027565956115723,109.31830596923828
1779207186.4531019,3.6701693534851074,hold-xy,9000,13.733119707026779,0.0032641345,-0.0042344313,0.0,0.005050929,0.007910781,0.037909426,0.004479653667658567,-0.0057463874109089375,0.6319632530212402,0.7749640941619873,78.39284741493285,0.006735324859619141,349,0.00045209238,-0.00047983974,0.0006592675519290323,-9.1784794e-05,-0.00048138597,0.0004900580656348233,0.00037906598,0.000539391,-0.0004900088,-6.94715e-06,4.027565956115723,109.28058624267578
1779207186.5152824,3.7323498725891113,hold-xy,9000,13.733119707026779,0.0033049583,-0.002794758,0.0,0.00505831,0.007938592,0.037917547,0.003597927512601018,-0.004635259974747896,0.6318654417991638,0.7750558853149414,78.37747437856888,0.01810145378112793,350,0.00045947358,-0.0004520286,0.0006445508599684756,-2.0671952e-05,-0.00017277757,0.00017400982690737646,0.0003501933,0.0005411196,-0.00017339959,-1.4560193e-05,4.027565956115723,109.28058624267578
1779207186.555792,3.772859573364258,hold-xy,10000,15.259021896696423,0.0012451141,-0.0016889193,0.0,0.0050067375,0.007975177,0.037873726,0.003539420198649168,-0.006281698122620583,0.6318570971488953,0.7750513553619385,78.37796458861503,0.01763129234313965,351,0.00040790113,-0.00041544344,0.0005822169497584144,-0.00039201524,0.00014688345,0.00041862953837973186,0.00032475236,0.0004832313,6.489873e-05,0.00041356843,4.027565956115723,109.21595001220703
