wall_time_s,elapsed_s,mode,thrust_raw,thrust_percent,roll_cmd_deg,pitch_cmd_deg,yawrate_cmd_deg_s,mocap_x,mocap_y,mocap_z,mocap_qx,mocap_qy,mocap_qz,mocap_qw,yaw_deg,mocap_age_s,mocap_frame_count,drift_x_m,drift_y_m,horizontal_drift_m,velocity_x_m_s,velocity_y_m_s,horizontal_speed_m_s,body_error_x_m,body_error_y_m,body_velocity_x_m_s,body_velocity_y_m_s,battery_v,estimate_z
1779207294.849579,0.0006251335144042969,hold-xy,0,0.0,0.0,-0.0,0.0,0.008673134,0.002305683,0.03760093,-0.009456752799451351,0.0012626065872609615,0.6562182903289795,0.7545108199119568,82.0235456748128,0.011965751647949219,193,0.0,0.0,0.0,0.0,0.0,0.0,0.0,0.0,0.0,0.0,3.932551383972168,109.60993194580078
1779207294.871636,0.02268195152282715,hold-xy,0,0.0,-0.001120269,0.00060829613,0.0,0.00864932,0.0023233076,0.037572276,-0.009792784228920937,0.001700706547126174,0.656040608882904,0.7546601295471191,81.99658050267647,0.0016145706176757812,194,-2.3813918e-05,1.7624581e-05,2.9626484038831597e-05,-0.00022044482,0.0001631503,0.0002742515997494347,-1.4137249e-05,-2.6035874e-05,0.00013086815,0.00024101342,3.932551383972168,109.60993194580078
1779207294.8925524,0.04359841346740723,hold-xy,0,0.0,0.0005878565,-0.00022507213,0.0,0.008669494,0.002309962,0.037587654,-0.010303703136742115,0.0033194050192832947,0.6560679078102112,0.7546241879463196,82.00124051013616,0.0021865367889404297,195,-3.64054e-06,4.2789616e-06,5.618099664941648e-06,0.00014316534,-8.258935e-05,0.00016527950457503472,-3.7307445e-06,-4.2005463e-06,-6.186415e-05,-0.00015326495,3.932551383972168,109.60993194580078
1779207294.9330482,0.08409428596496582,hold-xy,0,0.0,-0.00028411392,-0.0005077131,0.0,0.00864892,0.0023027041,0.037586775,-0.009584371000528336,0.0015449959319084883,0.6562306880950928,0.7544978857040405,82.02545056733729,0.0020346641540527344,196,-2.4214387e-05,-2.9788353e-06,2.4396925880210345e-05,-5.1629206e-05,-0.0001113786,0.00012276305529300576,6.309369e-06,-2.3566965e-05,-0.00011746423,3.567803e-05,3.932551383972168,109.58605194091797
1779207294.9741845,0.1252305507659912,hold-xy,0,0.0,-0.0004359881,-0.00030914307,0.0,0.008643463,0.0023051905,0.03757721,-0.009829488582909107,0.0018655223539099097,0.6560773253440857,0.7546273469924927,82.0021868061482,0.000141143798828125,197,-2.9671006e-05,-4.924368e-07,2.967509198053359e-05,-7.4183525e-05,-6.0630053e-05,9.580813501182254e-05,4.615931e-06,-2.9313891e-05,-7.036187e-05,6.5026186e-05,3.932551383972168,109.58605194091797
1779207294.994771,0.14581704139709473,hold-xy,0,0.0,0.0021118594,0.00020251932,0.0,0.008682388,0.0023064306,0.037584133,-0.01003982126712799,0.0028614792972803116,0.6561425924301147,0.7545647025108337,82.012405554559,0.00016617774963378906,198,9.253621e-06,7.476192e-07,9.283772850018878e-06,0.0005159977,-2.4348114e-05,0.0005165718304775367,-2.026237e-06,9.059956e-06,4.7590474e-05,-0.00051437493,3.932551383972168,109.62593841552734
1779207295.076148,0.22719407081604004,hold-xy,0,0.0,0.0015634825,-0.00037143144,0.0,0.008682234,0.0022831603,0.037579376,-0.009518572129309177,0.0015706736594438553,0.6562574505805969,0.7544753551483154,82.02952993272766,0.008314371109008789,200,9.099953e-06,-2.252264e-05,2.429153001690831e-05,0.00036056884,-0.000112376045,0.00037767482173476155,2.1043239e-05,1.2135094e-05,-6.1293e-05,-0.00037266797,3.932551383972168,109.62593841552734
1779207295.0965223,0.24756836891174316,hold-xy,0,0.0,0.00045097794,0.002134762,0.0,0.008677314,0.0023215387,0.037559178,-0.009965110570192337,0.0019769747741520405,0.6560883522033691,0.7546157240867615,82.00386687332653,0.0084075927734375,202,4.1797757e-06,1.5855767e-05,1.639743473889486e-05,0.00017961836,0.0004890346,0.000520977520065908,-1.6283042e-05,1.933501e-06,0.0005092659,-0.00010984424,3.932551383972168,109.64198303222656
1779207295.1168234,0.2678694725036621,hold-xy,0,0.0,0.0017370301,0.0014036355,0.0,0.008698586,0.0023166991,0.03758993,-0.009488885290920734,0.001419520820491016,0.6561875343322754,0.7545368671417236,82.01889073566842,0.008440494537353516,203,2.5452115e-05,1.1016149e-05,2.773383629424405e-05,0.0004405956,0.00027069054,0.0005171052751883046,-1.4443385e-05,2.3676028e-05,0.0003292438,-0.0003987435,3.932551383972168,109.64198303222656
1779207295.137116,0.2881619930267334,hold-xy,0,0.0,-0.0011075728,0.0011420116,0.0,0.0086629065,0.0023237776,0.03755536,-0.00989109743386507,0.0022670344915241003,0.6560329794883728,0.7546640038490295,81.99555607303598,0.008441686630249023,204,-1.02277845e-05,1.8094666e-05,2.0785199716715823e-05,-0.00021909756,0.0002941367,0.00036676986718542386,-1.6494158e-05,-1.2647818e-05,0.00026076168,0.00025792146,3.932551383972168,109.64198303222656
1779207295.1788242,0.32987022399902344,hold-xy,0,0.0,-0.0007250501,0.00023687727,0.0,0.008662676,0.0023106274,0.037608452,-0.009625742211937904,0.001828563748858869,0.656355082988739,0.7543885111808777,82.04439723917807,0.01970362663269043,205,-1.0457821e-05,4.9443915e-06,1.1567758214146763e-05,-0.00015563495,7.6320546e-05,0.00017334088302417441,-3.4493828e-06,-1.1041503e-05,5.4045242e-05,0.00016470026,3.932551383972168,109.64198303222656
1779207295.1992342,0.3502802848815918,hold-xy,0,0.0,-0.0006010742,-0.0006787407,0.0,0.008658415,0.0022920412,0.03758211,-0.009667346253991127,0.001747372793033719,0.6562768816947937,0.7544561624526978,82.03249307671312,0.009167671203613281,206,-1.4719553e-05,-1.364178e-05,2.0068966931947235e-05,-0.00015025897,-0.00012675556,0.00019658263366583128,1.5550393e-05,-1.2686555e-05,-0.00014635958,0.00013123872,3.932551383972168,109.64138793945312
1779207295.2199237,0.3709697723388672,hold-xy,0,0.0,0.0019173085,0.004089089,0.0,0.008682343,0.002325964,0.03758337,-0.00970639567822218,0.002100876299664378,0.6561048030853271,0.7546044588088989,82.0064431907713,0.019720792770385742,207,9.208918e-06,2.0280946e-05,2.227377206766167e-05,0.0006030154,0.000915262,0.0010960529691226655,-2.13645e-05,6.299138e-06,0.0009902255,-0.00046987843,3.932551383972168,109.64138793945312
1779207295.2404122,0.39145827293395996,hold-xy,0,0.0,-0.0006048666,0.0010625664,0.0,0.008648723,0.0023022536,0.037588328,-0.009578120894730091,0.0013359409058466554,0.656210720539093,0.7545157074928284,82.02238631932526,0.019971847534179688,208,-2.4410896e-05,-3.4293626e-06,2.4650605932993897e-05,-7.62695e-05,0.00028920165,0.00029908966944680777,6.7840692e-06,-2.3698709e-05,0.0002758177,0.00011566858,3.932551383972168,109.64138793945312
1779207295.260936,0.41198205947875977,hold-xy,0,0.0,-9.2430964e-05,0.0011193398,0.0,0.008658142,0.002309626,0.037561666,-0.00995154120028019,0.0019986284896731377,0.6560539603233337,0.7546457052230835,81.99865189987273,0.009765386581420898,209,-1.4992431e-05,3.942987e-06,1.5502261928869092e-05,3.8557882e-05,0.00027441274,0.00027710839755649736,-1.8177088e-06,-1.5395326e-05,0.0002771084,1.4752004e-08,3.932551383972168,109.64138793945312
1779207295.3020828,0.4531288146972656,hold-xy,0,0.0,0.0010268176,0.0011004214,0.0,0.008685338,0.0023132868,0.03755063,-0.010249974206089973,0.0032258026767522097,0.6561378836631775,0.7545645236968994,82.01182842501419,0.017899751663208008,210,1.2204051e-05,7.603783e-06,1.4379025554916621e-05,0.0002741385,0.0002253564,0.0003548766246397382,-9.2259825e-06,1.1028945e-05,0.00026126637,-0.00024016098,3.932551383972168,109.64884185791016
1779207295.323629,0.47467494010925293,hold-xy,0,0.0,-0.00029396557,-3.2227945e-06,0.0,0.008660001,0.0022989877,0.037588082,-0.009477009996771812,0.0012767355656251311,0.6562612056732178,0.7544732093811035,82.03006227055663,0.008431673049926758,211,-1.3133511e-05,-6.695278e-06,1.4741636942748963e-05,-5.3192984e-05,1.943484e-05,5.663220373936921e-05,8.451615e-06,-1.207833e-05,1.1871724e-05,5.5373897e-05,3.932551383972168,109.64884185791016
1779207295.344046,0.49509215354919434,hold-xy,0,0.0,-0.00028585538,0.0012584677,0.0,0.008661837,0.0023185653,0.037575837,-0.009463842026889324,0.001130408956669271,0.6562139987945557,0.7545146346092224,82.02287860086344,0.008495330810546875,213,-1.1296943e-05,1.2882287e-05,1.7134007718249534e-05,-1.0165102e-05,0.00030216674,0.0003023376615051121,-1.1189869e-05,-1.2975403e-05,0.00029783213,5.2000738e-05,3.932551383972168,109.64884185791016
1779207295.390865,0.5419111251831055,hold-xy,0,0.0,-3.7939615e-05,0.0015313585,0.0,0.008669634,0.0023357724,0.03759086,-0.009703303687274456,0.0021738060750067234,0.6562169790267944,0.7545067071914673,82.0235015163937,0.013617277145385742,214,-3.4999102e-06,3.0089403e-05,3.0292268556732168e-05,4.898219e-05,0.00033531775,0.00033887644051770315,-2.9312618e-05,-7.641462e-06,0.00033887068,-1.9772888e-06,3.932551383972168,109.64884185791016
1779207295.4121187,0.5631647109985352,hold-xy,0,0.0,0.00071472535,-0.0010686187,0.0,0.008678067,0.0022924773,0.03757778,-0.009575690142810345,0.0018253012094646692,0.6562406420707703,0.7544886469841003,82.02702109629317,0.009113788604736328,215,4.9322844e-06,-1.3205688e-05,1.4096724426819625e-05,0.00013249971,-0.0002695479,0.00030035352412844697,1.23939e-05,6.716316e-06,-0.00024856383,-0.00016860686,3.932551383972168,109.63277435302734
1779207295.4332812,0.584327220916748,hold-xy,0,0.0,-0.00026575546,0.0005060367,0.0,0.008667243,0.002317503,0.037573867,-0.009620757773518562,0.001636836095713079,0.6561192870140076,0.754594087600708,82.00854313214077,0.005698680877685547,216,-5.8915466e-06,1.1820113e-05,1.3207020511742782e-05,-3.936835e-05,0.00011678714,0.0001232440802166332,-1.0886251e-05,-7.477629e-06,0.00011017979,5.5222423e-05,3.932551383972168,109.63277435302734
1779207295.4577582,0.6088042259216309,hold-xy,0,0.0,0.0020166456,0.00043325112,0.0,0.008689125,0.0023150276,0.03755716,-0.009997841902077198,0.0025068509858101606,0.6561262607574463,0.7545807957649231,82.00978737364296,0.017499923706054688,217,1.5990809e-05,9.344658e-06,1.8521030688518e-05,0.0004903366,2.3163855e-05,0.0004908834743113667,-1.1476724e-05,1.4536623e-05,9.1097696e-05,-0.00048235647,3.932551383972168,109.63277435302734
1779207295.4781563,0.6292023658752441,hold-xy,0,0.0,0.0002123609,-0.00073330285,0.0,0.008660343,0.002296481,0.037567973,-0.009392443113029003,0.0011349665001034737,0.6561760902404785,0.7545484900474548,82.01713237388218,0.00881814956665039,218,-1.2791716e-05,-9.201933e-06,1.575765034490594e-05,4.6303612e-05,-0.00017511933,0.00018113753480761903,1.0889238e-05,-1.1389823e-05,-0.00016699186,-7.017496e-05,3.932551383972168,109.63277435302734
1779207295.4997895,0.6508355140686035,hold-xy,0,0.0,0.00017183111,0.00043934965,0.0,0.008663094,0.0023112379,0.037561808,-0.009889133274555206,0.0025805188342928886,0.6560989618301392,0.754605770111084,82.00568985325702,0.010054588317871094,220,-1.0040589e-05,5.5548735e-06,1.147475646737067e-05,7.287681e-05,9.446335e-05,0.00011930780884607684,-4.1044977e-06,-1.0715556e-05,0.000103680664,-5.903111e-05,3.932551383972168,109.64276885986328
1779207295.5203001,0.6713461875915527,hold-xy,0,0.0,0.00016299389,-0.0010889663,0.0,0.008660149,0.0022804125,0.037562378,-0.009738593362271786,0.0021644269581884146,0.6561718583106995,0.7545455694198608,82.01664039801203,9.34600830078125e-05,222,-1.2985431e-05,-2.5270507e-05,2.8411615618133818e-05,2.20213e-05,-0.00023735673,0.00023837607720151815,2.6829084e-05,-9.349875e-06,-0.00023199794,-5.4773285e-05,3.932551383972168,109.64276885986328
1779207295.5408118,0.6918578147888184,hold-xy,0,0.0,0.0018539322,0.0017762459,0.0,0.0086770095,0.0022990396,0.0375647,-0.009694354608654976,0.0018121832981705666,0.6562778949737549,0.7544547915458679,82.03265733371225,0.01047515869140625,223,3.8752332e-06,-6.6433568e-06,7.691009108124956e-06,0.00051474705,0.00038549735,0.0006430961877882655,6.042089e-06,4.758653e-06,0.0004531246,-0.00045634506,3.932551383972168,109.64276885986328
1779207295.562025,0.7130711078643799,hold-xy,0,0.0,6.236014e-05,0.0022367872,0.0,0.0086573055,0.0023201033,0.037542112,-0.009868188761174679,0.001757466932758689,0.6560625433921814,0.7546399831771851,81.99991128219983,0.007394075393676758,224,-1.5828758e-05,1.4420366e-05,2.141253181035517e-05,0.000117007454,0.0005299543,0.0005427175433481797,-1.2077064e-05,-1.768166e-05,0.0005410812,-4.2112522e-05,3.932551383972168,109.64276885986328
1779207295.5838945,0.7349405288696289,hold-xy,0,0.0,-0.00030198088,8.6416105e-05,0.0,0.008649605,0.002298725,0.037574373,-0.00966719351708889,0.0018324855482205749,0.6562350988388062,0.7544923424720764,82.02616665228713,0.009749650955200195,225,-2.3528934e-05,-6.957911e-06,2.453616125358645e-05,-3.6474965e-05,4.2304775e-05,5.5858007963157334e-05,1.0154592e-05,-2.2336239e-05,3.6835914e-05,4.199086e-05,3.932551383972168,109.64276885986328
1779207295.6107392,0.7617852687835693,hold-xy,0,0.0,-0.001334531,0.002356928,0.0,0.008637794,0.0023371945,0.03756865,-0.009778871200978756,0.0019652119372040033,0.6560419797897339,0.7546584010124207,81.99685220477507,0.01572728157043457,227,-3.5339966e-05,3.1511532e-05,4.734859855292808e-05,-0.00019533606,0.0005826767,0.000614547208737544,-2.6284326e-05,-3.938304e-05,0.0005498055,0.0002745582,3.932551383972168,109.56942749023438
1779207295.6328897,0.7839357852935791,hold-xy,0,0.0,-0.001692707,-0.0009126028,0.0,0.008614424,0.002281461,0.037575647,-0.009503670036792755,0.001694706967100501,0.6562431454658508,0.7544876933097839,82.0273837300457,0.006845235824584961,228,-5.8710575e-05,-2.422207e-05,6.351094463639811e-05,-0.0003626651,-0.00013091788,0.0003855716067597868,3.2131094e-05,-5.4783508e-05,-0.00017995406,0.00034100146,3.932551383972168,109.56942749023438
1779207295.6575866,0.8086326122283936,hold-xy,0,0.0,0.0019860624,-0.00093358173,0.0,0.008669877,0.002269552,0.037559655,-0.009902569465339184,0.002270207740366459,0.6562098860740662,0.7545100450515747,82.0224212397025,0.008374214172363281,229,-3.256835e-06,-3.6130892e-05,3.6277379596122105e-05,0.00046420383,-0.0002458496,0.0005252877503118043,3.6233236e-05,1.7891293e-06,-0.00017904559,-0.0004938319,3.932551383972168,109.56942749023438
1779207295.6991231,0.8501691818237305,hold-xy,0,0.0,0.0016834487,0.0005109415,0.0,0.00868254,0.0023021225,0.037559126,-0.009651074185967445,0.0018443111330270767,0.6562337875366211,0.7544936537742615,82.02597286034955,0.010118246078491211,230,9.405427e-06,-3.5604462e-06,1.005678012489287e-05,0.00042040474,7.345721e-05,0.0004267740682245439,2.2212603e-06,9.8084065e-06,0.00013106727,-0.00040614957,3.932551383972168,109.5741195678711
1779207295.7196562,0.8707022666931152,hold-xy,0,0.0,0.0004328661,-0.00033662195,0.0,0.00866379,0.002289402,0.037554085,-0.009566979482769966,0.0014770830748602748,0.6561676859855652,0.7545530200004578,82.01587317709676,0.00021219253540039062,231,-9.343959e-06,-1.6280916e-05,1.8771728572802495e-05,0.00010949439,-7.39495e-05,0.00013212701576835703,1.7420962e-05,-6.991986e-06,-5.802405e-05,-0.000118704505,3.932551383972168,109.5741195678711
1779207295.740282,0.8913280963897705,hold-xy,0,0.0,0.0015423449,-0.00011050493,0.0,0.008683107,0.002289121,0.037569325,-0.009276770986616611,0.0010864125797525048,0.6563085317611694,0.7544347643852234,82.03725998863955,0.0006067752838134766,232,9.972602e-06,-1.6561942e-05,1.9332632957205506e-05,0.00036308262,-5.593187e-05,0.00036736545163241845,1.5020763e-05,1.217076e-05,-5.0950875e-06,-0.0003673301,3.932551383972168,109.5741195678711
1779207295.783084,0.9341299533843994,hold-xy,0,0.0,0.0014505625,5.6457953e-05,0.0,0.008691262,0.002291571,0.037529152,-0.009778343141078949,0.0016393553232774138,0.6561962962150574,0.7545250654220581,82.02021335335755,0.012724876403808594,233,1.8128194e-05,-1.4111865e-05,2.2973379292384696e-05,0.00033389637,-1.5197511e-05,0.00033424204727284216,1.1458598e-05,1.9911724e-05,3.1302385e-05,-0.00033277305,3.932551383972168,109.5741195678711
1779207295.8056164,0.9566624164581299,hold-xy,0,0.0,0.000784244,0.0007394266,0.0,0.00868752,0.002308669,0.037553795,-0.009850883856415749,0.00184418517164886,0.6561101675033569,0.7545985579490662,82.00716543654295,0.003586292266845703,234,1.438614e-05,2.986053e-06,1.469277115421239e-05,0.00019828133,0.00015131963,0.00024942557650056566,-4.9574273e-06,1.3831176e-05,0.0001774205,-0.00017531423,3.932551383972168,109.5987777709961
1779207295.8493516,1.0003976821899414,hold-xy,0,0.0,0.000943543,0.000877075,0.0,0.008698474,0.0023164714,0.037525002,-0.009864912368357182,0.0019795382395386696,0.6560508012771606,0.7546496987342834,81.99818239429014,0.009684085845947266,235,2.5339425e-05,1.0788441e-05,2.7540459190145096e-05,0.00022610315,0.00016811486,0.00028175386055708743,-1.4210763e-05,2.3590912e-05,0.00019795261,-0.00020049937,3.932551383972168,109.5987777709961
1779207295.8932111,1.0442571640014648,hold-xy,0,0.0,2.5240784e-05,-0.00012024746,0.0,0.008678034,0.002299158,0.0375555,-0.009778991341590881,0.0017646070336923003,0.6560752987861633,0.7546300292015076,82.00186435414724,0.01605224609375,236,4.899688e-06,-6.525079e-06,8.159877434427176e-06,-5.283553e-06,-2.0859829e-05,2.1518558906657388e-05,5.7798597e-06,5.7599323e-06,-2.1392076e-05,2.3297027e-06,3.932551383972168,109.5987777709961
1779207295.913683,1.0647289752960205,hold-xy,0,0.0,-0.00027144898,-0.0021388247,0.0,0.0086661875,0.002258629,0.037579663,-0.009535099379718304,0.0016865686047822237,0.6563233137130737,0.7544175982475281,82.03955401386874,0.008571386337280273,237,-6.946735e-06,-4.705391e-05,4.756392999424519e-05,-0.00013083937,-0.0004495746,0.00046822672929582715,4.7562542e-05,-3.633263e-07,-0.00046336235,6.7317254e-05,3.932551383972168,109.58458709716797
1779207295.9347575,1.085803508758545,hold-xy,0,0.0,0.0012440905,0.0011286389,0.0,0.008694162,0.0022973295,0.03752713,-0.010047049261629581,0.002269177697598934,0.6561343669891357,0.7545737624168396,82.01092584526239,0.009039640426635742,238,2.1027401e-05,-8.353498e-06,2.2625925315757845e-05,0.00031567866,0.00024872425,0.0004018914855827656,5.349946e-06,2.1984326e-05,0.00029018463,-0.00027804612,3.932551383972168,109.58458709716797
1779207295.9768243,1.1278703212738037,hold-xy,0,0.0,0.0004898661,0.0010463076,0.0,0.008681297,0.002308235,0.03754184,-0.009748265147209167,0.0015491769881919026,0.656173825263977,0.754545271396637,82.01678969317749,6.508827209472656e-05,239,8.163042e-06,2.5520567e-06,8.552675098761072e-06,0.00014536368,0.0002382053,0.0002790562159532096,-3.6610313e-06,7.729495e-06,0.00025608536,-0.00011087229,3.932551383972168,109.58458709716797
1779207295.9970775,1.1481235027313232,hold-xy,1000,1.525902189669642,0.0045386185,6.226032e-05,0.0,0.008713801,0.0022981835,0.037499357,-0.009149043820798397,-0.0005795434699393809,0.6561233401298523,0.754598081111908,82.00930663031237,0.01019287109375,240,4.066713e-05,-7.499475e-06,4.1352844667096514e-05,0.0010648009,-0.00013106772,0.0010728371928030451,1.7734305e-06,4.1314797e-05,1.8225226e-05,-0.0010726824,3.932551383972168,109.53817749023438
1779207296.0387223,1.1897683143615723,hold-xy,1000,1.525902189669642,0.002087259,-0.0007349384,0.0,0.008685616,0.002284647,0.037565812,-0.009502395987510681,0.0018469826318323612,0.6562618017196655,0.7544711828231812,82.03025262772024,0.020839929580688477,241,1.2481585e-05,-2.1036016e-05,2.4460252695536543e-05,0.0004725775,-0.00022275568,0.0005224457516295269,1.9102265e-05,1.527768e-05,-0.00015508122,-0.0004988982,3.932551383972168,109.53817749023438
1779207296.0793412,1.2303872108459473,hold-xy,1000,1.525902189669642,0.001345149,-0.00014389525,0.0,0.008683163,0.0022966487,0.037558798,-0.009959236718714237,0.0019518811022862792,0.6561776399612427,0.7545382380485535,82.01742121130006,0.020146846771240234,242,1.00284815e-05,-9.034295e-06,1.349773798118106e-05,0.00031299025,-6.877468e-05,0.00032045725386661193,7.5540797e-06,1.1185919e-05,-2.4642693e-05,-0.00031950837,3.932551383972168,109.53817749023438
1779207296.0997744,1.2508203983306885,hold-xy,1000,1.525902189669642,0.001653341,0.0010941783,0.0,0.008696568,0.002313943,0.037548844,-0.010175874456763268,0.0030286358669400215,0.6560916304588318,0.7546065449714661,82.00471872613201,0.01975560188293457,243,2.3433939e-05,8.260133e-06,2.4847118833745112e-05,0.00041221426,0.00020100395,0.00045861005147851804,-1.1439303e-05,2.2057236e-05,0.00025638563,-0.0003802494,3.9272727966308594,109.55186462402344
1779207296.1410255,1.2920715808868408,hold-xy,1000,1.525902189669642,0.00079039746,0.000671259,0.0,0.0086847255,0.002312321,0.037552323,-0.009977905079722404,0.002057563280686736,0.6561816334724426,0.7545343041419983,82.0180536378856,0.020145893096923828,244,1.1591241e-05,6.6380017e-06,1.3357391876000518e-05,0.00020160108,0.0001287931,0.00023922929909684956,-8.183264e-06,1.05571835e-05,0.00015553986,-0.0001817636,3.9272727966308594,109.55186462402344
1779207296.1638038,1.314849853515625,hold-xy,1000,1.525902189669642,-0.00033278172,0.00013158552,0.0,0.008669048,0.0023086069,0.03755978,-0.009598092176020145,0.0017625433392822742,0.6562086939811707,0.7545163035392761,82.02215082592238,0.02082347869873047,245,-4.0866435e-06,2.9238872e-06,5.024915026547948e-06,-7.169458e-05,3.9738883e-05,8.197128637295118e-05,-2.3284028e-06,-4.4528992e-06,2.9403775e-05,7.651608e-05,3.9272727966308594,109.55186462402344
1779207296.1891139,1.3401598930358887,hold-xy,1000,1.525902189669642,0.0004622535,-0.0006969493,0.0,0.008683073,0.0022874847,0.037579138,-0.00985886249691248,0.002710462547838688,0.6562590003013611,0.7544664144515991,82.03005290192282,0.01262354850769043,246,9.9390745e-06,-1.8198276e-05,2.0735536031869926e-05,7.537988e-05,-0.00016128022,0.00017802650204852788,1.6644408e-05,1.236633e-05,-0.00014927071,-9.701388e-05,3.9272727966308594,109.55186462402344
1779207296.2106805,1.3617265224456787,hold-xy,1000,1.525902189669642,-0.0014161473,-0.00051515235,0.0,0.008652321,0.0022918398,0.03756517,-0.009495887905359268,0.0012273123720660806,0.6562307476997375,0.7544995546340942,82.02542775357773,0.01053619384765625,247,-2.0813197e-05,-1.3843179e-05,2.4996454730535273e-05,-0.00033726066,-5.7661095e-05,0.00034215428398733506,1.6596801e-05,-1.8691413e-05,-0.00010389289,0.00032599972,3.932551383972168,109.57564544677734
1779207296.2542078,1.4052538871765137,hold-xy,1000,1.525902189669642,-0.0004962079,-0.00046862633,0.0,0.008664989,0.0022881166,0.03754022,-0.009783218614757061,0.001969818025827408,0.6562031507492065,0.7545182704925537,82.02132949941851,0.019257783889770508,248,-8.145347e-06,-1.7566374e-05,1.9362958123280285e-05,-0.00012689497,-7.245395e-05,0.00014612292320363024,1.8526938e-05,-5.628208e-06,-8.936617e-05,0.00011560967,3.932551383972168,109.57564544677734
1779207296.275121,1.4261670112609863,hold-xy,2000,3.051804379339284,-0.0015924489,-0.00019077663,0.0,0.008640921,0.002294941,0.037571352,-0.009460841305553913,0.0013587430585175753,0.6562756896018982,0.7544606328010559,82.03227493947509,0.01279306411743164,249,-3.2213517e-05,-1.0741875e-05,3.395730415637482e-05,-0.00035255984,2.4063502e-05,0.00035338008985496844,1.510346e-05,-3.041355e-05,-2.503897e-05,0.00035249192,3.932551383972168,109.57564544677734
1779207296.2955418,1.4465878009796143,hold-xy,3000,4.577706569008926,0.0007592907,-1.8442224e-06,0.0,0.00867454,0.002293025,0.037551887,-0.009641291573643684,0.0020935155916959047,0.6562121510505676,0.7545119524002075,82.02275473098989,0.009900093078613281,250,1.4053658e-06,-1.2658071e-05,1.273584788770201e-05,0.00018581378,-7.8130415e-06,0.0001859779728805471,1.2340545e-05,3.148451e-06,1.8049763e-05,-0.0001851,3.932551383972168,109.5664291381836
1779207296.315881,1.4669270515441895,hold-xy,3000,4.577706569008926,0.00031484533,-0.0016458634,0.0,0.008668548,0.002271797,0.03758495,-0.009601435624063015,0.0018145847134292126,0.6563453674316406,0.7543972730636597,82.04292169332663,0.012652158737182617,251,-4.5858324e-06,-3.388594e-05,3.419483392985862e-05,2.7872535e-05,-0.00036757148,0.0003686267363006269,3.4194512e-05,1.4919169e-07,-0.00036017408,-7.8487545e-05,3.932551383972168,109.5664291381836
1779207296.336402,1.48744797706604,hold-xy,3000,4.577706569008926,8.576036e-05,8.1341765e-05,0.0,0.008669553,0.0023003991,0.037566416,-0.009971360675990582,0.002535036066547036,0.6560863256454468,0.7546157240867615,82.0037375529793,0.002786397933959961,253,-3.5809353e-06,-5.2838586e-06,6.3829664153873435e-06,2.9431867e-05,2.5081012e-05,3.8669004258032375e-05,5.730623e-06,-2.8110887e-06,2.8931376e-05,-2.5656724e-05,3.932551383972168,109.5664291381836
1779207296.3578036,1.5088496208190918,hold-xy,3000,4.577706569008926,-0.00020677836,-0.0015955988,0.0,0.008661453,0.002273924,0.03756165,-0.009524558670818806,0.0014959534164518118,0.6563582420349121,0.7543877959251404,82.04482595242763,0.00199127197265625,254,-1.1681579e-05,-3.175903e-05,3.3839257554994285e-05,-8.888179e-05,-0.00034026796,0.00035168488103467583,3.3070115e-05,-7.173767e-06,-0.0003492945,4.093394e-05,3.932551383972168,109.5664291381836
1779207296.3784678,1.5295138359069824,hold-xy,3000,4.577706569008926,-0.00085870887,0.0032608462,0.0,0.008660828,0.0023100586,0.03755888,-0.0098883593454957,0.0023607569746673107,0.6560747027397156,0.7546274662017822,82.00192363867549,0.012512683868408203,255,-1.23064965e-05,4.3755863e-06,1.3061225328628668e-05,-8.0700825e-05,0.0008305886,0.0008344998352420292,-2.6206994e-06,-1.2795606e-05,0.0008112805,0.00019548381,3.932551383972168,109.5664291381836
1779207296.3989458,1.5499918460845947,hold-xy,3000,4.577706569008926,0.0017632197,0.0015616323,0.0,0.008695456,0.0022939858,0.037536424,-0.00996715109795332,0.002016454702243209,0.6561731696128845,0.75454181432724,82.01675762675052,0.01277017593383789,256,2.232194e-05,-1.1697179e-05,2.5201051132984448e-05,0.0004572713,0.00034294976,0.0005715869013415486,8.483669e-06,2.3730156e-05,0.00040313357,-0.0004052097,3.9272727966308594,109.56063842773438
1779207296.4194877,1.5705337524414062,hold-xy,4000,6.103608758678568,0.00019694422,0.00090460083,0.0,0.0086712865,0.0022935085,0.037551146,-0.009646827355027199,0.001275826245546341,0.6561710834503174,0.7545493841171265,82.01634817753596,0.002736806869506836,258,-1.847744e-06,-1.21744815e-05,1.231390129720654e-05,8.294059e-05,0.0002353816,0.00024956690401406137,1.2313118e-05,-1.3891486e-07,0.00024461988,-4.944443e-05,3.9272727966308594,109.56063842773438
1779207296.4397333,1.5907793045043945,hold-xy,4000,6.103608758678568,-0.0008294079,0.0020139255,0.0,0.008665165,0.0023057484,0.037527945,-0.00996401160955429,0.0022044789511710405,0.6560420989990234,0.7546554207801819,81.99690957382215,0.012855052947998047,259,-7.969327e-06,6.542541e-08,7.96959582301616e-06,-0.00012328054,0.0005273485,0.0005415667134592476,1.0447534e-06,-7.900819e-06,0.0005050485,0.00019550075,3.9272727966308594,109.56063842773438
1779207296.461182,1.6122281551361084,hold-xy,4000,6.103608758678568,-0.00046544976,0.0012046951,0.0,0.008667382,0.0023008764,0.03754342,-0.010111751034855843,0.0023771144915372133,0.6560527682304382,0.7546434998512268,81.99855874598471,0.003530263900756836,261,-5.751848e-06,-4.806556e-06,7.495781201417904e-06,-6.467904e-05,0.00032164893,0.0003280875069673892,5.5604078e-06,-5.0267886e-06,0.00030951438,0.000108822256,3.9272727966308594,109.56063842773438
1779207296.4820232,1.6330692768096924,hold-xy,4000,6.103608758678568,0.00026798723,-0.00039752497,0.0,0.008674016,0.0022805848,0.037581064,-0.009687535464763641,0.0017732513369992375,0.6562334895133972,0.7544936537742615,82.02590559100943,0.0037512779235839844,262,8.819625e-07,-2.5098212e-05,2.5113703527221284e-05,5.1239367e-05,-7.006715e-05,8.680367791122671e-05,2.4733183e-05,4.355193e-06,-6.228147e-05,-6.046402e-05,3.9272727966308594,109.56063842773438
1779207296.5023043,1.6533503532409668,hold-xy,4000,6.103608758678568,-0.00086963485,0.0034741524,0.0,0.0086659575,0.0023405496,0.0375427,-0.010099874809384346,0.0023801522329449654,0.6559363603591919,0.7547448873519897,81.98088669078497,0.0037539005279541016,263,-7.1767718e-06,3.486662e-05,3.5597575128755375e-05,-8.335359e-05,0.0008380745,0.0008422093701777916,-3.35245e-05,-1.1970607e-05,0.00081825134,0.0001994528,3.932551383972168,109.57257080078125
1779207296.5225825,1.673628568649292,hold-xy,5000,7.629510948348211,0.0017150684,-0.0009423352,0.0,0.008681057,0.0023100297,0.037543077,-0.009612440131604671,0.001233377493917942,0.6561715602874756,0.754549503326416,82.01642127522396,0.013698339462280273,264,7.922761e-06,4.3467153e-06,9.036817928755504e-06,0.00038000726,-0.00029937172,0.0004837653827590598,-5.4049733e-06,7.2422613e-06,-0.00024369125,-0.0004179037,3.932551383972168,109.57257080078125
1779207296.5428576,1.6939036846160889,hold-xy,5000,7.629510948348211,0.0020092297,-0.00012713119,0.0,0.008700087,0.0023190267,0.03756558,-0.010118089616298676,0.003011719323694706,0.6560953259468079,0.754604160785675,82.00528252568226,0.003374338150024414,266,2.6952475e-05,1.3343757e-05,3.0074769479884816e-05,0.00045257632,-0.00012135136,0.00046856320917834096,-1.6962666e-05,2.4834648e-05,-5.7226796e-05,-0.00046505546,3.932551383972168,109.57257080078125
1779207296.58379,1.7348361015319824,hold-xy,5000,7.629510948348211,0.0009534101,-0.0005082324,0.0,0.008687119,0.0023102462,0.037548766,-0.009731531143188477,0.0014652481768280268,0.6561509966850281,0.754565417766571,82.0133105236942,0.011722803115844727,267,1.398474e-05,4.563248e-06,1.4710410556942221e-05,0.00019740965,-0.00016578799,0.0002577910602418969,-6.462068e-06,1.3215062e-05,-0.0001367512,-0.00021852994,3.932551383972168,109.57257080078125
1779207296.6042418,1.7552878856658936,hold-xy,5000,7.629510948348211,0.000108377164,-0.0003515036,0.0,0.008674332,0.0023118758,0.037553426,-0.009623454883694649,0.0015640351921319962,0.6561769247055054,0.7545441389083862,82.01728278261328,0.0015726089477539062,268,1.1976808e-06,6.1928295e-06,6.307580963427763e-06,1.2831515e-05,-0.00010007633,0.00010089558968587668,-6.299148e-06,3.2604999e-07,-9.732462e-05,-2.6605216e-05,3.932551383972168,109.60002899169922
1779207296.624992,1.7760379314422607,hold-xy,5000,7.629510948348211,0.00031872524,0.00023075266,0.0,0.008679095,0.002318555,0.037558094,-0.009928666986525059,0.0021145306527614594,0.6560570597648621,0.7546430230140686,81.99915916283832,0.0016186237335205078,270,5.9604645e-06,1.2872042e-05,1.4185083677527547e-05,7.7994475e-05,2.6727917e-05,8.244707051326379e-05,-1.35763685e-05,4.1108165e-06,3.7323614e-05,-7.351508e-05,3.932551383972168,109.60002899169922
1779207296.6492774,1.800323486328125,hold-xy,5000,7.629510948348211,-0.00030933347,-0.0019297058,0.0,0.008672046,0.0023013582,0.037574325,-0.009617023169994354,0.0015508298529312015,0.6562489867210388,0.7544815540313721,82.02822581895298,0.015139579772949219,271,-1.0887161e-06,-4.324829e-06,4.459759096311186e-06,-0.00014185841,-0.00046055228,0.0004819047731149358,4.4340254e-06,-4.784053e-07,-0.00047577542,7.661576e-05,3.932551383972168,109.60002899169922
1779207296.6731122,1.8241581916809082,hold-xy,6000,9.155413138017853,-0.00011858643,0.0010254107,0.0,0.008678966,0.0023392467,0.03758363,-0.009687820449471474,0.001737111248075962,0.6561485528945923,0.7545676231384277,82.01299811992735,0.017529010772705078,272,5.831942e-06,3.35637e-05,3.406660636406957e-05,-2.4871333e-06,0.00020763974,0.00020765462697532402,-3.404846e-05,1.1117459e-06,0.00020527998,3.1314226e-05,3.932551383972168,109.60002899169922
1779207296.698033,1.8490791320800781,hold-xy,6000,9.155413138017853,1.6904143e-05,2.6009257e-05,0.0,0.008678774,0.0023202584,0.03755808,-0.010082411579787731,0.0024706947151571512,0.6561293601989746,0.7545770406723022,82.01022900117566,0.0071468353271484375,275,5.6400895e-06,1.4575431e-05,1.5628620664197754e-05,-3.3713236e-06,-1.6011356e-05,1.6362436820314556e-05,-1.5217898e-05,3.5594096e-06,-1.6324533e-05,1.1130787e-06,3.932551383972168,109.60002899169922
1779207296.7194386,1.8704845905303955,hold-xy,6000,9.155413138017853,-0.0005568326,-0.001428674,0.0,0.008666468,0.0022983067,0.03758521,-0.009480776265263557,0.0011961919954046607,0.6562899947166443,0.7544483542442322,82.03442635424372,0.007455587387084961,276,-6.666407e-06,-7.3763076e-06,9.9423789752742e-06,-0.00017736113,-0.00032336672,0.0003688129667129664,8.228955e-06,-5.579892e-06,-0.00034482506,0.0001308383,3.932551383972168,109.607666015625
1779207296.7401345,1.8911805152893066,hold-xy,6000,9.155413138017853,0.00091389887,0.00048883766,0.0,0.008690001,0.0023186791,0.03755251,-0.009975320659577847,0.002681525656953454,0.6561466455459595,0.7545627355575562,82.01295569586057,0.007513523101806641,277,1.6867183e-05,1.2996141e-05,2.129322752745608e-05,0.00021793852,6.978333e-05,0.0002288381837901863,-1.5213754e-05,1.489776e-05,9.938878e-05,-0.00020612808,3.932551383972168,109.607666015625
1779207296.7614036,1.912449598312378,hold-xy,6000,9.155413138017853,0.00015353122,-0.00198221,0.0,0.008676941,0.002283334,0.03756946,-0.009649191051721573,0.001741817221045494,0.6562497615814209,0.7544800043106079,82.02837566368785,0.008048772811889648,279,3.8063154e-06,-2.2348948e-05,2.2670762732743462e-05,-3.642209e-05,-0.00046256348,0.0004639951893178352,2.1605118e-05,6.868946e-06,-0.0004631448,-2.8079387e-05,3.932551383972168,109.607666015625
1779207296.804057,1.9551029205322266,hold-xy,6000,9.155413138017853,0.00019844828,-0.002732206,0.0,0.008674667,0.0022544751,0.037561357,-0.009403069503605366,0.0011754705337807536,0.6563198566436768,0.7544232606887817,82.03897034470062,0.0200808048248291,280,1.532957e-06,-5.120784e-05,5.123077947233905e-05,-4.7767797e-05,-0.000606528,0.0006084060955962468,5.0502014e-05,8.610445e-06,-0.00060729845,-3.6696405e-05,3.9272727966308594,109.56029510498047
1779207296.8243554,1.9754014015197754,hold-xy,6000,9.155413138017853,0.00048470552,6.117993e-05,0.0,0.008688256,0.0022987793,0.037566304,-0.009908530861139297,0.002210583072155714,0.6561436057090759,0.7545677423477173,82.01233441479667,0.00970005989074707,282,1.5121885e-05,-6.9036614e-06,1.6623235464741658e-05,9.9443285e-05,8.6634245e-06,9.981994594168081e-05,4.735346e-06,1.5934504e-05,2.2398002e-05,-9.727463e-05,3.9272727966308594,109.56029510498047
1779207296.8669271,2.0179731845855713,hold-xy,6000,9.155413138017853,5.318028e-05,-0.00012341721,0.0,0.008680509,0.0022961686,0.037568368,-0.010031712241470814,0.0023415705654770136,0.656182050704956,0.7545323371887207,82.01819495226194,0.019899845123291016,283,7.3751435e-06,-9.514391e-06,1.2038122131297054e-05,-2.18083e-06,-1.812994e-05,1.8260634353666663e-05,8.398116e-06,8.624849e-06,-1.8257128e-05,-3.5779567e-07,3.9272727966308594,109.56029510498047
1779207296.887456,2.0385019779205322,hold-xy,6000,9.155413138017853,-0.0007060567,0.0003072713,0.0,0.008665246,0.002307376,0.037594322,-0.009718399494886398,0.002193793887272477,0.6562225818634033,0.7545016407966614,82.02435676052608,0.010061502456665039,284,-7.888302e-06,1.6929116e-06,8.067915391961817e-06,-0.0001523157,9.802712e-05,0.0001811336219022398,-5.820176e-07,-8.046894e-06,7.5944794e-05,0.00016444383,3.9272727966308594,109.56029510498047
1779207296.928138,2.079184055328369,hold-xy,6000,9.155413138017853,-0.00041102758,0.00032709766,0.0,0.008667995,0.0023097375,0.03757705,-0.009946946986019611,0.0021674842573702335,0.6561920046806335,0.7545253038406372,82.0196652987612,0.016263961791992188,285,-5.139038e-06,4.054513e-06,6.5458984882555015e-06,-8.270021e-05,8.916679e-05,0.00012161430596521996,-3.301779e-06,-5.6521712e-06,7.682174e-05,9.4278636e-05,3.9272727966308594,109.527587890625
1779207296.949196,2.1002421379089355,hold-xy,6000,9.155413138017853,-0.000519679,-0.0006273785,0.0,0.008660532,0.0022916328,0.037597112,-0.00927452277392149,0.0008217988652177155,0.6561980247497559,0.7545312643051147,82.02046168843162,0.006916522979736328,286,-1.2602657e-05,-1.4050165e-05,1.8874164823267115e-05,-0.00013153092,-0.000116215386,0.00017551751318038114,1.5663622e-05,-1.0530199e-05,-0.0001333492,0.00011412444,3.9272727966308594,109.527587890625
1779207297.011182,2.1622281074523926,hold-xy,7000,10.681315327687495,-0.00031188055,-0.00048944546,0.0,0.008663254,0.0022903471,0.037588578,-0.00970672257244587,0.001995782135054469,0.6561567187309265,0.7545595765113831,82.01429745513703,0.004490852355957031,288,-9.880401e-06,-1.5335856e-05,1.8243102989659998e-05,-7.9392616e-05,-8.7338936e-05,0.0001180308326877451,1.6559785e-05,-7.65404e-06,-9.752168e-05,6.6489076e-05,3.9272727966308594,109.53022003173828
1779207297.051637,2.2026829719543457,hold-xy,8000,12.207217517357137,-0.0007421233,-8.582289e-05,0.0,0.008653896,0.0022974776,0.037575208,-0.009557359851896763,0.0013553251046687365,0.656234085559845,0.7544956207275391,82.02594082432041,0.017498016357421875,289,-1.923833e-05,-8.2054175e-06,2.0915120107005856e-05,-0.00015785586,1.6797574e-05,0.00015874706584809213,1.0794912e-05,-1.791402e-05,-5.263355e-06,0.0001586598,3.9272727966308594,109.53022003173828
1779207297.0924118,2.243457794189453,hold-xy,8000,12.207217517357137,-0.0005727002,0.00032431513,0.0,0.008654961,0.0023096423,0.0375686,-0.009262178093194962,0.000858367420732975,0.656205415725708,0.7545250058174133,82.02158768747832,0.014021158218383789,290,-1.8172897e-05,3.959285e-06,1.8599197446123405e-05,-0.0001032761,9.422774e-05,0.00013980279279346368,-1.398563e-06,-1.8546541e-05,7.8980935e-05,0.000115355244,3.9272727966308594,109.53022003173828
1779207297.114252,2.2652981281280518,hold-xy,8000,12.207217517357137,0.0004080859,2.2834964e-05,0.0,0.008670817,0.0023033079,0.03756269,-0.009915780276060104,0.002020385814830661,0.6560414433479309,0.7546570301055908,81.99676344755851,0.009076833724975586,291,-2.3171306e-06,-2.3751054e-06,3.3181651022400945e-06,0.000105298335,-4.9885566e-06,0.00010541643840727941,2.6745843e-06,-1.9638785e-06,9.7206175e-06,-0.000104967294,3.921994209289551,109.51924133300781
1779207297.135642,2.2866880893707275,hold-xy,8000,12.207217517357137,0.00018860312,-7.736113e-05,0.0,0.0086692115,0.0023021663,0.03758157,-0.009716084226965904,0.0020560906268656254,0.6561824083328247,0.7545369267463684,82.01821385636198,0.010241985321044922,292,-3.9227307e-06,-3.516674e-06,5.268283623467845e-06,4.9892536e-05,-2.0425185e-05,5.3911532163864596e-05,4.027309e-06,-3.396409e-06,-1.3299319e-05,-5.2245396e-05,3.921994209289551,109.51924133300781
1779207297.1967623,2.347808361053467,hold-xy,9000,13.733119707026779,-0.00030964328,-0.0003082162,0.0,0.008650719,0.002294865,0.037564352,-0.009472445584833622,0.0014394378522410989,0.6560927629470825,0.7546194791793823,82.00450433801798,0.008802413940429688,293,-2.2415072e-05,-1.081801e-05,2.4889048942611426e-05,-5.3753556e-05,-4.9310518e-05,7.294499371012329e-05,1.3830679e-05,-2.0692441e-05,-5.6308036e-05,4.637216e-05,3.921994209289551,109.52436065673828
1779207297.21708,2.368126153945923,hold-xy,9000,13.733119707026779,0.0021471928,-0.001586221,0.0,0.00868998,0.0022650352,0.037577473,-0.009503711014986038,0.0016519411001354456,0.6563237905502319,0.7544175982475281,82.03962370750601,0.005037069320678711,295,1.6845763e-05,-4.0647807e-05,4.400027281478977e-05,0.0004514388,-0.00040610263,0.0006072201531318946,3.7923186e-05,2.231268e-05,-0.00033967049,-0.0005033292,3.921994209289551,109.52436065673828
1779207297.2375264,2.3885724544525146,hold-xy,9000,13.733119707026779,0.0019152156,-0.0006089193,0.0,0.008696844,0.0022729018,0.0375838,-0.009532439522445202,0.0018695069011300802,0.6563217639923096,0.7544185519218445,82.03936073579844,0.0052032470703125,296,2.370961e-05,-3.2781158e-05,4.0456765154511745e-05,0.00041754276,-0.000167902,0.00045003671467741394,2.918165e-05,2.8021084e-05,-0.00010845735,-0.00043677227,3.921994209289551,109.52436065673828
1779207297.2584038,2.409449815750122,hold-xy,9000,13.733119707026779,-0.001193826,0.00041421657,0.0,0.008666141,0.0022885657,0.037570782,-0.009667772799730301,0.001745037967339158,0.6561660170555115,0.7545526027679443,82.01565458058745,0.009719371795654297,297,-6.993301e-06,-1.7117243e-05,1.849070796548925e-05,-0.00027068937,0.00016968252,0.00031947596967870284,1.7922697e-05,-4.5478805e-06,0.00013043819,0.00029163467,3.921994209289551,109.52436065673828
1779207297.2805028,2.431548833847046,hold-xy,9000,13.733119707026779,-0.0011887838,-1.3050478e-05,0.0,0.008658979,0.0022844053,0.037578937,-0.009673490189015865,0.001988491276279092,0.6561887860298157,0.7545320987701416,82.01917073637496,0.006257057189941406,299,-1.4155172e-05,-2.1277694e-05,2.5555999732732066e-05,-0.0002735377,6.994873e-05,0.0002823396965709876,2.303694e-05,-1.1063841e-05,3.129279e-05,0.0002806002,3.921994209289551,109.52436065673828
1779207297.304876,2.4559221267700195,hold-xy,9000,13.733119707026779,0.0012934707,0.00023531259,0.0,0.008690701,0.002284189,0.037572052,-0.009980498813092709,0.002389105036854744,0.6561842560768127,0.7545309662818909,82.01855548865251,0.011347770690917969,300,1.7566606e-05,-2.1493994e-05,2.7759276561071292e-05,0.00030205376,4.55989e-05,0.00030547624098573663,1.8846618e-05,2.0380932e-05,8.709807e-05,-0.0002927963,3.916715621948242,109.55207824707031
1779207297.3309968,2.4820427894592285,hold-xy,9000,13.733119707026779,-0.0014320101,0.00018644042,0.0,0.008651237,0.002290679,0.037555702,-0.009807964786887169,0.0022291652858257294,0.656024158000946,0.7546728849411011,81.99421885418745,0.014986753463745117,301,-2.1897256e-05,-1.5004072e-05,2.654452929296082e-05,-0.00031517597,0.00011852203,0.00033672446439065413,1.790754e-05,-1.9594185e-05,7.347141e-05,0.00032861123,3.916715621948242,109.55207824707031
1779207297.3532767,2.5043227672576904,hold-xy,9000,13.733119707026779,6.573776e-05,-6.6459645e-05,0.0,0.008677519,0.0022828963,0.037572436,-0.00986484345048666,0.0020441384986042976,0.6562191843986511,0.754503071308136,82.02377122590163,0.002687692642211914,303,4.3846667e-06,-2.278667e-05,2.3204689436225788e-05,7.392926e-06,1.5445352e-05,1.7123500180420928e-05,2.19578e-05,7.5041776e-06,1.6321788e-05,-5.1781735e-06,3.916715621948242,109.55207824707031
1779207297.3753788,2.5264248847961426,hold-xy,9000,13.733119707026779,-0.002626706,0.0014290352,0.0,0.008657586,0.002298141,0.037588656,-0.009591560810804367,0.0018698249477893114,0.656162679195404,0.7545561790466309,82.0151889560281,0.014524459838867188,304,-1.554843e-05,-7.542083e-06,1.7281108947605846e-05,-0.0005773603,0.0004563276,0.0007359210323958042,9.628803e-06,-1.4350012e-05,0.00037170202,0.00063515146,3.916715621948242,109.55207824707031
1779207297.3969035,2.5479495525360107,hold-xy,10000,15.259021896696423,-0.0017679582,0.00017297771,0.0,0.008657161,0.0022775494,0.037581034,-0.009869012050330639,0.002114366041496396,0.6560938358306885,0.7546117901802063,82.0047535392497,0.00032639503479003906,306,-1.5973113e-05,-2.8133625e-05,3.2351834849644754e-05,-0.00040771867,0.00014650126,0.00043324027930081093,3.008187e-05,-1.1904716e-05,8.836723e-05,0.00042413248,3.921994209289551,109.55602264404297
1779207297.4175758,2.568621873855591,hold-xy,10000,15.259021896696423,-0.00037715523,-0.0004832334,0.0,0.008669578,0.0022671472,0.037578885,-0.009724901989102364,0.002506628166884184,0.6561776399612427,0.7545396089553833,82.01763766159831,0.0003719329833984375,307,-3.556721e-06,-3.85358e-05,3.869958796473303e-05,-0.0001048166,-4.8740403e-05,0.00011559475310096628,3.8656333e-05,1.8291403e-06,-6.282385e-05,9.703252e-05,3.921994209289551,109.55602264404297
1779207297.457988,2.6090340614318848,hold-xy,10000,15.259021896696423,-0.0017565375,0.003312386,0.0,0.008651932,0.0023382995,0.037606653,-0.00934205949306488,0.0009513528202660382,0.6562272310256958,0.754504919052124,82.02489346195,0.016141414642333984,308,-2.120249e-05,3.2616546e-05,3.890224609005028e-05,-0.00028819102,0.0008320895,0.000880583327845402,-2.93594e-05,-2.552274e-05,0.0007840574,0.00040085026,3.921994209289551,109.55602264404297
1779207297.4782577,2.6293036937713623,hold-xy,11000,16.784924086366065,-0.00040335828,-0.0005808346,0.0,0.008663496,0.00226076,0.037574828,-0.009900038130581379,0.0027450071647763252,0.6562209725379944,0.7544988393783569,82.02428435830728,0.0003399848937988281,310,-9.638257e-06,-4.4923043e-05,4.5945354678483206e-05,-0.00010555496,-6.242766e-05,0.0001226338515730756,4.582584e-05,-3.3118022e-06,-7.646989e-05,9.587187e-05,3.921994209289551,109.55602264404297
1779207297.4985383,2.6495842933654785,hold-xy,11000,16.784924086366065,7.2773255e-06,0.0018383313,0.0,0.00867296,0.0022955395,0.03757623,-0.009799452498555183,0.0018761854153126478,0.6561482548713684,0.7545660138130188,82.01296557879058,0.00031280517578125,311,-1.7415732e-07,-1.01435e-05,1.014499491301494e-05,6.59215e-05,0.00047008714,0.0004746868106021357,1.0069302e-05,1.2369613e-06,0.0004746868,3.6110578e-08,3.9114370346069336,109.58252716064453
1779207297.5209663,2.6720123291015625,hold-xy,11000,16.784924086366065,0.0018304911,-2.7143367e-05,0.0,0.008689015,0.0022803696,0.03758827,-0.009374617598950863,0.0013826948124915361,0.6562941074371338,0.7544456720352173,82.03508920753696,0.010142087936401367,312,1.5880913e-05,-2.5313348e-05,2.9882585581389713e-05,0.00042844648,-3.2161595e-05,0.00042965189477716027,2.2868588e-05,1.9235296e-05,2.7517039e-05,-0.00042876982,3.9114370346069336,109.58252716064453
1779207297.561525,2.712571144104004,hold-xy,11000,16.784924086366065,0.0020043447,-6.950577e-06,0.0,0.008704574,0.002279387,0.03756456,-0.009917810559272766,0.002531658159568906,0.6561359763145447,0.7545732259750366,82.01128549336401,0.01935577392578125,313,3.1439587e-05,-2.6295893e-05,4.098684723464324e-05,0.0004488225,-3.1916927e-05,0.0004499559332033717,2.167129e-05,3.4789035e-05,3.076929e-05,-0.00044890263,3.9114370346069336,109.58252716064453
1779207297.5820632,2.73310923576355,hold-xy,11000,16.784924086366065,0.00040331416,-0.00015206596,0.0,0.008679885,0.0022803252,0.037591923,-0.009150417521595955,0.0015927080530673265,0.6561803221702576,0.7545469403266907,82.01787674047091,0.007653713226318359,315,6.7511573e-06,-2.5357818e-05,2.6241133135873482e-05,8.44458e-05,-1.36129065e-05,8.553598030740596e-05,2.4174644e-05,1.020704e-05,-1.7545253e-06,-8.551798e-05,3.9114370346069336,109.58252716064453
1779207297.6023898,2.7534358501434326,hold-xy,11000,16.784924086366065,0.004276713,-0.0018865701,0.0,0.008731645,0.0022484995,0.037608307,-0.008824527263641357,0.0018943268805742264,0.6561180949211121,0.7546043395996094,82.00854619041921,0.009633541107177734,316,5.851034e-05,-5.718344e-05,8.18132374961058e-05,0.00090545946,-0.0005299301,0.001049134293722244,4.8493697e-05,6.589208e-05,-0.000398902,-0.0009703401,3.906158447265625,109.61820220947266
1779207297.6248326,2.775878667831421,hold-xy,12000,18.310826276035705,0.00759742,-0.0043321736,0.0,0.0087645585,0.002219827,0.037604783,-0.008165525272488594,0.001834031194448471,0.6562599539756775,0.754488468170166,82.03017097799935,0.02178955078125,317,9.142421e-05,-8.585607e-05,0.00012541790331141027,0.0015937075,-0.0012071471,0.0019992768184394407,7.235069e-05,0.00010244525,-0.00097451743,-0.0017456871,3.906158447265625,109.61820220947266
1779207297.6452856,2.7963316440582275,hold-xy,12000,18.310826276035705,0.010845076,-0.005332265,0.0,0.008879875,0.0021526692,0.037558693,-0.006357355043292046,0.0019530121935531497,0.6558036208152771,0.7549022436141968,81.96115179431447,0.009986162185668945,319,0.00020674057,-0.00015301374,0.00025720588688854577,0.002188094,-0.0014696023,0.002635808476858764,0.00012259862,0.00022610715,-0.0011491684,-0.0023721084,3.906158447265625,109.61820220947266
1779207297.6658444,2.8168904781341553,hold-xy,12000,18.310826276035705,0.023997953,-0.0036051169,0.0,0.009008293,0.002137533,0.037582852,-0.004671321716159582,0.002117415191605687,0.6561106443405151,0.7546472549438477,82.00800600516935,0.020357131958007812,320,0.00033515878,-0.00016815006,0.000374974464119719,0.005313171,-0.0014744378,0.005513959833375984,0.000119918186,0.00035528225,-0.00072140194,-0.005466565,3.906158447265625,109.61820220947266
1779207297.7081263,2.8591723442077637,hold-xy,12000,18.310826276035705,0.02477402,-0.013623746,0.0,0.009236626,0.0016782228,0.037699904,0.00019695755327120423,0.00034780235728248954,0.6576367616653442,0.7533350586891174,82.23978734551848,0.001062154769897461,323,0.00056349207,-0.0006274602,0.0008433443138087872,0.0048316508,-0.003269848,0.005834102767021449,0.00054562686,0.00064305594,-0.0025874963,-0.0052289213,3.9008798599243164,109.55754852294922
1779207297.7318046,2.8828506469726562,hold-xy,12000,18.310826276035705,0.023247538,-0.016114,0.0,0.009302644,0.0015752371,0.037701964,0.0010797909926623106,0.0014122644206508994,0.6578173041343689,0.7531754374504089,82.26746811104071,0.002501964569091797,324,0.0006295098,-0.00073044584,0.0009642788661941504,0.0042727427,-0.0036781826,0.0056378502579982155,0.00063910405,0.00072206627,-0.003069844,-0.0047287853,3.9008798599243164,109.55754852294922
1779207297.755483,2.906528949737549,hold-xy,12000,18.310826276035705,0.02652178,-0.01277296,0.0,0.009448808,0.0015487317,0.037897177,0.003970233257859945,0.0023745012003928423,0.6570477485656738,0.7538348436355591,82.1508505740461,0.004009723663330078,325,0.0007756734,-0.0007569513,0.0010838101618955113,0.0049687284,-0.0029333853,0.0057700098773575,0.0006439293,0.0008717796,-0.002227346,-0.005322776,3.9008798599243164,109.55754852294922
1779207297.7770526,2.928098678588867,hold-xy,12000,18.310826276035705,0.023691684,-0.0075884215,0.0,0.009509854,0.0015800567,0.037869368,0.0033315287437289953,0.005017249844968319,0.656628429889679,0.7541902661323547,82.08935612589224,0.004583835601806641,326,0.00083671976,-0.00072562625,0.0011075348562993713,0.0043503824,-0.0016057759,0.004637277426493632,0.0006035646,0.00092862436,-0.0009917584,-0.004529984,3.9008798599243164,109.55754852294922
1779207297.818577,2.96962308883667,hold-xy,12000,18.310826276035705,0.019815682,-0.0044015283,0.0,0.009561516,0.0016299505,0.03790782,0.004980877507477999,0.004065322689712048,0.6564662456512451,0.7543280124664307,82.06375599640037,0.004965066909790039,327,0.0008883821,-0.0006757325,0.0011161707295416286,0.0034219692,-0.0007602374,0.003505400772976359,0.00054660067,0.0009731726,-0.00028048106,-0.0034941614,3.906158447265625,109.52446746826172
1779207297.839678,2.9907240867614746,hold-xy,12000,18.310826276035705,0.010355615,-0.00028719334,0.0,0.009523656,0.0016659666,0.03790459,0.004642486572265625,0.004103707615286112,0.6563878655433655,0.7543981671333313,82.05188703512965,0.01589822769165039,328,0.00085052196,-0.0006397164,0.001064248408473176,0.001278323,0.000530482,0.0013840234454138704,0.00051596406,0.0009308092,0.0007021477,-0.00119269,3.906158447265625,109.52446746826172
1779207297.8801165,3.0311625003814697,hold-xy,13000,19.83672846570535,0.0069113597,-0.0053421753,0.0,0.009456037,0.0015635649,0.037876423,0.0035746265202760696,0.003342290874570608,0.6572631597518921,0.7536453008651733,82.18424858336586,0.01870107650756836,329,0.00078290235,-0.0007421181,0.0010787378701475185,0.00035581773,-0.00044492548,0.0005697060214842157,0.0006287589,0.0008765487,-0.00039240543,-0.00041301685,3.906158447265625,109.52446746826172
1779207297.9013863,3.0524322986602783,hold-xy,13000,19.83672846570535,9.709271e-05,-0.0038172177,0.0,0.009362388,0.0015927143,0.037773732,0.002396831288933754,-0.00014932705380488187,0.6574459671974182,0.753497838973999,82.21071240789675,0.019733428955078125,330,0.00068925414,-0.00071296864,0.0009916629802467227,-0.0011391691,0.000120664015,0.0011455418028464947,0.0006129754,0.0007795234,-3.484131e-05,0.0011450119,3.9008798599243164,109.44895935058594
1779207297.9235096,3.0745556354522705,hold-xy,13000,19.83672846570535,-0.003561087,-0.0020028423,0.0,0.00927091,0.0016396772,0.03768755,-0.0004059209313709289,0.0016877317102625966,0.6576899290084839,0.7532867789268494,82.2481541044134,0.015693187713623047,331,0.0005977759,-0.00066600577,0.0008949300123376168,-0.0018463372,0.0006229562,0.001948598357958252,0.0005792898,0.00068214594,0.00036822408,0.0019134907,3.9008798599243164,109.44895935058594
1779207297.989425,3.1404709815979004,hold-xy,13000,19.83672846570535,-0.004186568,-0.0014511404,0.0,0.009162631,0.0016937386,0.03769152,-0.0009983184281736612,0.00026783562498167157,0.6577007174491882,0.7532786130905151,82.24949919309822,0.020064592361450195,332,0.0004894966,-0.00061194436,0.0007836343947010242,-0.0018202506,0.00069959526,0.0019500630888502949,0.0005403407,0.0005675515,0.00044772596,0.0018979693,3.9008798599243164,109.44895935058594
1779207298.010199,3.161245107650757,hold-xy,13000,19.83672846570535,-0.00016608764,0.00067020324,0.0,0.00921296,0.0017516231,0.037670117,-0.001060202601365745,0.001221244572661817,0.6573614478111267,0.7535736560821533,82.19803286469622,0.0069887638092041016,334,0.0005398253,-0.00055405986,0.0007735591011997245,-0.0008281305,0.0010027261,0.0013004844689353382,0.00047564995,0.0006100416,0.00088102574,0.0009565843,3.895601272583008,109.38460540771484
1779207298.0512056,3.202251672744751,hold-xy,13000,19.83672846570535,0.003805005,-0.0056875227,0.0,0.009270413,0.0015963688,0.037717365,0.0006279679364524782,0.0006889715441502631,0.6577587127685547,0.7532281279563904,82.25838009645523,0.008355855941772461,335,0.0005972786,-0.00070931413,0.0009272908050107723,-0.00014487258,-0.0004730891,0.0004947740454744832,0.00062239217,0.00068738364,-0.0004882924,7.982421e-05,3.895601272583008,109.38460540771484
1779207298.0715902,3.2226362228393555,hold-xy,13000,19.83672846570535,0.0139454845,-0.0047894856,0.0,0.009423282,0.0015800735,0.0378434,0.002810270292684436,0.003750103060156107,0.6571615934371948,0.7537351846694946,82.16912661588152,0.00850987434387207,336,0.00075014774,-0.0007256095,0.0010436621819534615,0.0021654968,-0.0005728073,0.0022399743099712015,0.00061663566,0.00084201613,-0.00027241796,-0.002223347,3.895601272583008,109.38460540771484
1779207298.112156,3.263201951980591,hold-xy,13000,19.83672846570535,0.015034858,-0.0021544457,0.0,0.009513557,0.001619257,0.037860267,0.0037767982576042414,0.004203189164400101,0.6564948558807373,0.754309356212616,82.06822714953152,0.01801586151123047,337,0.0008404227,-0.00068642595,0.0010851225020171733,0.002387796,-2.2498949e-05,0.0023879020338511948,0.00056388584,0.00092710496,0.00030721736,-0.0023680571,3.895601272583008,109.36946105957031
1779207298.1536329,3.3046789169311523,hold-xy,13000,19.83672846570535,0.012299666,-0.0005198282,0.0,0.00952417,0.0016739657,0.037921675,0.005501185078173876,0.0038005351088941097,0.6560162901878357,0.7547171115875244,81.99517351143486,0.019110679626464844,338,0.00085103605,-0.00063171727,0.0010598721954327229,0.001750304,0.00039068295,0.0017933759940160516,0.0005070497,0.0009307146,0.00063061755,-0.0016788446,3.895601272583008,109.36946105957031
1779207298.1741405,3.3251864910125732,hold-xy,13000,19.83672846570535,0.010452786,-0.003755282,0.0,0.009520173,0.0016163057,0.0378634,0.0036402016412466764,0.004567768890410662,0.6566252708435059,0.7541943192481995,82.08839927258035,0.006918191909790039,339,0.0008470388,-0.0006893773,0.0010921152804039,0.001188541,-0.00025551216,0.001215695703606929,0.0005662248,0.0009338658,-8.948326e-05,-0.0012123979,3.895601272583008,109.36946105957031
1779207298.2153552,3.366401195526123,hold-xy,13000,19.83672846570535,0.0042157974,-0.005013114,0.0,0.009412058,0.0016011726,0.037855513,0.0021574171259999275,0.0030888577457517385,0.6572854518890381,0.7536324262619019,82.18743796214308,0.017722368240356445,340,0.00073892344,-0.00070451037,0.0010209518959635152,-0.00023458013,-0.0003281462,0.00040337052187486804,0.00059752725,0.0008278308,-0.00035698753,0.00018779695,3.895601272583008,109.33350372314453
1779207298.2569115,3.4079575538635254,hold-xy,13000,19.83672846570535,-0.008894112,0.006556812,0.0,0.009002943,0.0020518256,0.037620325,-0.0036330169532448053,0.0003906707279384136,0.6565173864364624,0.7543020248413086,82.06951607387602,0.006068706512451172,342,0.00032980833,-0.00025385735,0.0004161935711571871,-0.0024708118,0.0023110956,0.003383204632568087,0.00020592535,0.0003616792,0.0019480911,0.0027660467,3.895601272583008,109.33350372314453
1779207298.2772872,3.428333282470703,hold-xy,13000,19.83672846570535,-0.0076501323,0.008716608,0.0,0.008979514,0.0021301354,0.037612315,-0.005796295125037432,0.001700772438198328,0.6559784412384033,0.754755437374115,81.98768183335052,0.004488706588745117,343,0.00030637998,-0.00017554755,0.0003531085404903857,-0.0020496899,0.0026877811,0.0033801473671698627,0.00013112879,0.000327858,0.0023758453,0.00240432,3.895601272583008,109.33350372314453
1779207298.3399808,3.4910268783569336,hold-xy,14000,21.36263065537499,-0.004359535,0.0053152037,0.0,0.0089905085,0.0021097958,0.03764204,-0.004820256028324366,0.001337045687250793,0.6559587121009827,0.7547801733016968,81.98469512793011,0.016259193420410156,344,0.00031737424,-0.00019588717,0.00037295869844183177,-0.0013700131,0.0017616213,0.002231646398685703,0.00014971962,0.00034158782,0.0015533804,0.0016022655,3.895601272583008,109.34856414794922
1779207298.364282,3.5153279304504395,hold-xy,14000,21.36263065537499,0.0069722636,-0.0074151056,0.0,0.009117993,0.0019133836,0.037687182,-0.0030967930797487497,0.0014262533513829112,0.6570014953613281,0.7538815140724182,82.14325934383065,0.01889181137084961,345,0.00044485833,-0.00039229938,0.0005931253858981969,0.00080601126,-0.0014861971,0.0016906909509249635,0.00032780622,0.0004943084,-0.0013620671,-0.0010016033,3.895601272583008,109.34856414794922
1779207298.3863509,3.5373969078063965,hold-xy,14000,21.36263065537499,0.009411277,-0.01147088,0.0,0.009168601,0.001804214,0.037738178,-0.00041737238643690944,-0.0010961086954921484,0.6573465466499329,0.7535876035690308,82.19577099671756,0.017021894454956055,346,0.0004954664,-0.000501469,0.0007049525777413137,0.0011984234,-0.0024084416,0.0026901320104662178,0.0004295456,0.00055897114,-0.0022234018,-0.0015143625,3.895601272583008,109.34856414794922
1779207298.4105613,3.5616073608398438,hold-xy,14000,21.36263065537499,0.01727019,-0.015014666,0.0,0.009386139,0.0016184188,0.03781745,0.001530935289338231,0.0030993116088211536,0.6573529839515686,0.7535748481750488,82.19769768899964,0.006137847900390625,347,0.00071300473,-0.00068726414,0.0009903069200309746,0.00269849,-0.0032741507,0.004242865844632507,0.0005841075,0.00079970376,-0.0028775053,-0.003117992,3.890322685241699,109.3516845703125
1779207298.45547,3.606516122817993,hold-xy,14000,21.36263065537499,0.014467018,-0.01210489,0.0,0.009405151,0.0016034115,0.03785904,0.0024788593873381615,0.0031219699885696173,0.6571924686431885,0.7537122964859009,82.17332823611943,0.020047664642333984,348,0.00073201675,-0.00070227147,0.0010144129746573148,0.0020729364,-0.0024371427,0.003199488927128694,0.00059604587,0.00082083076,-0.0021321538,-0.0023855083,3.890322685241699,109.3516845703125
1779207298.4771307,3.628176689147949,hold-xy,14000,21.36263065537499,0.013234812,-0.010988008,0.0,0.009437321,0.0015657339,0.03784474,0.0032351003028452396,0.0030495626851916313,0.6570286750793457,0.7538524866104126,82.14838426799771,0.010074853897094727,350,0.0007641865,-0.00073994906,0.0010637224928087008,0.0017561421,-0.002063321,0.0027094885966484628,0.0006286181,0.0008581054,-0.0018040747,-0.0020215448,3.890322685241699,109.3516845703125
1779207298.4975202,3.648566246032715,hold-xy,14000,21.36263065537499,0.013551123,-0.010548214,0.0,0.00945743,0.001548918,0.03784756,0.003051953623071313,0.0036618919111788273,0.6571778655052185,0.7537204623222351,82.17153069190623,0.020261526107788086,351,0.0007842956,-0.000756765,0.0010898683072408826,0.0018205768,-0.0019387719,0.0026595745423927575,0.00064288493,0.0008800635,-0.0016727262,-0.0020676856,3.8850440979003906,109.26275634765625
1779207298.517845,3.668890953063965,hold-xy,15000,22.888532845044633,0.009558113,-0.008806225,0.0,0.009422461,0.0015476607,0.03782734,0.0035110004246234894,0.0009566341759636998,0.6572706699371338,0.7536458373069763,82.18416491697012,0.00883936882019043,352,0.0007493263,-0.0007580223,0.0010658741967926439,0.00094395253,-0.0013690214,0.0016629088640234874,0.0006490801,0.0008454483,-0.001227936,-0.0011213559,3.8850440979003906,109.26275634765625
