wall_time_s,elapsed_s,mode,thrust_raw,thrust_percent,roll_cmd_deg,pitch_cmd_deg,yawrate_cmd_deg_s,mocap_x,mocap_y,mocap_z,mocap_qx,mocap_qy,mocap_qz,mocap_qw,mocap_age_s,mocap_frame_count,drift_x_m,drift_y_m,horizontal_drift_m,velocity_x_m_s,velocity_y_m_s,horizontal_speed_m_s,battery_v,estimate_z
1779199043.174412,0.0002772808074951172,guard-only,0,0.0,0.0,0.0,0.0,0.007990641,0.0029532518,0.03731454,-0.007045729551464319,0.00227867579087615,0.6588029265403748,0.7522791028022766,0.026810884475708008,81,0.0,0.0,0.0,0.0,0.0,0.0,4.069794654846191,103.39836883544922
1779199043.2375257,0.06339097023010254,guard-only,0,0.0,0.0,0.0,0.0,0.007992349,0.0029112417,0.037321266,-0.0065220859833061695,0.0015546754002571106,0.6589394211769104,0.7521661520004272,0.0172421932220459,82,1.7080456e-06,-4.20101e-05,4.204480732044563e-05,7.0500405e-06,-0.00017339869,0.00017354195055531308,4.069794654846191,103.39186096191406
1779199043.3185132,0.1443784236907959,guard-only,0,0.0,0.0,0.0,0.0,0.007977445,0.0029279343,0.037309885,-0.007032482419162989,0.0024630101397633553,0.6586447954177856,0.7524170875549316,0.0069522857666015625,83,-1.319591e-05,-2.5317539e-05,2.8550128072906897e-05,-4.404959e-05,-6.651587e-05,7.977924173479216e-05,4.069794654846191,103.39186096191406
1779199043.4201314,0.24599671363830566,guard-only,0,0.0,0.0,0.0,0.0,0.008000157,0.0029184176,0.03733694,-0.006947155110538006,0.0027863914147019386,0.6589955687522888,0.7521095275878906,0.014871597290039062,84,9.516254e-06,-3.483426e-05,3.611072829503529e-05,4.188379e-05,-7.70312e-05,8.768157269386521e-05,4.069794654846191,103.44400024414062
1779199043.5060759,0.3319411277770996,guard-only,0,0.0,0.0,0.0,0.0,0.008003379,0.0029522944,0.037300684,-0.00710289366543293,0.00263580703176558,0.6587795615196228,0.7522978782653809,0.005634784698486328,85,1.273863e-05,-9.573996e-07,1.2774557107310477e-05,3.9475202e-05,5.2854022e-05,6.596847226773259e-05,4.069794654846191,103.4050064086914
1779199043.6098783,0.4357435703277588,guard-only,0,0.0,0.0,0.0,0.0,0.008003793,0.0029243692,0.037288688,-0.007213375996798277,0.0029817873146384954,0.6588292121887207,0.7522521018981934,0.014316797256469727,86,1.3152137e-05,-2.8882641e-05,3.173618862119946e-05,2.89368e-05,-5.1075513e-05,5.870303516151767e-05,4.0750732421875,103.34973907470703
1779199043.6922207,0.5180859565734863,guard-only,0,0.0,0.0,0.0,0.0,0.007991352,0.0029332514,0.03730576,-0.0068104686215519905,0.00192951166536659,0.6587993502616882,0.752285361289978,0.0052602291107177734,87,7.1153045e-07,-2.0000385e-05,2.0013037535173628e-05,-2.0578209e-05,-6.5985096e-06,2.1610252007623575e-05,4.069794654846191,103.33985900878906
1779199043.795309,0.6211743354797363,guard-only,0,0.0,0.0,0.0,0.0,0.008011197,0.0029384578,0.03731841,-0.007261461578309536,0.003281450131908059,0.658925473690033,0.7521660923957825,0.016357898712158203,88,2.0556152e-05,-1.4794059e-05,2.5326262734819823e-05,5.031252e-05,1.2359909e-05,5.180846387145159e-05,4.069794654846191,103.31092834472656
1779199043.8774433,0.7033085823059082,guard-only,0,0.0,0.0,0.0,0.0,0.007990007,0.0029436238,0.037333153,-0.007123682647943497,0.0025058656465262175,0.6588759422302246,0.7522137761116028,0.005824089050292969,89,-6.3329935e-07,-9.628013e-06,9.648818301752583e-06,-3.3379154e-05,2.53763e-05,4.19299956456622e-05,4.069794654846191,103.31159973144531
1779199043.9790344,0.8048996925354004,guard-only,0,0.0,0.0,0.0,0.0,0.008001404,0.0029355832,0.037303936,-0.007155922707170248,0.002454928355291486,0.6588204503059387,0.7522621750831604,0.01577162742614746,90,1.0763295e-05,-1.7668586e-05,2.068882487177395e-05,1.3941937e-05,-8.557829e-06,1.6358913229113914e-05,4.069794654846191,103.34800720214844
1779199044.0625446,0.8884098529815674,guard-only,0,0.0,0.0,0.0,0.0,0.008026626,0.0029331513,0.037286386,-0.00723835127428174,0.0027254875749349594,0.6588090658187866,0.7522704601287842,0.005257844924926758,91,3.5985373e-05,-2.0100502e-05,4.121865088966087e-05,9.023486e-05,-1.3749939e-05,9.12764568584503e-05,4.069794654846191,103.3981704711914
1779199044.1444025,0.9702677726745605,guard-only,0,0.0,0.0,0.0,0.0,0.00801369,0.0029119207,0.037282567,-0.007329106796532869,0.0028411392122507095,0.6588528752326965,0.7522307634353638,0.014232397079467773,92,2.3049302e-05,-4.1331165e-05,4.732373260875486e-05,9.917392e-06,-9.701388e-05,9.751947426189896e-05,4.069794654846191,103.38936614990234
1779199044.2270904,1.0529556274414062,guard-only,0,0.0,0.0,0.0,0.0,0.007978206,0.0029409637,0.03729938,-0.00700713787227869,0.0021687974222004414,0.6587277054786682,0.752345621585846,0.015251874923706055,93,-1.2435019e-05,-1.2288103e-05,1.7482196378671184e-05,-0.00012340567,3.877686e-05,0.0001293545694407219,4.069794654846191,103.38936614990234
1779199044.309158,1.1350233554840088,guard-only,0,0.0,0.0,0.0,0.0,0.00798883,0.0029551915,0.03731744,-0.006983923260122538,0.0016295938985422254,0.6588602662086487,0.7522311806678772,0.004221200942993164,94,-1.8104911e-06,1.939712e-06,2.6533678440395697e-06,-5.214752e-05,7.299147e-05,8.97057329666731e-05,4.069794654846191,103.41102600097656
1779199044.4119103,1.2377755641937256,guard-only,0,0.0,0.0,0.0,0.0,0.008002321,0.0029297303,0.037309784,-0.007410008460283279,0.003401991445571184,0.6588617563247681,0.7522197961807251,0.014787673950195312,95,1.1680648e-05,-2.3521483e-05,2.6262096029260485e-05,7.400944e-06,-3.176433e-05,3.261513080375419e-05,4.069794654846191,103.3807373046875
1779199044.4957345,1.3215997219085693,guard-only,0,0.0,0.0,0.0,0.0,0.007988181,0.0029190383,0.037281875,-0.0069620669819414616,0.002474972978234291,0.6588625311851501,0.7522270083427429,0.006339073181152344,96,-2.459623e-06,-3.421353e-05,3.430182898506675e-05,-4.079262e-05,-5.699735e-05,7.009090919440757e-05,4.069794654846191,103.38909912109375
1779199044.5977623,1.4236276149749756,guard-only,0,0.0,0.0,0.0,0.0,0.008003265,0.0029505966,0.037283517,-0.007040474563837051,0.0024192514829337597,0.6587595343589783,0.7523167133331299,0.015540599822998047,97,1.26240775e-05,-2.6552007e-06,1.2900288190102582e-05,2.0193282e-05,6.209335e-05,6.529435490085754e-05,4.069794654846191,103.39429473876953
1779199044.6833608,1.5092260837554932,guard-only,0,0.0,0.0,0.0,0.0,0.0079962555,0.0029433214,0.037312504,-0.007150204852223396,0.0027111517265439034,0.65879887342453,0.7522803544998169,0.008077144622802734,98,5.614944e-06,-9.93046e-06,1.1407962995339666e-05,-8.459768e-06,2.0012381e-05,2.172701211193874e-05,4.069794654846191,103.41084289550781
1779199044.7850153,1.6108806133270264,guard-only,0,0.0,0.0,0.0,0.0,0.00800469,0.0029348568,0.03730056,-0.007071203552186489,0.0025729311164468527,0.6588283777236938,0.7522556185722351,0.016788005828857422,99,1.4049001e-05,-1.8395018e-05,2.314629797920733e-05,2.130129e-05,-1.3312909e-05,2.511928525412369e-05,4.069794654846191,103.45189666748047
1779199044.8663723,1.6922376155853271,guard-only,0,0.0,0.0,0.0,0.0,0.00799999,0.0029134583,0.037294615,-0.007007228210568428,0.0022395062260329723,0.6589471697807312,0.7521532773971558,0.016002893447875977,100,9.349547e-06,-3.979355e-05,4.0877141768020936e-05,-2.2524755e-06,-8.747091e-05,8.749990274814524e-05,4.069794654846191,103.45489501953125
1779199044.9518557,1.7777209281921387,guard-only,0,0.0,0.0,0.0,0.0,0.007999663,0.0029113074,0.03730336,-0.006990890949964523,0.002069396199658513,0.6587157845497131,0.7523565888404846,0.007987022399902344,101,9.022653e-06,-4.194444e-05,4.290389779213529e-05,-2.6256007e-06,-6.813095e-05,6.818151972097364e-05,4.069794654846191,103.40962982177734
1779199045.0328639,1.8587291240692139,guard-only,0,0.0,0.0,0.0,0.0,0.008011096,0.0029396685,0.037288535,-0.007252171169966459,0.002965892432257533,0.6587660312652588,0.7523069977760315,0.006303310394287109,102,2.0455569e-05,-1.358334e-05,2.4554784100285317e-05,3.9639835e-05,5.5200275e-05,6.795871545402494e-05,4.069794654846191,103.40962982177734
1779199045.1148338,1.9406991004943848,guard-only,0,0.0,0.0,0.0,0.0,0.0080182655,0.002932134,0.037316725,-0.007062770426273346,0.0023791405837982893,0.6587909460067749,0.7522891163825989,0.016645431518554688,103,2.762489e-05,-2.111774e-05,3.477202168401975e-05,5.7775258e-05,7.083756e-06,5.820790302703095e-05,4.069794654846191,103.40743255615234
1779199045.1964898,2.022355079650879,guard-only,0,0.0,0.0,0.0,0.0,0.007976977,0.0029196981,0.03729215,-0.007264931220561266,0.0028047768864780664,0.6587725281715393,0.7523018717765808,0.014764547348022461,104,-1.36634335e-05,-3.355369e-05,3.62289873100824e-05,-0.00010783314,-3.9701714e-05,0.00011490958547588237,4.069794654846191,103.42799377441406
1779199045.2580218,2.0838871002197266,guard-only,0,0.0,0.0,0.0,0.0,0.007998198,0.0029252628,0.037311174,-0.007153416518121958,0.0022023271303623915,0.6588335037231445,0.7522515654563904,0.0038292407989501953,105,7.5576827e-06,-2.7989037e-05,2.8991460413178676e-05,1.2367906e-05,-4.7546673e-06,1.3250356443156561e-05,4.069794654846191,103.44206237792969
1779199045.3412213,2.167086601257324,guard-only,0,0.0,0.0,0.0,0.0,0.0080105765,0.002921177,0.03729072,-0.007158766034990549,0.0025231726467609406,0.6588723659515381,0.7522165179252625,0.005243778228759766,106,1.9935891e-05,-3.207475e-05,3.776545042516495e-05,5.4062733e-05,-1.8315297e-05,5.708090085102658e-05,4.069794654846191,103.45889282226562
1779199045.4279168,2.253782033920288,guard-only,0,0.0,0.0,0.0,0.0,0.008006352,0.002946577,0.037298176,-0.006918190512806177,0.0018221188802272081,0.6587944626808167,0.7522889375686646,0.01985788345336914,107,1.5711412e-05,-6.674789e-06,1.7070479320442723e-05,2.0261778e-05,9.289305e-05,9.507712494317332e-05,4.069794654846191,103.45889282226562
1779199045.512356,2.338221311569214,guard-only,0,0.0,0.0,0.0,0.0,0.0080003105,0.0029309257,0.03731767,-0.007100111339241266,0.00317453034222126,0.6588931679725647,0.7521963715553284,0.0009503364562988281,108,9.669922e-06,-2.232613e-05,2.433029959198753e-05,-3.3542747e-06,1.9591691e-05,1.9876758283365593e-05,4.069794654846191,103.43376159667969
1779199045.614689,2.44055438041687,guard-only,0,0.0,0.0,0.0,0.0,0.007995908,0.0029449272,0.037325848,-0.007303183898329735,0.0033751623705029488,0.6589113473892212,0.7521775960922241,0.018841981887817383,109,5.2675605e-06,-8.324627e-06,9.85122362256167e-06,-1.7988521e-05,6.345815e-05,6.59585016589903e-05,4.069794654846191,103.3703842163086
1779199045.69814,2.524005174636841,guard-only,0,0.0,0.0,0.0,0.0,0.007980563,0.002923269,0.037318725,-0.006974884774535894,0.002510944614186883,0.658782422542572,0.7522969841957092,0.012289762496948242,110,-1.0077842e-05,-2.9982766e-05,3.163114311930423e-05,-6.3741594e-05,-2.7770675e-05,6.952841893407302e-05,4.069794654846191,103.3666000366211
1779199045.8035216,2.6293869018554688,guard-only,0,0.0,0.0,0.0,0.0,0.007976981,0.0029430625,0.0373052,-0.007168647367507219,0.0020334699656814337,0.6588377356529236,0.7522481679916382,0.013521909713745117,111,-1.3659708e-05,-1.01893675e-05,1.7041444606294223e-05,-5.4936583e-05,3.757487e-05,6.655748728880919e-05,4.069794654846191,103.40860748291016
1779199045.8842323,2.710097551345825,guard-only,0,0.0,0.0,0.0,0.0,0.008016998,0.0029283655,0.03730074,-0.006909456569701433,0.002265765331685543,0.658879280090332,0.7522135376930237,0.012944459915161133,112,2.635736e-05,-2.4886336e-05,3.624969255009616e-05,0.000109230474,-2.7937886e-05,0.0001127467192674311,4.069794654846191,103.41975402832031
1779199045.9890265,2.814891815185547,guard-only,0,0.0,0.0,0.0,0.0,0.008011791,0.0029358966,0.037310217,-0.007346091791987419,0.0029532392509281635,0.6588974595069885,0.7521911263465881,0.01723623275756836,113,2.1150336e-05,-1.7355196e-05,2.7359451084888087e-05,6.0918355e-05,2.92394e-06,6.098848496589169e-05,4.069794654846191,103.41670227050781
1779199046.0553632,2.881228446960449,guard-only,0,0.0,0.0,0.0,0.0,0.007997496,0.0029309564,0.037310373,-0.007182443048804998,0.0028254827484488487,0.6589458584785461,0.7521507740020752,0.006999969482421875,114,6.8554655e-06,-2.2295397e-05,2.332556778937529e-05,-1.33621e-05,-1.7308135e-05,2.186589153197089e-05,4.069794654846191,103.41908264160156
1779199046.137994,2.9638593196868896,guard-only,250,0.3814755474174105,0.0,0.0,0.0,0.007992627,0.0029212371,0.03731626,-0.006763811688870192,0.0020150048658251762,0.6590903401374817,0.7520306706428528,0.00727081298828125,115,1.986511e-06,-3.201468e-05,3.207625080016473e-05,-2.7088849e-05,-4.7518606e-05,5.469756555541895e-05,4.064516067504883,103.42669677734375
1779199046.2198606,3.0457258224487305,guard-only,500,0.762951094834821,0.0,0.0,0.0,0.007996828,0.002955629,0.03732291,-0.00712523702532053,0.0025528441183269024,0.6588576436042786,0.7522295713424683,0.007148265838623047,116,6.187707e-06,2.3772009e-06,6.628635152436936e-06,-3.5899102e-06,9.2577735e-05,9.264731034252065e-05,4.064516067504883,103.42669677734375
1779199046.3218703,3.147735595703125,guard-only,500,0.762951094834821,0.0,0.0,0.0,0.007995622,0.0029390028,0.037282616,-0.007112929131835699,0.0023259345907717943,0.6587885618209839,0.7522909045219421,0.0071413516998291016,117,4.9816445e-06,-1.4249003e-05,1.509472918933016e-05,-6.0596003e-06,1.5911817e-05,1.702658754984298e-05,4.069794654846191,103.40667724609375
1779199046.382754,3.2086193561553955,guard-only,500,0.762951094834821,0.0,0.0,0.0,0.008011278,0.0029521836,0.03729597,-0.00732543645426631,0.003110580611974001,0.6587857007980347,0.7522885799407959,0.017099380493164062,118,2.0637177e-05,-1.068227e-06,2.0664805486391007e-05,8.798395e-05,8.878532e-05,0.0001249960278451977,4.069794654846191,103.37432861328125
1779199046.4651456,3.291010856628418,guard-only,750,1.1444266422522316,0.0,0.0,0.0,0.008011978,0.0029266716,0.037320316,-0.006788996979594231,0.001977847423404455,0.6588343977928162,0.7522547841072083,0.01656031608581543,119,2.1337532e-05,-2.658018e-05,3.408513187282791e-05,6.412229e-05,-3.0139367e-05,7.085230286363694e-05,4.069794654846191,103.39816284179688
1779199046.5498495,3.3757147789001465,guard-only,750,1.1444266422522316,0.0,0.0,0.0,0.008002585,0.002951439,0.037299782,-0.0072479997761547565,0.002840589266270399,0.6589093804359436,0.7521820664405823,0.008754968643188477,120,1.1944212e-05,-1.8128194e-06,1.2080998119447698e-05,1.4423831e-05,5.922097e-05,6.095219578902179e-05,4.069794654846191,103.3458023071289
1779199046.652547,3.47841215133667,guard-only,1000,1.525902189669642,0.0,0.0,0.0,0.00801693,0.0029397453,0.037319347,-0.00727490009739995,0.0030916151590645313,0.6589634418487549,0.7521334290504456,0.01816558837890625,121,2.6289374e-05,-1.3506506e-05,2.955599495833228e-05,5.6229157e-05,3.849058e-06,5.636074217620879e-05,4.069794654846191,103.31996154785156
1779199046.7347357,3.560600996017456,guard-only,1000,1.525902189669642,0.0,0.0,0.0,0.007988092,0.0029474245,0.03732316,-0.006996212527155876,0.0023779147304594517,0.6588274836540222,0.7522578239440918,0.007511615753173828,122,-2.54903e-06,-5.8272853e-06,6.360409277055411e-06,-5.38242e-05,2.7507956e-05,6.044610809334811e-05,4.069794654846191,103.34983825683594
1779199046.8165982,3.642463445663452,guard-only,1250,1.9073777370870528,0.0,0.0,0.0,0.007992,0.0029443724,0.037303742,-0.006826622411608696,0.001726483809761703,0.6587645411491394,0.7523162364959717,0.0059549808502197266,123,1.359731e-06,-8.879462e-06,8.982968084012037e-06,-2.3619865e-05,8.279027e-06,2.50287891942744e-05,4.069794654846191,103.34983825683594
1779199046.918856,3.7447211742401123,guard-only,1500,2.288853284504463,0.0,0.0,0.0,0.008004213,0.0029320298,0.037328213,-0.007150780409574509,0.003068930469453335,0.6588815450668335,0.7522064447402954,0.016293764114379883,124,1.3572164e-05,-2.1222048e-05,2.519085042127191e-05,2.3324366e-05,-3.4487734e-05,4.163447903010813e-05,4.069794654846191,103.32166290283203
1779199047.0219898,3.8478550910949707,guard-only,1750,2.6703288319218736,0.0,0.0,0.0,0.00801272,0.0029279431,0.03730172,-0.007171304896473885,0.0029787293169647455,0.6588945984840393,0.7521952986717224,0.017053842544555664,125,2.2079796e-05,-2.5308691e-05,3.358641408659614e-05,4.125813e-05,-3.611706e-05,5.4833159248162686e-05,4.069794654846191,103.32496643066406
1779199047.1039152,3.9297804832458496,guard-only,1750,2.6703288319218736,0.0,0.0,0.0,0.007981408,0.0029250807,0.0373024,-0.006959452293813229,0.00176607898902148,0.6588661074638367,0.752225935459137,0.016178607940673828,126,-9.232201e-06,-2.817111e-05,2.9645320917268845e-05,-8.456772e-05,-3.5652953e-05,9.177598928628297e-05,4.069794654846191,103.3613052368164
1779199047.186965,4.0128302574157715,guard-only,2000,3.051804379339284,0.0,0.0,0.0,0.007994225,0.0029198108,0.037323646,-0.006893783807754517,0.0024335612542927265,0.658996045589447,0.7521108984947205,0.01693892478942871,127,3.5846606e-06,-3.3441e-05,3.363257772681319e-05,-1.2471384e-05,-4.416933e-05,4.5896241702640225e-05,4.069794654846191,103.3519287109375
1779199047.269529,4.0953943729400635,guard-only,2000,3.051804379339284,0.0,0.0,0.0,0.007985469,0.002916858,0.037304435,-0.006996202748268843,0.002018323168158531,0.6588610410690308,0.7522294521331787,0.016920089721679688,128,-5.1716343e-06,-3.6393758e-05,3.675937219364003e-05,-4.053906e-05,-4.164505e-05,5.811820415953681e-05,4.069794654846191,103.29344177246094
1779199047.3540156,4.179880857467651,guard-only,2250,3.4332799267566947,0.0,0.0,0.0,0.00801353,0.002938704,0.037316743,-0.006914656609296799,0.0023187948390841484,0.658856987953186,0.7522328495979309,0.0066716670989990234,129,2.2889115e-05,-1.4547724e-05,2.7120985322338912e-05,6.0483515e-05,4.0028986e-05,7.25298220503256e-05,4.069794654846191,103.26638793945312
1779199047.4179187,4.243783950805664,guard-only,2250,3.4332799267566947,0.0,0.0,0.0,0.007972022,0.0029405989,0.03730635,-0.00701039656996727,0.0022071413695812225,0.6587804555892944,0.7522993683815002,0.008237600326538086,130,-1.8619001e-05,-1.26529485e-05,2.251142592534554e-05,-0.00015742096,3.7138972e-05,0.00016174258242414817,4.069794654846191,103.26638793945312
1779199047.5046248,4.3304901123046875,guard-only,2500,3.8147554741741057,0.0,0.0,0.0,0.00800665,0.0029348936,0.03730961,-0.007363521493971348,0.003144057933241129,0.6588218808174133,0.7522563338279724,0.011034250259399414,131,1.6009435e-05,-1.835823e-05,2.435829653455888e-05,1.3611701e-05,5.5992987e-06,1.4718374934485237e-05,4.069794654846191,103.27547454833984
1779199047.5702045,4.396069765090942,guard-only,2500,3.8147554741741057,0.0,0.0,0.0,0.0080043655,0.0029438725,0.03728677,-0.0071954382583498955,0.00261069368571043,0.6588414311408997,0.7522428631782532,0.002835512161254883,132,1.3724901e-05,-9.37935e-06,1.6623631175500937e-05,2.38746e-07,4.0429713e-05,4.0430417542355974e-05,4.069794654846191,103.32428741455078
1779199047.672004,4.497869253158569,guard-only,2750,4.196231021591516,0.0,0.0,0.0,0.007998491,0.0029340344,0.03732299,-0.007072476204484701,0.0031670976895838976,0.6589590311050415,0.7521389126777649,0.01301264762878418,133,7.850118e-06,-1.9217376e-05,2.075889865861152e-05,-1.906874e-05,-3.9119495e-06,1.946587272053362e-05,4.069794654846191,103.39457702636719
1779199047.7542613,4.580126523971558,guard-only,3000,4.577706569008926,0.0,0.0,0.0,0.007996675,0.0029465258,0.03730241,-0.007113351020962,0.0026112112682312727,0.6588745713233948,0.7522146701812744,0.00035262107849121094,134,6.034039e-06,-6.7260116e-06,9.035975561291195e-06,-1.9088102e-05,3.6742418e-05,4.140484254896352e-05,4.069794654846191,103.39779663085938
1779199047.857411,4.683276176452637,guard-only,3000,4.577706569008926,0.0,0.0,0.0,0.007974927,0.0029359683,0.037340943,-0.0067437863908708096,0.002018142957240343,0.6589363217353821,0.7521657943725586,0.0113983154296875,135,-1.5713274e-05,-1.7283484e-05,2.3358634855259246e-05,-8.4196785e-05,-8.667994e-06,8.464179087537626e-05,4.069794654846191,103.35823059082031
1779199047.9381309,4.763996124267578,guard-only,3000,4.577706569008926,0.0,0.0,0.0,0.007989821,0.0029277306,0.037296727,-0.007071830332279205,0.002127398271113634,0.658740758895874,0.7523337602615356,0.0030069351196289062,136,-8.1956387e-07,-2.5521265e-05,2.5534421295105725e-05,-8.796949e-06,-3.380071e-05,3.4926697548612585e-05,4.069794654846191,103.3650894165039
1779199048.0418823,4.86774754524231,guard-only,3000,4.577706569008926,0.0,0.0,0.0,0.007991553,0.002938847,0.037336122,-0.006940175779163837,0.002316462341696024,0.6589733362197876,0.7521307468414307,0.01344919204711914,137,9.126961e-07,-1.4404766e-05,1.4433652044281125e-05,-5.884431e-07,1.2080365e-05,1.209468837645383e-05,4.069794654846191,103.30487823486328
1779199048.1352813,4.961146593093872,guard-only,3000,4.577706569008926,0.0,0.0,0.0,0.008013379,0.0029495033,0.037290078,-0.007222501561045647,0.0028134817257523537,0.6588378548622131,0.7522450685501099,0.008919000625610352,138,2.273824e-05,-3.7485734e-06,2.3045160070542735e-05,6.6449255e-05,4.110083e-05,7.813310162248462e-05,4.064516067504883,103.32947540283203
1779199048.2217824,5.047647714614868,guard-only,3000,4.577706569008926,0.0,0.0,0.0,0.00798624,0.0029291105,0.037323676,-0.006816789507865906,0.0020950548350811005,0.6589183807373047,0.7521806359291077,0.009975433349609375,139,-4.400499e-06,-2.4141278e-05,2.4539064900423726e-05,-4.8770817e-05,-4.282909e-05,6.490703958435791e-05,4.064516067504883,103.32947540283203
1779199048.3054702,5.131335496902466,guard-only,3750,5.722133211261158,0.0,0.0,0.0,0.007994333,0.00292624,0.03729671,-0.007178301922976971,0.0026645262259989977,0.6588713526725769,0.752216637134552,0.013549327850341797,140,3.692694e-06,-2.7011847e-05,2.7263086495925832e-05,-3.833242e-06,-4.0729694e-05,4.09096773596212e-05,4.069794654846191,103.39517974853516
1779199048.3662834,5.192148685455322,guard-only,4250,6.485084306095979,0.0,0.0,0.0,0.008020928,0.0029244833,0.037309688,-0.0072745042853057384,0.003167866263538599,0.6589465737342834,0.752147912979126,0.003401041030883789,141,3.0287541e-05,-2.8768554e-05,4.177277629377492e-05,0.000109750334,-3.5937523e-05,0.00011548437610687787,4.069794654846191,103.3864517211914
1779199048.4688458,5.294711112976074,guard-only,5000,7.629510948348211,0.0,0.0,0.0,0.007999037,0.0029278803,0.037316855,-0.006895017810165882,0.002251483267173171,0.6589630246162415,0.7521403431892395,0.01768040657043457,142,8.396804e-06,-2.5371555e-05,2.67249345347376e-05,2.4369947e-06,-1.3612717e-05,1.3829136625996763e-05,4.069794654846191,103.36494445800781
1779199048.5352094,5.361074686050415,guard-only,5250,8.010986495765621,0.0,0.0,0.0,0.008000069,0.0029297713,0.037303504,-0.006920741405338049,0.0024163969792425632,0.6590189933776855,0.752090573310852,0.005024909973144531,143,9.42871e-06,-2.3480505e-05,2.5302858397401285e-05,5.6235785e-06,-2.3494308e-06,6.09462559293199e-06,4.069794654846191,103.36494445800781
1779199048.6210046,5.446869850158691,guard-only,6000,9.155413138017853,0.0,0.0,0.0,0.007984681,0.0029442497,0.03731233,-0.00722931046038866,0.002598043531179428,0.6588048338890076,0.7522746920585632,0.01663947105407715,144,-5.959533e-06,-9.002164e-06,1.0796063536467015e-05,-5.8296384e-05,5.6908473e-05,8.146804843163032e-05,4.069794654846191,103.33345794677734
1779199048.7041442,5.530009508132935,guard-only,7000,10.681315327687495,0.0,0.0,0.0,0.007992206,0.002949698,0.037318762,-0.00737517885863781,0.0034654606133699417,0.6588925719261169,0.7521928548812866,0.017324209213256836,145,1.5655532e-06,-3.553927e-06,3.883471750024065e-06,-1.3428555e-05,5.9658534e-05,6.115118116854292e-05,4.064516067504883,103.33238983154297
1779199048.790304,5.616169214248657,guard-only,7000,10.681315327687495,0.0,0.0,0.0,0.007982609,0.002943046,0.037300553,-0.007414523512125015,0.003456784412264824,0.6588566899299622,0.7522240281105042,0.006968021392822266,146,-8.031726e-06,-1.0205898e-05,1.2987262281151782e-05,-3.9231178e-05,2.1084676e-05,4.4538172400470845e-05,4.064516067504883,103.33352661132812
1779199048.8927658,5.718631029129028,guard-only,7000,10.681315327687495,0.0,0.0,0.0,0.007995263,0.0029435025,0.037332777,-0.007010126020759344,0.002322271466255188,0.6589310765266418,0.7521670460700989,0.007915258407592773,147,4.622154e-06,-9.7493175e-06,1.0789508649509396e-05,9.9334375e-06,1.6108579e-05,1.8925102431857798e-05,4.064516067504883,103.36499786376953
1779199048.9950702,5.820935487747192,guard-only,7250,11.062790875104906,0.0,0.0,0.0,0.007999141,0.0029357634,0.03733456,-0.006939457263797522,0.0025062882341444492,0.6589097380638123,0.7521858215332031,0.01885509490966797,148,8.500181e-06,-1.7488375e-05,1.9444699329663503e-05,1.968709e-05,-1.4135553e-05,2.4236240520731464e-05,4.064516067504883,103.37627410888672
1779199049.081599,5.907464265823364,guard-only,7250,11.062790875104906,0.0,0.0,0.0,0.007989244,0.0029384717,0.03730036,-0.006946905516088009,0.0017516061197966337,0.6587367653846741,0.7523393630981445,0.016392230987548828,149,-1.3969839e-06,-1.4780089e-05,1.4845962378687295e-05,-1.9583404e-05,-7.649751e-07,1.959833908214269e-05,4.064516067504883,103.3992691040039
1779199049.1632602,5.989125490188599,guard-only,7500,11.444266422522317,0.0,0.0,0.0,0.0079799965,0.0029472108,0.037327264,-0.007054880727082491,0.0022640046663582325,0.6588398218154907,0.7522467374801636,0.0058972835540771484,150,-1.0644086e-05,-6.041024e-06,1.2238894035169056e-05,-4.3810876e-05,2.7913178e-05,5.194745693217499e-05,4.064516067504883,103.38983917236328
1779199049.2648196,6.09068489074707,guard-only,7750,11.825741969939727,0.0,0.0,0.0,0.008019026,0.0029546185,0.037309214,-0.007407318335026503,0.0034411149099469185,0.6588737368583679,0.7522092461585999,0.015632152557373047,151,2.838578e-05,1.3667159e-06,2.841866412236631e-05,9.6846896e-05,4.3741056e-05,0.00010626665290932838,4.059237480163574,103.36758422851562
1779199049.3481472,6.1740124225616455,guard-only,7750,11.825741969939727,0.0,0.0,0.0,0.008019185,0.0029525626,0.037316762,-0.007447496056556702,0.003638580907136202,0.6587913036346436,0.752280056476593,0.006284475326538086,152,2.8544106e-05,-6.891787e-07,2.85524242459129e-05,6.8305344e-05,2.396358e-05,7.238696692054666e-05,4.059237480163574,103.34638977050781
1779199049.4545126,6.2803778648376465,guard-only,8000,12.207217517357137,0.0,0.0,0.0,0.008016372,0.0029506814,0.037317023,-0.007245939690619707,0.002937651239335537,0.6588737964630127,0.7522128820419312,0.019469022750854492,153,2.5731511e-05,-2.5704503e-06,2.5859580707661527e-05,3.875847e-05,1.0717668e-05,4.021302604796482e-05,4.059237480163574,103.3104248046875
1779199049.5187962,6.344661474227905,guard-only,8250,12.588693064774548,0.0,0.0,0.0,0.008014498,0.0029458022,0.03730583,-0.007135799154639244,0.0027556063141673803,0.658871054649353,0.7522169947624207,0.010732889175415039,154,2.385769e-05,-7.4496493e-06,2.499373303978482e-05,1.9432377e-05,-1.2543715e-05,2.3129247169734175e-05,4.059237480163574,103.3104248046875
1779199049.580391,6.406256198883057,guard-only,8250,12.588693064774548,0.0,0.0,0.0,0.008015509,0.0029362114,0.037320714,-0.007139827124774456,0.002922617830336094,0.6588773727416992,0.752210795879364,0.0011210441589355469,155,2.4868175e-05,-1.704041e-05,3.0146338095379962e-05,1.7859933e-05,-4.9187376e-05,5.23294879039512e-05,4.059237480163574,103.29886627197266
1779199049.6814315,6.507296800613403,guard-only,8500,12.970168612191959,0.0,0.0,0.0,0.008004242,0.002925232,0.037334315,-0.006965392269194126,0.002455109264701605,0.6589142084121704,0.7521818280220032,0.019058704376220703,156,1.3601035e-05,-2.8019771e-05,3.114636064587454e-05,-2.8172206e-05,-7.406645e-05,7.924336929604574e-05,4.053958892822266,103.30670166015625
1779199049.7645981,6.590463399887085,guard-only,8500,12.970168612191959,0.0,0.0,0.0,0.00795746,0.002934638,0.03732176,-0.007013308349996805,0.0025094791781157255,0.6586660742759705,0.7523984909057617,0.010281562805175781,157,-3.318023e-05,-1.8613879e-05,3.8044764232086614e-05,-0.0001723615,-2.1156357e-05,0.00017365505102597654,4.053958892822266,103.37174987792969
1779199049.8677664,6.693631649017334,guard-only,8750,13.35164415960937,0.0,0.0,0.0,0.007990717,0.002943261,0.037311003,-0.007230544928461313,0.0028690577019006014,0.6588039994239807,0.7522743940353394,0.016724586486816406,158,7.636845e-08,-9.990763e-06,9.991054954325173e-06,-1.7505401e-05,1.1935745e-05,2.1187285880268896e-05,4.053958892822266,103.3316879272461
1779199049.9544487,6.780313968658447,guard-only,9000,13.733119707026779,0.0,0.0,0.0,0.008052903,0.0029010386,0.037340015,-0.006008443888276815,0.002608110662549734,0.6589582562446594,0.7521510124206543,0.010274887084960938,159,6.226264e-05,-5.2213203e-05,8.125795438926189e-05,0.00018806275,-0.00012765333,0.0002272949022011849,4.059237480163574,103.30096435546875
1779199050.03682,6.862685203552246,guard-only,9000,13.733119707026779,0.0,0.0,0.0,0.008205729,0.0027101282,0.037426446,-0.003298761323094368,0.004580080974847078,0.6589855551719666,0.752134382724762,0.007444143295288086,160,0.00021508802,-0.00024312362,0.00032461046338790994,0.000669749,-0.0007615615,0.0010141694139325856,4.053958892822266,103.32898712158203
1779199050.1387477,6.96461296081543,guard-only,9250,14.11459525444419,0.0,0.0,0.0,0.008403328,0.002561799,0.037436415,0.0004785204364452511,0.005231162533164024,0.6586381793022156,0.7524414658546448,0.015833139419555664,161,0.00041268766,-0.0003914528,0.0005688114191331128,0.0011025711,-0.0010088184,0.0014944489618810913,4.053958892822266,103.36911010742188
1779199050.2209246,7.046789884567261,guard-only,9250,14.11459525444419,0.0,0.0,0.0,0.008361394,0.0025717989,0.037415925,-0.0012120155151933432,0.0057452404871582985,0.6590853333473206,0.7520452737808228,0.0054912567138671875,162,0.000370753,-0.00038145296,0.0005319437485914372,0.0006358231,-0.0006737475,0.0009263944952166132,4.053958892822266,103.36911010742188
1779199050.3026493,7.128514528274536,guard-only,9500,14.4960708018616,0.0,0.0,0.0,0.0084071625,0.0025717737,0.03745913,3.855966133414768e-05,0.00572701171040535,0.6588079929351807,0.7522892951965332,0.00522923469543457,163,0.0004165219,-0.0003814781,0.0005648150731845231,0.00061255065,-0.00047171523,0.0007731323046062007,4.053958892822266,103.42640686035156
1779199050.404476,7.230341196060181,guard-only,9750,14.877546349279012,0.0,0.0,0.0,0.008424836,0.0025845622,0.0374387,-0.0005002163234166801,0.007069519720971584,0.6587687134742737,0.7523121237754822,0.013932228088378906,164,0.00043419562,-0.00036868965,0.0005696120739219445,0.0004857217,-0.00028900235,0.0005651972529756608,4.053958892822266,103.45095825195312
1779199050.490578,7.316443204879761,guard-only,9750,14.877546349279012,0.0,0.0,0.0,0.008410585,0.002547421,0.037427034,-0.00022827864449936897,0.00594585994258523,0.6591483354568481,0.7519894242286682,0.014566183090209961,165,0.00041994452,-0.0004058308,0.0005839966125718863,0.00028998265,-0.00033267017,0.0004413155109202102,4.053958892822266,103.43069458007812
1779199050.5772498,7.4031150341033936,guard-only,10000,15.259021896696423,0.0,0.0,0.0,0.008425316,0.0025381995,0.037427563,0.00011355055903550237,0.005253837443888187,0.6590962409973145,0.7520403265953064,0.018141984939575195,166,0.00043467525,-0.0004150523,0.0006010083140525052,0.00025616994,-0.00026616128,0.00036941150837687694,4.048680305480957,103.42974853515625
1779199050.642623,7.4684882164001465,guard-only,10000,15.259021896696423,0.0,0.0,0.0,0.008451397,0.0025623958,0.03740695,5.911799235036597e-06,0.005876258481293917,0.6588906049728394,0.7522158622741699,0.009692192077636719,167,0.000460756,-0.00039085606,0.0006042057426531674,0.00028530532,-8.798487e-05,0.0002985639911204247,4.048680305480957,103.44769287109375
1779199050.7240872,7.549952507019043,guard-only,10250,15.640497444113832,0.0,0.0,0.0,0.008444316,0.0025641734,0.037454672,0.0002736878814175725,0.005514102056622505,0.6589238047599792,0.7521893978118896,0.016864538192749023,168,0.00045367517,-0.0003890784,0.0005976647343006075,0.0001711204,-5.4410986e-05,0.0001795626502436116,4.048680305480957,103.44769287109375
1779199050.8125854,7.638450622558594,guard-only,10250,15.640497444113832,0.0,0.0,0.0,0.008429238,0.0025721076,0.03744289,-8.974185038823634e-05,0.006097015459090471,0.6586983799934387,0.7523823976516724,0.017795562744140625,169,0.00043859705,-0.00038114423,0.0005810665297328284,6.812749e-05,-1.0905662e-05,6.899484157277375e-05,4.048680305480957,103.37271118164062
1779199050.874447,7.700312376022339,guard-only,10500,16.021972991531243,0.0,0.0,0.0,0.008424293,0.0025075343,0.03748296,0.0008117704419419169,0.004499406088143587,0.6589630842208862,0.7521613836288452,0.011229991912841797,170,0.00043365266,-0.00044571748,0.0006218670934903682,2.6011972e-05,-0.0002907369,0.00029189821639373406,4.048680305480957,103.39325714111328
1779199050.9782631,7.804128408432007,guard-only,10750,16.403448538948652,0.0,0.0,0.0,0.008453657,0.0025480057,0.03746611,0.00040224549593403935,0.005824462044984102,0.6588059663772583,0.7522901892662048,0.01076054573059082,171,0.00046301633,-0.00040524616,0.0006153117710574875,0.000102679405,-8.709121e-05,0.00013464003876251224,4.043401718139648,103.41939544677734
1779199051.0448592,7.870724439620972,guard-only,10750,16.403448538948652,0.0,0.0,0.0,0.008439507,0.0025286395,0.03745836,0.0005820038495585322,0.005413713399320841,0.6590112447738647,0.752113401889801,0.0021028518676757812,172,0.00044886675,-0.0004246123,0.0006178810329875683,1.5468071e-05,-0.00013816729,0.00013903043722534507,4.043401718139648,103.38363647460938
1779199051.146652,7.972517251968384,guard-only,11000,16.784924086366065,0.0,0.0,0.0,0.008456142,0.0025477782,0.037475493,0.0004681853752117604,0.005506457295268774,0.6590641140937805,0.7520664930343628,0.0002467632293701172,173,0.0004655011,-0.00040547363,0.0006173331068062998,5.8973903e-05,-4.132236e-05,7.201012935048366e-05,4.043401718139648,103.36103057861328
1779199051.2907674,8.11663269996643,guard-only,11250,17.166399633783474,0.0,0.0,0.0,0.008434108,0.0025286167,0.037489045,0.0007073205197229981,0.004801885690540075,0.6590844392776489,0.7520532608032227,0.008935689926147461,174,0.00044346787,-0.00042463513,0.0006139859384990958,-7.5267963e-06,-7.137265e-05,7.17684291045512e-05,4.043401718139648,103.30642700195312
1779199051.333268,8.159133195877075,guard-only,11250,17.166399633783474,0.0,0.0,0.0,0.008437896,0.0025213892,0.03749906,0.0008199108415283263,0.004687169101089239,0.6592302322387695,0.7519261240959167,0.007049083709716797,175,0.00044725556,-0.00043186266,0.0006217257383230416,2.0331174e-05,-9.88097e-05,0.00010087969911714481,4.043401718139648,103.30642700195312
1779199051.4367545,8.262619733810425,guard-only,11500,17.547875181200887,0.0,0.0,0.0,0.008445824,0.0025769863,0.03746207,0.00017509024473838508,0.005779935512691736,0.6588253378868103,0.7522737383842468,0.018965721130371094,176,0.00045518298,-0.0003762655,0.0005905652267536394,4.0203515e-05,0.000112979855,0.00011991984970103154,4.043401718139648,103.23950958251953
1779199051.5199087,8.345773935317993,guard-only,11500,17.547875181200887,0.0,0.0,0.0,0.008431929,0.00257316,0.037445866,6.571917765541002e-06,0.006263598334044218,0.6588940024375916,0.7522097229957581,0.008067846298217773,177,0.00044128858,-0.00038009183,0.0005824134512443249,-1.6176824e-05,6.688094e-05,6.880951592165208e-05,4.043401718139648,103.23950958251953
1779199051.623709,8.44957423210144,guard-only,11750,17.929350728618296,0.0,0.0,0.0,0.00846003,0.0025426857,0.037473883,0.0004454327863641083,0.0053954883478581905,0.6590169668197632,0.752108633518219,0.015395164489746094,178,0.00046938937,-0.0004105661,0.0006236111740295432,7.6060685e-05,-4.7948553e-05,8.991268797276483e-05,4.043401718139648,103.21675109863281
1779199051.7065544,8.532419681549072,guard-only,12000,18.310826276035705,0.0,0.0,0.0,0.008432266,0.0025519188,0.037457768,0.0004476251488085836,0.004962124861776829,0.6587613821029663,0.7523354291915894,0.0010423660278320312,179,0.0004416257,-0.00040133297,0.0005967423429789151,-3.244937e-05,-5.0661492e-06,3.284246520336524e-05,4.03812313079834,103.21990966796875
1779199051.77423,8.600095272064209,guard-only,12000,18.310826276035705,0.0,0.0,0.0,0.008427373,0.0025596523,0.037470736,0.00032159031252376735,0.0056624989956617355,0.6590142846107483,0.7521090507507324,0.0013277530670166016,180,0.00043673255,-0.0003935995,0.0005879250850880683,-4.4497407e-05,3.088067e-05,5.416304194385605e-05,4.03812313079834,103.1893081665039
1779199051.858278,8.684143304824829,guard-only,12000,18.310826276035705,0.0,0.0,0.0,0.00841167,0.0025501354,0.037424836,-0.00023443005920853466,0.00642764288932085,0.6590477228164673,0.7520735859870911,0.010436534881591797,181,0.00042102952,-0.00040311646,0.0005828968331098795,-9.401123e-05,-1.6482203e-05,9.54451374783847e-05,4.03812313079834,103.11540985107422
1779199051.9431627,8.769027948379517,guard-only,12250,18.692301823453118,0.0,0.0,0.0,0.008420761,0.002555204,0.0374003,-0.0005216076970100403,0.00587491737678647,0.6588291525840759,0.7522695064544678,0.019530296325683594,182,0.00043012016,-0.00039804773,0.0005860420820723837,-2.9824743e-05,8.525782e-06,3.1019416583835755e-05,4.03812313079834,103.0736312866211
1779199052.02426,8.850125312805176,guard-only,12500,19.073777370870527,0.0,0.0,0.0,0.008387846,0.002555693,0.037435327,-0.0004892563447356224,0.005264881998300552,0.659013569355011,0.7521124482154846,0.0048830509185791016,183,0.00039720535,-0.0003975588,0.0005619831890148208,-0.00012401046,7.500074e-06,0.00012423705683073545,4.03812313079834,103.0736312866211
1779199052.1265886,8.952453851699829,guard-only,12500,19.073777370870527,0.0,0.0,0.0,0.008359932,0.002617102,0.03740339,-0.0017325658118352294,0.006399535574018955,0.6589242219924927,0.7521800994873047,0.01738119125366211,184,0.00036929175,-0.0003361497,0.000499372622856696,-0.00018002832,0.00021033347,0.00027685802508561934,4.032844543457031,103.04434204101562
1779199052.2296615,9.055526733398438,guard-only,12750,19.455252918287936,0.0,0.0,0.0,0.008406661,0.0025798231,0.037474867,1.6401118045905605e-06,0.005607221741229296,0.6589381694793701,0.7521762251853943,0.016849756240844727,185,0.00041602086,-0.0003734287,0.0005590369679808289,9.29051e-06,3.9287203e-05,4.0370754912829136e-05,4.032844543457031,103.08158111572266
1779199052.3122826,9.138147830963135,guard-only,13000,19.83672846570535,0.0,0.0,0.0,0.008200739,0.0027353945,0.037420064,-0.004100038204342127,0.004725656937807798,0.6589208245277405,0.7521862983703613,0.014865398406982422,186,0.00021009799,-0.0002178573,0.00030265982644253614,-0.0007236725,0.00057913706,0.0009268773633608544,4.027565956115723,103.08515930175781
1779199052.394246,9.22011137008667,guard-only,13000,19.83672846570535,0.0,0.0,0.0,0.00816897,0.0027619759,0.03739742,-0.004428960848599672,0.004885307978838682,0.6588422656059265,0.7522522211074829,0.0051631927490234375,187,0.00017832965,-0.00019127596,0.0002615109077163759,-0.0006105409,0.0004923903,0.0007843522302481861,4.032844543457031,103.06779479980469
1779199052.4964864,9.322351694107056,guard-only,13250,20.218204013122758,0.0,0.0,0.0,0.008294322,0.002635207,0.03744533,-0.001678238739259541,0.005070011131465435,0.6591100692749023,0.7520275115966797,0.014191627502441406,188,0.000303681,-0.0003180448,0.00043974384142771964,-2.393857e-05,-6.3328946e-05,6.770236613396735e-05,4.027565956115723,103.03618621826172
1779199052.599503,9.425368309020996,guard-only,13500,20.59967956054017,0.0,0.0,0.0,0.008247453,0.0026812083,0.037401784,-0.0027647202368825674,0.004448278341442347,0.6589694619178772,0.7521514892578125,0.014553546905517578,189,0.0002568122,-0.00027204351,0.00037411252125247723,-0.00015372728,9.010476e-05,0.0001781879434977385,4.027565956115723,103.04822540283203
1779199052.6831777,9.509042978286743,guard-only,13500,20.59967956054017,0.0,0.0,0.0,0.008241677,0.002703256,0.037411407,-0.0032235218677669764,0.0054972609505057335,0.6588823795318604,0.7522189617156982,0.0038454532623291016,190,0.00025103614,-0.00024999585,0.0003542838715397837,-0.00012596858,0.00013315288,0.0001832969494451181,4.022287368774414,102.99507904052734
1779199052.7691028,9.59496808052063,guard-only,13750,20.98115510795758,0.0,0.0,0.0,0.008237863,0.0026815967,0.03742183,-0.00298160407692194,0.005118180066347122,0.6588964462280273,0.7522103190422058,0.007245779037475586,191,0.00024722237,-0.00027165515,0.0003673083508579291,-0.00010204208,1.4469551e-05,0.00010306286422881745,4.022287368774414,102.97293090820312
1779199052.8504727,9.676337957382202,guard-only,13750,20.98115510795758,0.0,0.0,0.0,0.008279712,0.0026894077,0.037401505,-0.0023832900915294886,0.004791109822690487,0.6589477062225342,0.7521697282791138,0.016468286514282227,192,0.00028907135,-0.00026384415,0.0003913770422826674,0.00010258512,4.260805e-05,0.00011108174331907014,4.022287368774414,103.03640747070312
1779199052.9323103,9.758175611495972,guard-only,14000,21.36263065537499,0.0,0.0,0.0,0.0081515545,0.002740906,0.03740267,-0.004259866662323475,0.004070444032549858,0.6588319540023804,0.752267062664032,0.006670951843261719,193,0.00016091391,-0.00021234574,0.00026642822842079506,-0.00034775975,0.00019842417,0.0004003860635093734,4.022287368774414,103.03640747070312
1779199052.9953866,9.82125186920166,guard-only,14000,21.36263065537499,0.0,0.0,0.0,0.007985133,0.0029567461,0.037327424,-0.0068027484230697155,0.001987868919968605,0.6586688756942749,0.7523995637893677,0.0057375431060791016,194,-5.5078417e-06,3.4943223e-06,6.5227761419024156e-06,-0.0010234159,0.0011504944,0.001539810920852299,4.022287368774414,103.02864837646484
1779199053.0831447,9.90900993347168,guard-only,14250,21.744106202792402,0.0,0.0,0.0,0.008220359,0.0027378812,0.037428457,-0.002722477074712515,0.0041656652465462685,0.658784806728363,0.7523149251937866,0.010456323623657227,195,0.00022971816,-0.00021537067,0.0003148888054510633,0.00013342116,1.4642021e-05,0.0001342221761606706,4.022287368774414,102.97630310058594
1779199053.1668947,9.992759943008423,guard-only,14500,22.12558175020981,0.0,0.0,0.0,0.008102951,0.002821798,0.03743433,-0.0045727831311523914,0.004967977758497,0.6587677001953125,0.7523161172866821,0.00982975959777832,196,0.00011231005,-0.00013145385,0.00017289783878457612,-0.0003240485,0.00030861478,0.0004474936038593108,4.0170087814331055,103.00475311279297
1779199053.2685685,10.094433784484863,guard-only,14500,22.12558175020981,0.0,0.0,0.0,0.008089139,0.0027610392,0.03744388,-0.003239881247282028,0.003244225401431322,0.6589012145996094,0.7522155046463013,0.00969243049621582,197,9.849854e-05,-0.00019221264,0.00021598070170666267,-0.0002675314,3.6996586e-05,0.0002700773867365055,4.0170087814331055,102.99193572998047
1779199053.350078,10.175943374633789,guard-only,14750,22.507057297627224,0.0,0.0,0.0,0.008294847,0.002635729,0.03750106,-0.00045982899609953165,0.003969285637140274,0.6589977741241455,0.7521343231201172,0.008242368698120117,198,0.00030420627,-0.0003175228,0.00043972967054091563,0.00055661163,-0.00042725092,0.0007016835792141617,4.0170087814331055,102.95988464355469
1779199053.4522424,10.278107643127441,guard-only,14750,22.507057297627224,0.0,0.0,0.0,0.008106764,0.002761439,0.037505753,-0.002570477779954672,0.0022411723621189594,0.6591243147850037,0.7520262002944946,0.006421089172363281,199,0.00011612382,-0.00019181287,0.00022422514767973502,-0.00015299281,6.3599524e-05,0.00016568554427041373,4.011730194091797,102.93544006347656
1779199053.5552096,10.381074905395508,guard-only,15000,22.888532845044633,0.0,0.0,0.0,0.007959309,0.0029180162,0.03744198,-0.004749329295009375,-0.00017418645438738167,0.6590820550918579,0.7520560026168823,0.017253637313842773,200,-3.1331554e-05,-3.523566e-05,4.715101328813833e-05,-0.00058722467,0.000554351,0.0008075505112271218,4.011730194091797,102.932373046875
1779199053.6366582,10.462523460388184,guard-only,15250,23.270008392462042,0.0,0.0,0.0,0.008196877,0.0026713945,0.037501797,-0.0009821169078350067,0.0034841119777411222,0.6592106223106384,0.7519496083259583,0.016702890396118164,201,0.00020623673,-0.00028185733,0.0003492522551447036,0.00045810238,-0.0005142364,0.0006886921537651306,4.011730194091797,102.94728088378906
1779199053.7186544,10.544519662857056,guard-only,15250,23.270008392462042,0.0,0.0,0.0,0.008128303,0.002740039,0.03749772,-0.0025603631511330605,0.0018327304860576987,0.659093976020813,0.7520540356636047,0.006597757339477539,202,0.00013766252,-0.0002132128,0.00025379255991757576,9.730611e-05,-0.00013637089,0.00016752760479919694,4.011730194091797,102.94728088378906
1779199053.800859,10.626724243164062,guard-only,15500,23.651483939879455,0.0,0.0,0.0,0.007949071,0.002931627,0.03742793,-0.00461044954136014,0.00010453146387590095,0.6590232849121094,0.7521083950996399,0.007029533386230469,203,-4.1569583e-05,-2.1624845e-05,4.6857913899189326e-05,-0.0005894348,0.0006074194,0.0008463992534183864,4.006451606750488,102.83871459960938
1779199053.8819363,10.707801580429077,guard-only,15500,23.651483939879455,0.0,0.0,0.0,0.008110369,0.0027438346,0.037496906,-0.0021731930319219828,0.0014279900351539254,0.6589328646659851,0.7521972060203552,0.01421046257019043,204,0.000119728036,-0.0002094172,0.00024122678696729624,0.00024222163,-0.00033719407,0.00041517605798497187,4.006451606750488,102.82953643798828
1779199053.9655077,10.791373014450073,guard-only,15500,23.651483939879455,0.0,0.0,0.0,0.008225389,0.002616758,0.037555687,-4.466525206225924e-05,0.0018918586429208517,0.6593478322029114,0.7518356442451477,0.01468348503112793,205,0.00023474824,-0.00033649383,0.00041028628523060237,0.0005847985,-0.00069480506,0.0009081537999157302,4.006451606750488,102.88031005859375
1779199054.0265813,10.852446556091309,guard-only,15750,24.032959487296864,0.0,0.0,0.0,0.008059088,0.0028113602,0.037507653,-0.003643002361059189,0.0031792183872312307,0.6591218709945679,0.7520205974578857,0.002550840377807617,206,6.844755e-05,-0.00014189165,0.0001575382784771627,-0.00027214366,0.00031111907,0.00041334882163787624,4.006451606750488,102.88031005859375
1779199054.1079464,10.933811664581299,guard-only,16000,24.414435034714273,0.0,0.0,0.0,0.008046709,0.00285947,0.03748066,-0.003933518659323454,-3.3638232707744464e-05,0.6591615676879883,0.7519910931587219,0.013158559799194336,207,5.6068413e-05,-9.3781855e-05,0.000109264373696319,-0.00024298613,0.0004217612,0.00048674917819715926,4.006451606750488,102.83930969238281
1779199054.2108393,11.036704540252686,guard-only,16000,24.414435034714273,0.0,0.0,0.0,0.008079667,0.0027766381,0.037509423,-0.003103874158114195,0.002223276300355792,0.6589959263801575,0.752136766910553,0.01318216323852539,208,8.9026056e-05,-0.00017661368,0.00019778278863619953,-7.397516e-05,5.3668467e-05,9.139271749338669e-05,4.00117301940918,102.81678771972656
1779199054.293486,11.119351387023926,guard-only,16250,24.795910582131686,0.0,0.0,0.0,0.007952867,0.0029340573,0.037446074,-0.005126202944666147,0.00011594913667067885,0.659162163734436,0.7519833445549011,0.0006496906280517578,209,-3.7773512e-05,-1.9194558e-05,4.2370617963160924e-05,-0.0004514479,0.0005337444,0.0006990624642437735,4.00117301940918,102.80747985839844
1779199054.380992,11.206857204437256,guard-only,16250,24.795910582131686,0.0,0.0,0.0,0.007991821,0.0028810077,0.03745315,-0.0042251781560480595,-0.0011160240974277258,0.6592119932174683,0.7519445419311523,0.0008542537689208984,210,1.1799857e-06,-7.224409e-05,7.225372544385828e-05,-0.00018215462,0.00019132289,0.0002641680277210462,4.00117301940918,102.8026123046875
1779199054.4826713,11.308536529541016,guard-only,16500,25.177386129549095,0.0,0.0,0.0,0.00826827,0.0026262682,0.03751983,1.6853702618391253e-05,0.003143643494695425,0.6592792868614197,0.751891553401947,0.01581883430480957,211,0.00027762912,-0.00032698363,0.000428947806762104,0.00082890055,-0.0007473758,0.0011160854232684467,3.995894432067871,102.80207824707031
1779199054.5858145,11.411679744720459,guard-only,16750,25.558861676966508,0.0,0.0,0.0,0.008226248,0.0026712758,0.037536465,-0.0008047290029935539,0.0024264403618872166,0.6591705679893494,0.7519891262054443,0.016790151596069336,212,0.00023560785,-0.00028197607,0.00036745280715193805,0.00045684632,-0.00039101054,0.0006013300366899883,3.995894432067871,102.77104949951172
1779199054.667576,11.493441343307495,guard-only,16750,25.558861676966508,0.0,0.0,0.0,0.008077389,0.0028222585,0.03751518,-0.00328871700912714,0.0032086377032101154,0.6589942574501038,0.7521339654922485,0.016338348388671875,213,8.674804e-05,-0.00013099331,0.00015711292548940806,-0.00022340304,0.00027723477,0.00035604500161327525,3.9906158447265625,102.78697967529297
1779199054.7496188,11.575484037399292,guard-only,17000,25.940337224383917,0.0,0.0,0.0,0.008163811,0.0027265828,0.03753024,-0.0020908734295517206,0.0025490892585366964,0.6590819358825684,0.7520639300346375,0.0050868988037109375,214,0.00017317012,-0.00022666901,0.0002852485505159741,0.00012151984,-0.000113593895,0.00016634495616766836,3.9906158447265625,102.80635833740234
1779199054.854012,11.679877281188965,guard-only,17000,25.940337224383917,0.0,0.0,0.0,0.007915899,0.0029582665,0.03744734,-0.005340676289051771,-0.0005291063571348786,0.6589837670326233,0.7521380186080933,0.006456613540649414,215,-7.474143e-05,5.0147064e-06,7.490947269312185e-05,-0.00063684373,0.0005951371,0.0008716410435897915,3.9906158447265625,102.79353332519531
1779199054.9390464,11.764911651611328,guard-only,17250,26.321812771801326,0.0,0.0,0.0,0.007988636,0.002882909,0.03749122,-0.005049362778663635,0.0030095786787569523,0.6589862704277039,0.752131998538971,0.009742259979248047,216,-2.0042062e-06,-7.0342794e-05,7.037133916896828e-05,-0.00017886085,0.00014005037,0.00022716801815159983,3.9906158447265625,102.75426483154297
1779199055.0418556,11.86772084236145,guard-only,17500,26.70328831921874,0.0,0.0,0.0,0.008297754,0.0025990806,0.037477903,-1.0228503697362612e-06,0.003169325180351734,0.6591861248016357,0.7519731521606445,0.011507987976074219,217,0.00030711386,-0.00035417126,0.0004687816150069592,0.000792575,-0.000744657,0.0010875151378435296,3.985337257385254,102.73136138916016
1779199055.146551,11.972416162490845,guard-only,17500,26.70328831921874,0.0,0.0,0.0,0.008080152,0.0028128447,0.03748617,-0.0034457810688763857,0.0021033950615674257,0.6590545177459717,0.7520843148231506,0.022389888763427734,218,8.9511275e-05,-0.00014040712,0.00016651254953488652,-0.00014105509,0.00016232295,0.00021504714844195003,3.985337257385254,102.64594268798828
1779199055.231853,12.057718276977539,guard-only,17750,27.08476386663615,0.0,0.0,0.0,0.00840939,0.0025674077,0.03758627,0.0018544839695096016,0.004171217791736126,0.6590617895126343,0.7520749568939209,0.011606454849243164,219,0.00041874964,-0.00038584415,0.0005694093079207849,0.0009292152,-0.0006526818,0.0011355327039864775,3.985337257385254,102.64594268798828
1779199055.293323,12.11918830871582,guard-only,18000,27.466239414053558,0.0,0.0,0.0,0.008221519,0.0026887916,0.037511244,-0.001198603305965662,0.003899897215887904,0.6591479778289795,0.7520022392272949,0.0007131099700927734,220,0.00023087859,-0.00026446022,0.00035106144034556747,-0.00012841454,4.6349393e-05,0.00013652310844881508,3.985337257385254,102.59379577636719
1779199055.357929,12.183794260025024,guard-only,18000,27.466239414053558,0.0,0.0,0.0,0.008093203,0.002788533,0.037477467,-0.002836806233972311,0.0025958584155887365,0.6588646769523621,0.7522516846656799,0.0016181468963623047,221,0.00010256283,-0.00016471883,0.00019403976046557722,-0.00069419446,0.0005021775,0.0008567894661741289,3.985337257385254,102.60235595703125
1779199055.4635608,12.28942608833313,guard-only,18250,27.84771496147097,0.0,0.0,0.0,0.00827763,0.0026745088,0.037549935,-0.00019953765149693936,0.002946071093901992,0.6589866280555725,0.7521489858627319,0.003898143768310547,222,0.00028698985,-0.00027874298,0.0004000760196335013,4.9401366e-05,2.0545616e-05,5.3503432173563476e-05,3.9800586700439453,102.67082214355469
1779199055.5449772,12.370842456817627,guard-only,18250,27.84771496147097,0.0,0.0,0.0,0.008175239,0.002757248,0.03755186,-0.002032141899690032,0.0026435290928930044,0.6589913368225098,0.7521430850028992,0.00196075439453125,223,0.00018459838,-0.00019600382,0.00026924721081625976,-0.00033393802,0.00031216993,0.0004571265297911726,3.9800586700439453,102.72547149658203
1779199055.6569352,12.482800483703613,guard-only,18500,28.22919050888838,0.0,0.0,0.0,0.008093977,0.0028327405,0.037473127,-0.004111429676413536,0.00391733692958951,0.658823549747467,0.7522761225700378,0.016776561737060547,224,0.00010333676,-0.00012051128,0.0001587496618735044,-0.00048471327,0.0004516592,0.0006625277387478483,3.9800586700439453,102.66344451904297
1779199055.7380397,12.563905000686646,guard-only,18500,28.22919050888838,0.0,0.0,0.0,0.008222466,0.0027169203,0.037495643,-0.0016604724805802107,0.003115895437076688,0.6590168476104736,0.7521198391914368,0.005979776382446289,225,0.00023182575,-0.00023633149,0.0003310524819600815,8.0136524e-05,-6.191878e-05,0.0001012709138333124,3.9800586700439453,102.59547424316406
1779199055.8407621,12.666627407073975,guard-only,18500,28.22919050888838,0.0,0.0,0.0,0.007967879,0.0029650135,0.037402023,-0.005349000450223684,-5.183372923056595e-05,0.6589152812957764,0.7521981596946716,0.015413522720336914,226,-2.2761524e-05,1.1761673e-05,2.56207711676293e-05,-0.00076261256,0.00075448107,0.0010727625884574864,3.9747800827026367,102.56414794921875
1779199055.926267,12.752132177352905,guard-only,18500,28.22919050888838,0.0,0.0,0.0,0.008287687,0.0026791221,0.037471786,-0.001121383160352707,0.00432549137622118,0.6588932275772095,0.7522232532501221,0.0029921531677246094,227,0.00029704627,-0.00027412968,0.00040420732415770265,0.00044591312,-0.00034770102,0.0005654507147996365,3.9747800827026367,102.56414794921875
1779199056.0280683,12.853933572769165,guard-only,18500,28.22919050888838,0.0,0.0,0.0,0.00817361,0.0027634678,0.03748898,-0.002835221355780959,0.003999912645667791,0.6589184999465942,0.7521983981132507,0.019209861755371094,228,0.0001829695,-0.00018978398,0.0002636205560291216,-8.773882e-05,5.2269723e-05,0.00010212847146581522,3.9800586700439453,102.64608764648438
1779199056.1092434,12.935108661651611,guard-only,18500,28.22919050888838,0.0,0.0,0.0,0.008203386,0.0027155788,0.03749967,-0.0015514621045440435,0.003275869879871607,0.6589691042900085,0.7521612644195557,0.0033092498779296875,229,0.00021274574,-0.00023767306,0.000318981561523211,3.0602496e-05,-0.00011140624,0.00011553295313081777,3.9747800827026367,102.6001205444336
1779199056.2120829,13.03794813156128,guard-only,18500,28.22919050888838,0.0,0.0,0.0,0.008191597,0.0027134665,0.03749461,-0.0019069380359724164,0.00409821979701519,0.6589638590812683,0.7521609663963318,0.016880035400390625,230,0.00020095613,-0.0002397853,0.00031285835886524487,-1.8198909e-05,-8.508285e-05,8.700742467666923e-05,3.9747800827026367,102.55400848388672
1779199056.2742963,13.1001615524292,guard-only,18500,28.22919050888838,0.0,0.0,0.0,0.008247332,0.002697037,0.03748895,-0.00150294357445091,0.004408714827150106,0.6588793992996216,0.752234160900116,0.00539398193359375,231,0.00025669113,-0.00025621476,0.000362679369337748,0.00021413484,-0.00012643552,0.00024867583549991086,3.9747800827026367,102.5538558959961
1779199056.3599498,13.18581509590149,guard-only,18500,28.22919050888838,0.0,0.0,0.0,0.008351503,0.0026302594,0.037474275,-0.00039817774086259305,0.005267533008009195,0.659021258354187,0.7521057724952698,0.005394458770751953,232,0.00036086235,-0.00032299245,0.0004842992377750014,0.00051475427,-0.00032239384,0.0006073794139777088,3.9800586700439453,102.51738739013672
1779199056.4451973,13.27106261253357,guard-only,18500,28.22919050888838,0.0,0.0,0.0,0.008136574,0.0027773993,0.037442517,-0.0031182626262307167,0.0035034308675676584,0.6589867472648621,0.7521399259567261,0.014734983444213867,233,0.00014593359,-0.00017585256,0.00022851856467990335,-0.00048911455,0.0003558513,0.0006048662435998896,3.9747800827026367,102.4500503540039
1779199056.5082169,13.334082126617432,guard-only,18500,28.22919050888838,0.0,0.0,0.0,0.008248387,0.002703162,0.037479647,-0.001676501240581274,0.003574357833713293,0.6588167548179626,0.7522931098937988,0.0056378841400146484,234,0.00025774632,-0.0002500899,0.00035913525239101787,0.00012275286,-5.972621e-05,0.00013651184011096283,3.9747800827026367,102.4500503540039
1779199056.613311,13.439176321029663,guard-only,18500,28.22919050888838,0.0,0.0,0.0,0.008163486,0.0027893442,0.037464444,-0.003141948254778981,0.0035402646753937006,0.6588712334632874,0.7522408366203308,0.013382434844970703,235,0.00017284509,-0.00016390765,0.00023820399522137052,-0.00017571106,0.0002237774,0.00028451836248091615,3.9747800827026367,102.44861602783203
1779199056.69427,13.520135164260864,guard-only,18500,28.22919050888838,0.0,0.0,0.0,0.008068106,0.0028629673,0.037454158,-0.004781185649335384,0.004434078000485897,0.658868134021759,0.752230167388916,0.0031995773315429688,236,7.746555e-05,-9.0284506e-05,0.00011896303192621936,-0.00043694692,0.0003989805,0.0005916992925221792,3.9747800827026367,102.46002197265625
1779199056.7959406,13.621805906295776,guard-only,18500,28.22919050888838,0.0,0.0,0.0,0.007944432,0.0029886384,0.037424326,-0.005897647701203823,0.00046852146624587476,0.6588772535324097,0.7522271871566772,0.013398885726928711,237,-4.62085e-05,3.5386533e-05,5.8201650428396744e-05,-0.0007114782,0.00069145125,0.0009921220176782502,3.9747800827026367,102.50602722167969
1779199056.8792248,13.705090045928955,guard-only,18500,28.22919050888838,0.0,0.0,0.0,0.008175707,0.0027529427,0.037480455,-0.0025576003827154636,0.003796246135607362,0.6587356328964233,0.7523605823516846,0.002759218215942383,238,0.00018506683,-0.00020030909,0.0002727149929591385,0.00024067686,-0.00026881442,0.0003608137127796179,3.9747800827026367,102.51216125488281
1779199056.9821627,13.808027982711792,guard-only,18500,28.22919050888838,0.0,0.0,0.0,0.008388796,0.0026324946,0.037526555,0.0007348982617259026,0.004754460882395506,0.6588025093078613,0.7523005604743958,0.013833999633789062,239,0.0003981553,-0.00032075727,0.0005112855160271378,0.00086436264,-0.000581521,0.0010417722662605907,3.9747800827026367,102.50650024414062
1779199057.0648572,13.890722513198853,guard-only,18500,28.22919050888838,0.0,0.0,0.0,0.008104938,0.0027989317,0.03745767,-0.0033057164400815964,0.0038408972322940826,0.6589098572731018,0.7522048354148865,0.002805948257446289,240,0.000114297494,-0.00015432015,0.00019203808111558892,-0.0003035569,0.00012568993,0.00032854947440656083,3.9747800827026367,102.4820556640625
1779199057.1683614,13.994226694107056,guard-only,18500,28.22919050888838,0.0,0.0,0.0,0.008398293,0.002581459,0.03750368,0.0005719496984966099,0.0047054653987288475,0.6590536236763,0.752081036567688,0.010519027709960938,241,0.000407652,-0.00037179282,0.0005517336904295633,0.0007062423,-0.00059310114,0.0009222511100975426,3.9747800827026367,102.45646667480469
1779199057.2510123,14.07687759399414,guard-only,18500,28.22919050888838,0.0,0.0,0.0,0.008054648,0.0028962102,0.037478335,-0.0052244048565626144,0.0035995417274534702,0.6587501764297485,0.7523350119590759,0.003951549530029297,242,6.400701e-05,-5.7041645e-05,8.5735910293487e-05,-0.0006611491,0.0006431914,0.0009223954183573739,3.9747800827026367,102.46121215820312
1779199057.3539045,14.17976975440979,guard-only,18500,28.22919050888838,0.0,0.0,0.0,0.008133289,0.0027998802,0.03746399,-0.0031984718516469,0.0034155321773141623,0.6587762236595154,0.7523244023323059,0.018831968307495117,243,0.00014264882,-0.0001533716,0.00020945531840591572,-0.00019474304,0.00012188018,0.0002297381760956234,3.9747800827026367,102.45024108886719
1779199057.435984,14.261849164962769,guard-only,18500,28.22919050888838,0.0,0.0,0.0,0.008452432,0.0026009057,0.037522048,0.000950951362028718,0.005108592566102743,0.6587928533554077,0.7523064613342285,0.018228530883789062,244,0.00046179164,-0.0003523461,0.0005808608141366073,0.0010216328,-0.0006366275,0.0012037558798623927,3.9747800827026367,102.52123260498047
