wall_time_s,elapsed_s,mode,thrust_raw,thrust_percent,roll_cmd_deg,pitch_cmd_deg,yawrate_cmd_deg_s,mocap_x,mocap_y,mocap_z,mocap_qx,mocap_qy,mocap_qz,mocap_qw,mocap_age_s,mocap_frame_count,drift_x_m,drift_y_m,horizontal_drift_m,velocity_x_m_s,velocity_y_m_s,horizontal_speed_m_s,battery_v,estimate_z
1779198855.1183462,0.0005142688751220703,guard-only,0,0.0,0.0,0.0,0.0,0.012018723,0.00058421073,0.03765883,-0.00427761347964406,-0.00284730177372694,0.6084506511688232,0.7935750484466553,0.0210268497467041,108,0.0,0.0,0.0,0.0,0.0,0.0,4.117301940917969,104.16189575195312
1779198855.1804523,0.06262040138244629,guard-only,0,0.0,0.0,0.0,0.0,0.012026037,0.0005947021,0.03764651,-0.00433322275057435,-0.003290287684649229,0.6084817051887512,0.7935492992401123,0.0005075931549072266,109,7.313676e-06,1.0491349e-05,1.2788989415775093e-05,2.6554826e-05,3.8092465e-05,4.6434842050290114e-05,4.117301940917969,104.17057800292969
1779198855.283466,0.1656341552734375,guard-only,0,0.0,0.0,0.0,0.0,0.012034587,0.000591252,0.037642907,-0.004302427172660828,-0.003261726349592209,0.6084549427032471,0.7935701012611389,0.011122465133666992,110,1.5863217e-05,7.0412643e-06,1.7355721703811963e-05,4.6346966e-05,1.5463018e-05,4.8858430781620335e-05,4.117301940917969,104.14352416992188
1779198855.3646545,0.24682259559631348,guard-only,0,0.0,0.0,0.0,0.0,0.012032372,0.00059951236,0.037637427,-0.004168207757174969,-0.0037454033736139536,0.6083935499191284,0.7936157584190369,0.0001995563507080078,111,1.3648532e-05,1.530163e-05,2.0504202205362e-05,2.5229807e-05,3.7727525e-05,4.538622183170951e-05,4.117301940917969,104.12580871582031
1779198855.4700072,0.352175235748291,guard-only,0,0.0,0.0,0.0,0.0,0.012025526,0.000592764,0.037642386,-0.0044325352646410465,-0.0026077660731971264,0.6084786057472229,0.7935535907745361,0.02009129524230957,112,6.80238e-06,8.5532665e-06,1.0928437357324604e-05,-6.3717143e-06,2.719964e-06,6.927982873454852e-06,4.117301940917969,104.12857055664062
1779198855.5554569,0.4376249313354492,guard-only,0,0.0,0.0,0.0,0.0,0.012029723,0.0006042104,0.03762108,-0.004346631467342377,-0.003126805182546377,0.6084170341491699,0.7935994267463684,0.0008490085601806641,113,1.0999851e-05,1.9999687e-05,2.2825078318051218e-05,7.5678595e-06,3.4704255e-05,3.551982389136013e-05,4.117301940917969,104.13426971435547
1779198855.640996,0.5231640338897705,guard-only,0,0.0,0.0,0.0,0.0,0.012033129,0.0005869679,0.037659444,-0.004373884294182062,-0.003149523865431547,0.6084290146827698,0.7935900092124939,0.006350994110107422,114,1.4405698e-05,2.7571805e-06,1.4667179922546556e-05,1.8063503e-05,-4.0336436e-05,4.419635928303505e-05,4.117301940917969,104.09944915771484
1779198855.7425888,0.6247568130493164,guard-only,0,0.0,0.0,0.0,0.0,0.01203759,0.0005924143,0.037664745,-0.004277609288692474,-0.0028160596266388893,0.6084892153739929,0.7935456037521362,0.006005525588989258,115,1.8866733e-05,8.203555e-06,2.0573086927966315e-05,2.5773092e-05,-1.2207052e-05,2.8517790942986004e-05,4.117301940917969,104.08367156982422
1779198855.8241022,0.7062702178955078,guard-only,0,0.0,0.0,0.0,0.0,0.012024045,0.00057560625,0.03764017,-0.004254375118762255,-0.0031207185238599777,0.6084670424461365,0.793561577796936,0.004742860794067383,116,5.321577e-06,-8.604489e-06,1.01171347233513e-05,-3.1049676e-05,-6.946125e-05,7.608513644358801e-05,4.117301940917969,104.09573364257812
1779198855.9084961,0.7906641960144043,guard-only,0,0.0,0.0,0.0,0.0,0.012073582,0.00061554555,0.03759189,-0.003767747897654772,-0.005766029469668865,0.6084676384925842,0.7935487627983093,0.0064237117767333984,117,5.4858625e-05,3.1334814e-05,6.317704693242458e-05,0.0001579358,9.6236734e-05,0.00018494655679828756,4.117301940917969,104.09573364257812
1779198856.0120742,0.8942422866821289,guard-only,0,0.0,0.0,0.0,0.0,0.012032741,0.0005885833,0.037642356,-0.004363317042589188,-0.0033644987270236015,0.6084487438201904,0.7935740947723389,0.0040624141693115234,118,1.4017336e-05,4.3725595e-06,1.468349386873185e-05,-5.0996314e-06,-8.986215e-06,1.0332390990777852e-05,4.117301940917969,104.13334655761719
1779198856.0964484,0.97861647605896,guard-only,0,0.0,0.0,0.0,0.0,0.012020798,0.00058347266,0.037637036,-0.004463162273168564,-0.0026484967675060034,0.6084527969360352,0.7935730814933777,0.016469240188598633,119,2.0749867e-06,-7.3807314e-07,2.2023445537201193e-06,-5.3352098e-05,-2.7594311e-05,6.00657342355705e-05,4.117301940917969,104.12265014648438
1779198856.1813142,1.0634822845458984,guard-only,0,0.0,0.0,0.0,0.0,0.012070897,0.00060628075,0.03760512,-0.0037055443972349167,-0.0059164888225495815,0.6085700392723083,0.7934695482254028,0.017275333404541016,120,5.2173622e-05,2.2070017e-05,5.664955854470033e-05,0.00014145013,6.2083585e-05,0.00015447495004058907,4.117301940917969,104.09452056884766
1779198856.2426662,1.1248342990875244,guard-only,0,0.0,0.0,0.0,0.0,0.012033762,0.0005921512,0.03764788,-0.004239373840391636,-0.0038509757723659277,0.6084345579147339,0.7935834527015686,0.0038788318634033203,121,1.5038997e-05,7.940456e-06,1.700653572173964e-05,-5.0023154e-05,-1.3249883e-05,5.1748190836734205e-05,4.117301940917969,104.04625701904297
1779198856.3447993,1.2269673347473145,guard-only,0,0.0,0.0,0.0,0.0,0.012032086,0.0005790624,0.03764356,-0.004378636367619038,-0.002993378322571516,0.6084442734718323,0.7935788631439209,0.014476299285888672,122,1.3362616e-05,-5.148351e-06,1.4320091982862948e-05,-4.0510404e-05,-5.217237e-05,6.605338017977308e-05,4.117301940917969,104.02243041992188
1779198856.4518867,1.334054708480835,guard-only,0,0.0,0.0,0.0,0.0,0.012042495,0.00061414205,0.037599016,-0.0038715305272489786,-0.005839294753968716,0.6084544658660889,0.7935578227043152,0.01421666145324707,123,2.3772009e-05,2.993131e-05,3.822292207571965e-05,7.335875e-07,6.1515595e-05,6.151997049905497e-05,4.117301940917969,104.02223205566406
1779198856.533934,1.4161021709442139,guard-only,0,0.0,0.0,0.0,0.0,0.012077392,0.0006030728,0.03760409,-0.003654752392321825,-0.006278155371546745,0.6084036231040955,0.7935945987701416,0.01945018768310547,124,5.8668666e-05,1.8862076e-05,6.162621262430448e-05,0.00013680385,-1.7043931e-07,0.00013680395690543736,4.117301940917969,104.04129791259766
1779198856.6280928,1.510260820388794,guard-only,0,0.0,0.0,0.0,0.0,0.012042418,0.0005719918,0.03764867,-0.004334012977778912,-0.003273195121437311,0.608391523361206,0.7936184406280518,0.003309011459350586,125,2.3694709e-05,-1.2218952e-05,2.6659745324984266e-05,6.3845073e-07,-8.465533e-05,8.465773930945011e-05,4.117301940917969,104.0562744140625
1779198856.7145898,1.5967578887939453,guard-only,0,0.0,0.0,0.0,0.0,0.012037912,0.0005814275,0.03766527,-0.0044676377438008785,-0.0026778168976306915,0.6084520220756531,0.7935735583305359,0.006806612014770508,126,1.918897e-05,-2.7832575e-06,1.9389767765250573e-05,-1.5838992e-05,-2.515359e-05,2.9725019214588556e-05,4.117301940917969,104.0562744140625
1779198856.8006575,1.6828255653381348,guard-only,250,0.3814755474174105,0.0,0.0,0.0,0.012046478,0.00059481617,0.03765777,-0.0044042267836630344,-0.0032282534521073103,0.608408510684967,0.7936052083969116,0.006773233413696289,127,2.7754344e-05,1.0605436e-05,2.9711594538493904e-05,1.8756848e-05,2.9042418e-05,3.457284076217748e-05,4.117301940917969,104.0804443359375
1779198856.9019322,1.7841002941131592,guard-only,250,0.3814755474174105,0.0,0.0,0.0,0.012019737,0.0005928981,0.037669126,-0.0044005196541547775,-0.0033091194927692413,0.6084207892417908,0.793595552444458,0.01497030258178711,128,1.013279e-06,8.687377e-06,8.746270803979105e-06,-7.305974e-05,1.4147567e-05,7.441692713506923e-05,4.117301940917969,104.0759048461914
1779198856.9837341,1.8659021854400635,guard-only,500,0.762951094834821,0.0,0.0,0.0,0.012034185,0.0005959114,0.03763486,-0.0044064209796488285,-0.003211057046428323,0.6084390878677368,0.7935817837715149,0.00451207160949707,129,1.5461817e-05,1.1700671e-05,1.939003616116293e-05,-4.159854e-06,1.9701554e-05,2.0135928424783528e-05,4.117301940917969,104.0855484008789
1779198857.0652616,1.9474296569824219,guard-only,500,0.762951094834821,0.0,0.0,0.0,0.012033795,0.0005873763,0.037619695,-0.004344393033534288,-0.0036322418600320816,0.6084223389625549,0.7935932278633118,0.013213157653808594,130,1.5071593e-05,3.1655654e-06,1.5400445613809387e-05,-4.519382e-06,-2.1368312e-05,2.1841006902197577e-05,4.117301940917969,104.05270385742188
1779198857.1467574,2.0289254188537598,guard-only,500,0.762951094834821,0.0,0.0,0.0,0.01203172,0.00058397884,0.037614956,-0.004405156709253788,-0.003199187805876136,0.6085065007209778,0.7935302257537842,0.010808467864990234,131,1.29966065e-05,-2.3189932e-07,1.2998675461856434e-05,-1.0583027e-05,-2.710602e-05,2.909874209984058e-05,4.117301940917969,104.08776092529297
1779198857.2302995,2.1124675273895264,guard-only,500,0.762951094834821,0.0,0.0,0.0,0.012034092,0.0005725478,0.037620828,-0.004364741034805775,-0.0031522084027528763,0.6084895730018616,0.7935435771942139,0.01022958755493164,132,1.5368685e-05,-1.1662953e-05,1.9293028494976445e-05,1.0514063e-06,-5.9740687e-05,5.974993841336191e-05,4.117301940917969,104.11337280273438
1779198857.2937539,2.17592191696167,guard-only,500,0.762951094834821,0.0,0.0,0.0,0.012031595,0.00057968125,0.037616357,-0.004441766068339348,-0.0033424582798033953,0.6083694696426392,0.7936345338821411,0.002768993377685547,133,1.2871809e-05,-4.5294873e-06,1.364550241600383e-05,-9.826844e-06,-1.1640939e-05,1.5234117262802201e-05,4.117301940917969,104.11337280273438
1779198857.3773801,2.2595481872558594,guard-only,500,0.762951094834821,0.0,0.0,0.0,0.012021946,0.0005886359,0.037638366,-0.004549124278128147,-0.0022834017872810364,0.6083803176879883,0.7936293482780457,0.007464170455932617,134,3.222376e-06,4.425179e-06,5.4741135022353285e-06,-4.3554195e-05,2.5886093e-05,5.0666139358927744e-05,4.117301940917969,104.09075164794922
1779198857.4673476,2.349515676498413,guard-only,500,0.762951094834821,0.0,0.0,0.0,0.012031566,0.0005845581,0.037625898,-0.004344344139099121,-0.0032690120860934258,0.6083846688270569,0.793623685836792,0.019687414169311523,135,1.2842938e-05,3.4738332e-07,1.2847635660008824e-05,6.635957e-06,2.3848388e-06,7.051481059432783e-06,4.117301940917969,104.09657287597656
1779198857.570781,2.452949047088623,guard-only,1500,2.288853284504463,0.0,0.0,0.0,0.0120466715,0.00059345644,0.03762154,-0.004333888180553913,-0.00321770878508687,0.6084607243537903,0.7935656309127808,0.01874518394470215,136,2.794806e-05,9.245705e-06,2.9437681428158532e-05,4.806084e-05,2.7245254e-05,5.5246251563940305e-05,4.117301940917969,104.10433197021484
1779198857.651614,2.5337820053100586,guard-only,2000,3.051804379339284,0.0,0.0,0.0,0.012050296,0.00060312496,0.037623454,-0.004469068720936775,-0.003189671318978071,0.608391523361206,0.7936180830001831,0.01857614517211914,137,3.1572767e-05,1.891423e-05,3.680472490430892e-05,4.70671e-05,5.488015e-05,7.229898452091816e-05,4.117301940917969,104.08496856689453
1779198857.736318,2.618486166000366,guard-only,2750,4.196231021591516,0.0,0.0,0.0,0.012035964,0.0006099427,0.03761459,-0.004474111832678318,-0.0029827309772372246,0.608392596244812,0.7936179637908936,0.008492231369018555,138,1.7240644e-05,2.5731977e-05,3.0973768865510657e-05,-1.2413555e-05,5.999397e-05,6.126477555444068e-05,4.117301940917969,104.0837631225586
1779198857.8216305,2.703798532485962,guard-only,3000,4.577706569008926,0.0,0.0,0.0,0.012050731,0.0006004758,0.03762419,-0.00439051678404212,-0.0029298653826117516,0.6084282398223877,0.793591320514679,0.014648675918579102,139,3.2007694e-05,1.6265083e-05,3.590327876331357e-05,4.727746e-05,6.116363e-06,4.767145803971172e-05,4.117301940917969,104.11991882324219
1779198857.907631,2.7897989749908447,guard-only,4000,6.103608758678568,0.0,0.0,0.0,0.012033346,0.00061230455,0.037624534,-0.0042070047929883,-0.0039697918109595776,0.6084420084953308,0.7935771942138672,0.006844282150268555,140,1.4622696e-05,2.8093811e-05,3.167152336920036e-05,-2.2505254e-05,4.211126e-05,4.774771991859505e-05,4.117301940917969,104.11991882324219
1779198858.0094535,2.8916215896606445,guard-only,5000,7.629510948348211,0.0,0.0,0.0,0.01201871,0.000602026,0.03761465,-0.004421700723469257,-0.003211992559954524,0.608393669128418,0.793616533279419,0.004937171936035156,141,-1.3038516e-08,1.781527e-05,1.7815274568863496e-05,-5.8082147e-05,-2.4901237e-07,5.808268111514865e-05,4.117301940917969,104.14106750488281
1779198858.0964208,2.978588819503784,guard-only,5500,8.392462043183032,0.0,0.0,0.0,0.012043656,0.00060889684,0.03763181,-0.00439919950440526,-0.0031413258984684944,0.6083206534385681,0.7936729788780212,0.01055598258972168,142,2.4932437e-05,2.4686102e-05,3.50860379021428e-05,5.1337436e-05,2.5164227e-05,5.717316511776782e-05,4.117301940917969,104.11112976074219
1779198858.1809764,3.0631444454193115,guard-only,6000,9.155413138017853,0.0,0.0,0.0,0.012034227,0.0006087334,0.037646335,-0.004280338529497385,-0.0035069782752543688,0.6084080338478088,0.7936050891876221,0.0001609325408935547,143,1.5503727e-05,2.4522655e-05,2.9012516837363427e-05,6.145865e-06,1.7098542e-05,1.8169528970828326e-05,4.117301940917969,104.06876373291016
1779198858.2957933,3.1779613494873047,guard-only,7250,11.062790875104906,0.0,0.0,0.0,0.012026548,0.00059495773,0.037623253,-0.004325296729803085,-0.0034961074125021696,0.6083889007568359,0.7936195731163025,0.02076268196105957,144,7.824972e-06,1.0746997e-05,1.329391334891819e-05,-2.0148596e-05,-3.1895484e-05,3.772648699434058e-05,4.117301940917969,104.07789611816406
1779198858.3599663,3.2421343326568604,guard-only,7500,11.444266422522317,0.0,0.0,0.0,0.0120478235,0.00060522044,0.037625916,-0.004348131828010082,-0.0036819935776293278,0.6084483861923218,0.7935730218887329,0.011862993240356445,145,2.9100105e-05,2.1009706e-05,3.589183557465375e-05,7.3241084e-05,1.9806737e-05,7.58720187295705e-05,4.117301940917969,104.12625885009766
1779198858.4259632,3.308131217956543,guard-only,8250,12.588693064774548,0.0,0.0,0.0,0.012044681,0.0005973014,0.03762455,-0.004578263498842716,-0.0029661941807717085,0.6083458662033081,0.7936532497406006,0.000751495361328125,146,2.5957823e-05,1.309067e-05,2.9071880028595087e-05,3.904331e-05,-1.6945305e-05,4.256199449919913e-05,4.117301940917969,104.12625885009766
1779198858.509658,3.3918261528015137,guard-only,9000,13.733119707026779,0.0,0.0,0.0,0.012037339,0.0005883365,0.03762079,-0.004469003994017839,-0.0032392581924796104,0.6083582639694214,0.7936433553695679,0.0017230510711669922,147,1.8615276e-05,4.125759e-06,1.9066996525038524e-05,7.0224087e-07,-4.4373362e-05,4.437891785729096e-05,4.117301940917969,104.0957260131836
1779198858.5905635,3.472731590270996,guard-only,9250,14.11459525444419,0.0,0.0,0.0,0.0120321475,0.00059279194,0.03763358,-0.004420860670506954,-0.0035347670782357454,0.6084092855453491,0.7936033010482788,0.0015382766723632812,148,1.3424084e-05,8.581206e-06,1.5932454713445255e-05,-1.871368e-05,-1.4578054e-05,2.3721750041102975e-05,4.117301940917969,104.08972930908203
1779198858.6714768,3.553644895553589,guard-only,9750,14.877546349279012,0.0,0.0,0.0,0.012033429,0.000599816,0.037655525,-0.004329980351030827,-0.003183096880093217,0.608372151851654,0.7936336994171143,0.0014858245849609375,149,1.4705583e-05,1.5605241e-05,2.144242793854953e-05,-8.351271e-06,1.582131e-05,1.789015348007796e-05,4.117301940917969,104.11004638671875
1779198858.7532992,3.635467290878296,guard-only,9750,14.877546349279012,0.0,0.0,0.0,0.012041812,0.0005769455,0.0376211,-0.004488586448132992,-0.0024626345839351416,0.6084312200546265,0.7935901284217834,0.0009043216705322266,150,2.3088418e-05,-7.2652474e-06,2.4204521507846748e-05,2.4672696e-05,-7.218749e-05,7.628745488223326e-05,4.117301940917969,104.11470794677734
1779198858.8576138,3.7397818565368652,guard-only,9750,14.877546349279012,0.0,0.0,0.0,0.0120356595,0.00058216555,0.037618,-0.004578038118779659,-0.0027471808716654778,0.6083948016166687,0.793616533279419,0.0075397491455078125,151,1.6936101e-05,-2.0451844e-06,1.7059141940613692e-05,-1.6246031e-06,-3.4498968e-05,3.4537198301862085e-05,4.117301940917969,104.13798522949219
1779198858.9600327,3.842200756072998,guard-only,9750,14.877546349279012,0.0,0.0,0.0,0.0120428465,0.00059080124,0.03761771,-0.004555339924991131,-0.0028347705956548452,0.6084093451499939,0.7936052083969116,0.017353057861328125,152,2.4123117e-05,6.590504e-06,2.500718980469628e-05,2.2145443e-05,3.8264297e-06,2.247358926102518e-05,4.117301940917969,104.1146240234375
1779198859.0424874,3.9246554374694824,guard-only,9750,14.877546349279012,0.0,0.0,0.0,0.012038408,0.0006080889,0.037631303,-0.004604616668075323,-0.0029179146513342857,0.6083410382270813,0.7936570048332214,0.018553495407104492,153,1.9684434e-05,2.387818e-05,3.094583022342601e-05,-8.863208e-07,6.650658e-05,6.651248766430541e-05,4.117301940917969,104.08657836914062
1779198859.1243975,4.006565570831299,guard-only,9750,14.877546349279012,0.0,0.0,0.0,0.012032166,0.00060361903,0.037632108,-0.0045510693453252316,-0.002842461923137307,0.6083984375,0.7936135530471802,0.0064220428466796875,154,1.344271e-05,1.9408297e-05,2.360907598178679e-05,-2.0532012e-05,3.229533e-05,3.826946319400496e-05,4.117301940917969,104.09073638916016
1779198859.209161,4.091329097747803,guard-only,9750,14.877546349279012,0.0,0.0,0.0,0.012044107,0.00060059736,0.037627883,-0.004677569959312677,-0.0026217459235340357,0.6083940267562866,0.7936170101165771,0.009733438491821289,155,2.5383197e-05,1.638662e-05,3.0213044126371357e-05,2.9606135e-05,1.147746e-05,3.175303714740649e-05,4.117301940917969,104.09073638916016
1779198859.2920392,4.1742072105407715,guard-only,10000,15.259021896696423,0.0,0.0,0.0,0.01203985,0.0006118319,0.03764471,-0.004605861846357584,-0.002421680372208357,0.6084274053573608,0.7935924530029297,0.0002422332763671875,156,2.1126121e-05,2.7621165e-05,3.477415445111541e-05,6.898029e-06,4.452213e-05,4.5053334974824893e-05,4.117301940917969,104.07911682128906
1779198859.3991292,4.281297206878662,guard-only,10000,15.259021896696423,0.0,0.0,0.0,0.012037853,0.00060466025,0.037613064,-0.0045765903778374195,-0.002653621369972825,0.6084086894989014,0.7936062812805176,0.009594917297363281,157,1.9129366e-05,2.0449515e-05,2.8002059356819946e-05,-1.300326e-06,9.152456e-06,9.244365860274186e-06,4.117301940917969,104.01959228515625
1779198859.503459,4.385627031326294,guard-only,10000,15.259021896696423,0.0,0.0,0.0,0.012035918,0.00059038494,0.037625294,-0.004614873789250851,-0.0029470573645085096,0.6083963513374329,0.7936144471168518,0.018501996994018555,158,1.7195009e-05,6.174203e-06,1.8269896208382402e-05,-6.9916623e-06,-3.84735e-05,3.9103625387818695e-05,4.117301940917969,104.0335464477539
1779198859.5692923,4.451460361480713,guard-only,10000,15.259021896696423,0.0,0.0,0.0,0.012033982,0.0006027976,0.037625004,-0.004547324497252703,-0.0027967540081590414,0.6083651185035706,0.7936393022537231,0.010709762573242188,159,1.5258789e-05,1.858687e-05,2.404791895284207e-05,-1.2783623e-05,2.3646096e-05,2.688045575506902e-05,4.117301940917969,104.04490661621094
1779198859.6326926,4.5148606300354,guard-only,10000,15.259021896696423,0.0,0.0,0.0,0.012072104,0.0006385888,0.037580766,-0.003858129493892193,-0.006205233279615641,0.6084124445915222,0.7935873866081238,0.0025701522827148438,160,5.3380616e-05,5.4378062e-05,7.620015586765102e-05,0.00015091403,0.00016664139,0.00022482081111890463,4.117301940917969,103.98600006103516
1779198859.7143824,4.596550464630127,guard-only,10250,15.640497444113832,0.0,0.0,0.0,0.012039891,0.0005968516,0.037595186,-0.004598717205226421,-0.00278644310310483,0.6084567308425903,0.7935687899589539,0.0116119384765625,161,2.116803e-05,1.2640841e-05,2.4655149885371276e-05,-2.7382004e-05,-5.5704833e-05,6.207094748321941e-05,4.117301940917969,103.98600006103516
1779198859.799682,4.681849956512451,guard-only,10500,16.021972991531243,0.0,0.0,0.0,0.01207369,0.0006080535,0.0376068,-0.004360506776720285,-0.0035526768770068884,0.6083816289901733,0.7936246991157532,0.010103464126586914,162,5.496666e-05,2.384279e-05,5.9915041727913034e-05,9.7637414e-05,-2.805209e-07,9.763782080701644e-05,4.117301940917969,104.03435516357422
1779198859.8891509,4.7713189125061035,guard-only,11250,17.166399633783474,0.0,0.0,0.0,0.012048397,0.0005994276,0.0376108,-0.004457967821508646,-0.0031076716259121895,0.608329713344574,0.7936658263206482,0.011901617050170898,163,2.96738e-05,1.521688e-05,3.3347981441754754e-05,-1.8203238e-05,-2.9713296e-05,3.484591541918282e-05,4.117301940917969,104.05792999267578
1779198859.979245,4.86141300201416,guard-only,12250,18.692301823453118,0.0,0.0,0.0,0.012042767,0.00059538335,0.03762075,-0.004557487554848194,-0.0030979409348219633,0.6084185242652893,0.7935971617698669,0.005556821823120117,164,2.4043955e-05,1.1172611e-05,2.6512997573059283e-05,-3.0255467e-05,-3.338013e-05,4.505137339580514e-05,4.117301940917969,104.06473541259766
1779198860.0890107,4.971178770065308,guard-only,13000,19.83672846570535,0.0,0.0,0.0,0.012037981,0.00060903,0.03763086,-0.004643351770937443,-0.002626928733661771,0.608304500579834,0.793685793876648,0.02444934844970703,165,1.9257888e-05,2.4819281e-05,3.141437449181957e-05,-3.697908e-05,2.168569e-05,4.2868654405130816e-05,4.117301940917969,104.08867645263672
1779198860.170946,5.05311393737793,guard-only,13500,20.59967956054017,0.0,0.0,0.0,0.012036357,0.00060645724,0.03762527,-0.004517899826169014,-0.002919072052463889,0.6083211898803711,0.7936727404594421,0.014060497283935547,166,1.7633662e-05,2.2246502e-05,2.8387549030050404e-05,-3.116316e-05,6.8199297e-06,3.190068903800575e-05,4.117301940917969,104.09127044677734
1779198860.2520163,5.13418436050415,guard-only,14500,22.12558175020981,0.0,0.0,0.0,0.012058599,0.00062108226,0.03761564,-0.004616877529770136,-0.0029799221083521843,0.6083812713623047,0.7936258912086487,0.003832101821899414,167,3.9875507e-05,3.6871526e-05,5.430990223474584e-05,5.1270574e-05,5.2830514e-05,7.361884869451111e-05,4.117301940917969,104.07439422607422
1779198860.3542461,5.236414194107056,guard-only,14500,22.12558175020981,0.0,0.0,0.0,0.012037895,0.0006084223,0.037622523,-0.004726863466203213,-0.002421210054308176,0.6083855032920837,0.7936238646507263,0.007704973220825195,168,1.9171275e-05,2.4211593e-05,3.088266646042218e-05,-2.7260885e-05,-1.632885e-06,2.7309745179904394e-05,4.117301940917969,104.0690689086914
1779198860.459663,5.3418309688568115,guard-only,14500,22.12558175020981,0.0,0.0,0.0,0.012031704,0.00060200226,0.037626736,-0.004527197685092688,-0.003119759727269411,0.6084334254264832,0.7935858368873596,0.019899368286132812,169,1.2980774e-05,1.779152e-05,2.2023593618897367e-05,-3.9004342e-05,-2.1803527e-05,4.468481349490748e-05,4.117301940917969,104.07953643798828
1779198860.5260344,5.408202409744263,guard-only,14500,22.12558175020981,0.0,0.0,0.0,0.012044661,0.0005988311,0.037622184,-0.004535035230219364,-0.0031251159962266684,0.6084102988243103,0.7936035990715027,0.0005309581756591797,170,2.5937334e-05,1.4620367e-05,2.9774157059784357e-05,1.8031396e-05,-2.6358197e-05,3.193564985128128e-05,4.117301940917969,104.057373046875
1779198860.630907,5.513075113296509,guard-only,14500,22.12558175020981,0.0,0.0,0.0,0.012041038,0.0005927533,0.03761121,-0.004508838057518005,-0.003159631509333849,0.6083904504776001,0.7936187386512756,0.0026051998138427734,171,2.2314489e-05,8.542556e-06,2.3893758741535044e-05,2.0493153e-06,-3.6187805e-05,3.624578432122297e-05,4.117301940917969,104.087158203125
1779198860.7166533,5.598821401596069,guard-only,14500,22.12558175020981,0.0,0.0,0.0,0.012045933,0.0006004246,0.037616644,-0.00468444125726819,-0.002611370524391532,0.60834139585495,0.7936573028564453,0.008066415786743164,172,2.720952e-05,1.621386e-05,3.1674078724452184e-05,1.972571e-05,3.333782e-06,2.0005443648838507e-05,4.117301940917969,104.087158203125
1779198860.8033178,5.68548583984375,guard-only,14500,22.12558175020981,0.0,0.0,0.0,0.012087863,0.0006411988,0.037554882,-0.004075395874679089,-0.005435159429907799,0.6084212064743042,0.7935853004455566,0.019707202911376953,173,6.9139525e-05,5.6988094e-05,8.959864395085766e-05,0.00018147513,0.00016537917,0.0002455269643027186,4.117301940917969,104.09111785888672
1779198860.864501,5.746669054031372,guard-only,14500,22.12558175020981,0.0,0.0,0.0,0.012079054,0.0006270348,0.037598133,-0.0043068635277450085,-0.00449367193505168,0.6083246469497681,0.7936638593673706,0.0032775402069091797,174,6.0330145e-05,4.2824075e-05,7.398396970463186e-05,9.2981354e-05,6.1016694e-05,0.0001112140696130028,4.117301940917969,104.06398010253906
1779198860.965909,5.848077058792114,guard-only,14500,22.12558175020981,0.0,0.0,0.0,0.012043246,0.0006164331,0.037609033,-0.004195319954305887,-0.004391178488731384,0.6084229946136475,0.79358971118927,0.018431901931762695,175,2.4522655e-05,3.2222364e-05,4.0492484631257804e-05,-5.945559e-05,5.83773e-06,5.974149639706363e-05,4.117301940917969,104.06427001953125
1779198861.0504444,5.932612419128418,guard-only,14500,22.12558175020981,0.0,0.0,0.0,0.012041681,0.0006091376,0.03761633,-0.0046182600781321526,-0.0026507284492254257,0.6083705425262451,0.7936352491378784,0.014689922332763672,176,2.2958033e-05,2.4926849e-05,3.388833335477507e-05,-4.6936093e-05,-2.070653e-05,5.130065551789711e-05,4.117301940917969,104.0276870727539
1779198861.1385727,6.020740747451782,guard-only,14750,22.507057297627224,0.0,0.0,0.0,0.012058004,0.000628348,0.037608862,-0.004363283049315214,-0.00435029249638319,0.608385443687439,0.7936177253723145,0.009104490280151367,177,3.9280392e-05,4.413724e-05,5.908506774706002e-05,1.9396488e-05,4.7002457e-05,5.084736708218175e-05,4.117301940917969,104.02764892578125
1779198861.2400537,6.1222217082977295,guard-only,14750,22.507057297627224,0.0,0.0,0.0,0.012041412,0.0005979794,0.037596226,-0.0047105648554861546,-0.002903460990637541,0.6083810329437256,0.7936258912086487,0.00737309455871582,178,2.268888e-05,1.3768673e-05,2.653981311337369e-05,-3.4647823e-05,-5.536843e-05,6.531565322898975e-05,4.117301940917969,104.00711059570312
1779198861.3223243,6.2044923305511475,guard-only,14750,22.507057297627224,0.0,0.0,0.0,0.01204787,0.00060103275,0.03759768,-0.004827272146940231,-0.0025047133676707745,0.6083211302757263,0.7936724424362183,0.0066339969635009766,179,2.9146671e-05,1.6822014e-05,3.365276574697479e-05,-9.1479524e-07,-2.7723017e-05,2.7738106310241014e-05,4.117301940917969,103.98653411865234
1779198861.4285197,6.310687780380249,guard-only,15000,22.888532845044633,0.0,0.0,0.0,0.0120429415,0.00061249966,0.03761211,-0.00454449187964201,-0.003286786377429962,0.6083897352218628,0.7936185598373413,0.018866300582885742,180,2.4218112e-05,2.8288923e-05,3.723949697795065e-05,-1.637597e-05,1.720476e-05,2.3752392516160036e-05,4.117301940917969,103.97378540039062
1779198861.5103009,6.3924689292907715,guard-only,15000,22.888532845044633,0.0,0.0,0.0,0.012040209,0.0006024777,0.03760164,-0.0047207847237586975,-0.002810343401506543,0.6083009243011475,0.7936874628067017,0.014223337173461914,181,2.1485612e-05,1.8266961e-05,2.820130086921779e-05,-2.094838e-05,-2.274544e-05,3.092231690847146e-05,4.117301940917969,103.97378540039062
1779198861.5937605,6.475928544998169,guard-only,15000,22.888532845044633,0.0,0.0,0.0,0.012044521,0.00060743326,0.037608832,-0.0047701271250844,-0.002216241555288434,0.6083940267562866,0.7936177849769592,0.01523280143737793,182,2.5797635e-05,2.3222528e-05,3.4710283955499316e-05,1.0256999e-06,2.1093347e-06,2.3454963822557434e-06,4.117301940917969,103.99079132080078
1779198861.6616194,6.543787479400635,guard-only,15250,23.270008392462042,0.0,0.0,0.0,0.012078718,0.0006234278,0.037590027,-0.004494319204241037,-0.0037390869110822678,0.6084148287773132,0.7935976386070251,0.005367755889892578,183,5.999487e-05,3.9217062e-05,7.167539700189317e-05,0.00013271291,6.3212436e-05,0.0001469984016116433,4.117301940917969,103.97879791259766
1779198861.765324,6.647492170333862,guard-only,15250,23.270008392462042,0.0,0.0,0.0,0.012069,0.00062578963,0.037593227,-0.004600108601152897,-0.003987568896263838,0.6083366870880127,0.7936557531356812,0.014317989349365234,184,5.0276518e-05,4.1578896e-05,6.524210989785256e-05,6.2129984e-05,5.1726456e-05,8.084405522686747e-05,4.117301940917969,103.96995544433594
1779198861.9708805,6.85304856300354,guard-only,15250,23.270008392462042,0.0,0.0,0.0,0.01204668,0.00060429703,0.037612155,-0.004795263055711985,-0.0022674656938761473,0.60835200548172,0.7936496138572693,0.013722896575927734,185,2.7956441e-05,2.00863e-05,3.442414966942869e-05,1.1009906e-05,4.9316186e-06,1.206395044650462e-05,4.117301940917969,103.9792251586914
1779198861.9940672,6.876235246658325,guard-only,15250,23.270008392462042,0.0,0.0,0.0,0.012060491,0.0006527365,0.03760635,-0.004173572175204754,-0.0053535345941782,0.6083744168281555,0.7936211228370667,0.005774736404418945,186,4.1767955e-05,6.8525784e-05,8.02517610154122e-05,0.00014078789,0.00047019112,0.0004908165962996911,4.117301940917969,103.9792251586914
1779198862.0992935,6.981461524963379,guard-only,15250,23.270008392462042,0.0,0.0,0.0,0.012040027,0.00060804887,0.037616823,-0.004771387670189142,-0.002349370624870062,0.608428955078125,0.7935904860496521,0.015745878219604492,187,2.1304004e-05,2.3838133e-05,3.197056722488414e-05,3.4101606e-05,0.00018839286,0.00019145441488420173,4.117301940917969,103.97382354736328
1779198862.2634516,7.145619630813599,guard-only,15750,24.032959487296864,0.0,0.0,0.0,0.012050097,0.0006241761,0.037609257,-0.004758364055305719,-0.002745784353464842,0.6083858013153076,0.7936224341392517,0.015600204467773438,188,3.1373464e-05,3.996538e-05,5.080871637727126e-05,4.2256812e-05,0.00016132151,0.00016676411377365948,4.117301940917969,103.94622039794922
1779198862.286386,7.168554067611694,guard-only,15750,24.032959487296864,0.0,0.0,0.0,0.012036356,0.0006106333,0.037611224,-0.004771627951413393,-0.0028361526783555746,0.6083982586860657,0.7936124205589294,0.01732349395751953,189,1.763273e-05,2.6422553e-05,3.176577558670531e-05,-0.00016476239,-7.8618e-05,0.00018255803196223717,4.117301940917969,103.94622039794922
1779198862.3715165,7.2536845207214355,guard-only,15750,24.032959487296864,0.0,0.0,0.0,0.012028988,0.0006206087,0.037628826,-0.004700716584920883,-0.0029366782400757074,0.6083784103393555,0.7936277389526367,0.004204750061035156,190,1.0265037e-05,3.639795e-05,3.7817743861916976e-05,-0.00013783063,-2.4573126e-05,0.00014000400888144928,4.117301940917969,103.92975616455078
1779198862.4749618,7.357129812240601,guard-only,15750,24.032959487296864,0.0,0.0,0.0,0.012056006,0.00062543247,0.037614323,-0.0044711558148264885,-0.004262257367372513,0.6083582043647766,0.7936385869979858,0.013916254043579102,191,3.7282705e-05,4.1221734e-05,5.558085585204222e-05,-1.0009942e-05,-1.7624043e-06,1.0163907581154796e-05,4.117301940917969,103.94042205810547
1779198862.5629644,7.445132493972778,guard-only,15750,24.032959487296864,0.0,0.0,0.0,0.012031899,0.00061393995,0.0375901,-0.004858106374740601,-0.0023634822573512793,0.6083278656005859,0.7936674952507019,0.009091377258300781,192,1.31754205e-05,2.9729214e-05,3.251796149779099e-05,-8.491686e-05,-3.8375198e-05,9.318545252811444e-05,4.117301940917969,103.9554214477539
1779198862.645187,7.527354955673218,guard-only,16000,24.414435034714273,0.0,0.0,0.0,0.012019826,0.00060835946,0.037626218,-0.00476772291585803,-0.002112145535647869,0.608440101146698,0.7935826778411865,0.009931087493896484,193,1.1026859e-06,2.4148729e-05,2.417389069309484e-05,-0.000103945335,-4.7433896e-05,0.00011425675985711482,4.117301940917969,104.02400207519531
1779198862.751265,7.633433103561401,guard-only,16000,24.414435034714273,0.0,0.0,0.0,0.01203909,0.0006185239,0.037618928,-0.004881755914539099,-0.0023576063103973866,0.6084222793579102,0.7935949563980103,0.01751112937927246,194,2.0366162e-05,3.4313183e-05,3.990206834817502e-05,-1.4090114e-05,-2.2454005e-06,1.426790561277135e-05,4.117301940917969,104.00907897949219
1779198862.8128357,7.6950037479400635,guard-only,16000,24.414435034714273,0.0,0.0,0.0,0.0120807495,0.00063605374,0.03757333,-0.003967223223298788,-0.0056131761521101,0.6084272265434265,0.7935799360275269,0.007056474685668945,195,6.202608e-05,5.1843002e-05,8.08389244540079e-05,0.00016365896,7.144348e-05,0.0001785733074171374,4.117301940917969,104.00907897949219
1779198862.9159484,7.798116445541382,guard-only,16000,24.414435034714273,0.0,0.0,0.0,0.012036033,0.0006427532,0.037594736,-0.004600441083312035,-0.0035916671622544527,0.6084012389183044,0.7936081886291504,0.018496274948120117,196,1.7309561e-05,5.854247e-05,6.104786602462964e-05,-3.177378e-05,7.193448e-05,7.863932206908306e-05,4.117301940917969,103.95585632324219
1779198862.9776447,7.8598127365112305,guard-only,16000,24.414435034714273,0.0,0.0,0.0,0.012024342,0.0006325608,0.03759089,-0.004931684583425522,-0.00211855280213058,0.6083769798278809,0.7936300039291382,0.008958578109741211,197,5.618669e-06,4.8350077e-05,4.8675449903637624e-05,-7.147752e-05,7.4291456e-06,7.186256744861887e-05,4.117301940917969,103.97525024414062
1779198863.0597305,7.941898584365845,guard-only,16000,24.414435034714273,0.0,0.0,0.0,0.012016552,0.0006344924,0.03761331,-0.004999752156436443,-0.002355558332055807,0.6083307266235352,0.7936643958091736,0.016884326934814453,198,-2.1718442e-06,5.028164e-05,5.0328523582173504e-05,-8.1549246e-05,1.3014158e-05,8.258115982145509e-05,4.117301940917969,103.95419311523438
1779198863.1231368,8.00530481338501,guard-only,16250,24.795910582131686,0.0,0.0,0.0,0.012035135,0.0006501796,0.03760034,-0.0045489175245165825,-0.003836760763078928,0.6083212494850159,0.7936686873435974,0.007387876510620117,199,1.6411766e-05,6.596884e-05,6.79796559126057e-05,1.9388492e-05,7.3663905e-05,7.617272760444129e-05,4.117301940917969,103.95993041992188
1779198863.2270236,8.109191656112671,guard-only,16250,24.795910582131686,0.0,0.0,0.0,0.012051738,0.0006324346,0.037600588,-0.004642804618924856,-0.0036128235515207052,0.6083464026451111,0.7936498522758484,0.01756739616394043,200,3.3014454e-05,4.8223883e-05,5.84422535186622e-05,6.6724744e-05,-5.244983e-06,6.693057222703713e-05,4.117301940917969,103.95692443847656
1779198863.288676,8.170844078063965,guard-only,16250,24.795910582131686,0.0,0.0,0.0,0.012042471,0.0006265249,0.03759793,-0.004769962280988693,-0.002512139966711402,0.6083218455314636,0.7936721444129944,0.007134675979614258,201,2.3747794e-05,4.2314176e-05,4.852264504066844e-05,8.14184e-06,-2.8266188e-05,2.9415420601880587e-05,4.117301940917969,103.95692443847656
1779198863.3959816,8.278149604797363,guard-only,16250,24.795910582131686,0.0,0.0,0.0,0.012024053,0.0006154063,0.03760253,-0.0049681272357702255,-0.0022511400748044252,0.6083489656448364,0.7936509251594543,0.018476486206054688,202,5.329959e-06,3.119558e-05,3.1647633618562264e-05,-5.1878214e-05,-5.4545082e-05,7.527625958440683e-05,4.11202335357666,103.96910858154297
1779198863.4990723,8.381240367889404,guard-only,16250,24.795910582131686,0.0,0.0,0.0,0.012059789,0.000649292,0.03758575,-0.004566851072013378,-0.004105084575712681,0.6083064079284668,0.7936785221099854,0.017030000686645508,203,4.1065738e-05,6.508129e-05,7.695432861900006e-05,6.623946e-05,5.9063328e-05,8.87476332357035e-05,4.117301940917969,103.97383117675781
1779198863.5807586,8.462926626205444,guard-only,16250,24.795910582131686,0.0,0.0,0.0,0.012031544,0.00062342826,0.037629064,-0.004919381346553564,-0.002235105959698558,0.6083348989486694,0.7936620712280273,0.0061109066009521484,204,1.2820587e-05,3.9217528e-05,4.125993095138865e-05,-4.5134064e-05,-4.24427e-05,6.195535839289612e-05,4.117301940917969,104.03134155273438
1779198863.6650798,8.547247886657715,guard-only,16250,24.795910582131686,0.0,0.0,0.0,0.012044184,0.00062330207,0.037627462,-0.004997053183615208,-0.0019994487520307302,0.6082950830459595,0.7936927080154419,0.0075266361236572266,205,2.5460497e-05,3.9091334e-05,4.6651573467507765e-05,1.4144636e-05,-3.0166533e-05,3.331802010918441e-05,4.117301940917969,104.02208709716797
1779198863.768037,8.650205135345459,guard-only,16500,25.177386129549095,0.0,0.0,0.0,0.012055286,0.00061402284,0.03763222,-0.005113221704959869,-0.0016335839172825217,0.6083627939224243,0.7936409711837769,0.01582193374633789,206,3.6562793e-05,2.9812101e-05,4.717625738060845e-05,4.508633e-05,-5.052406e-05,6.771600838244045e-05,4.117301940917969,104.0326156616211
1779198863.8493931,8.731561183929443,guard-only,16500,25.177386129549095,0.0,0.0,0.0,0.01207214,0.00063347444,0.03760543,-0.004517498426139355,-0.004110860638320446,0.6083626747131348,0.7936356067657471,0.015466451644897461,207,5.3416938e-05,4.9263705e-05,7.266554884832429e-05,9.343962e-05,3.60488e-05,0.00010015228184147449,4.11202335357666,104.0474853515625
1779198863.9305892,8.81275725364685,guard-only,16750,25.558861676966508,0.0,0.0,0.0,0.012070959,0.000613736,0.037609212,-0.004624256398528814,-0.003665636759251356,0.608300507068634,0.7936848998069763,0.003449678421020508,208,5.223602e-05,2.9525254e-05,6.000285383714282e-05,6.1607025e-05,-3.8292874e-05,7.253805681589764e-05,4.117301940917969,104.03280639648438
1779198864.0138607,8.896028757095337,guard-only,16750,25.558861676966508,0.0,0.0,0.0,0.0120396335,0.000631582,0.037604637,-0.004741378128528595,-0.003087831661105156,0.608383297920227,0.793623149394989,0.003092527389526367,209,2.0910054e-05,4.7371257e-05,5.178094553097188e-05,-6.925032e-05,3.721373e-05,7.861595910152012e-05,4.117301940917969,104.03280639648438
1779198864.0988185,8.980986595153809,guard-only,16750,25.558861676966508,0.0,0.0,0.0,0.01203413,0.00060656713,0.037607998,-0.005019730888307095,-0.0017658022698014975,0.6083877086639404,0.7936221361160278,0.0034046173095703125,210,1.540687e-05,2.2356398e-05,2.71510616782563e-05,-6.797952e-05,-6.260763e-05,9.241715068768228e-05,4.117301940917969,104.00019836425781
1779198864.1841962,9.066364288330078,guard-only,16750,25.558861676966508,0.0,0.0,0.0,0.012026701,0.00063633034,0.037622612,-0.005075423512607813,-0.0019213879713788629,0.6083909869194031,0.79361891746521,0.015963077545166016,211,7.977709e-06,5.2119605e-05,5.272662554597989e-05,-7.819224e-05,7.879285e-05,0.00011100603803991411,4.117301940917969,103.95451354980469
1779198864.2450798,9.12724781036377,guard-only,16750,25.558861676966508,0.0,0.0,0.0,0.012065035,0.00064876257,0.03758321,-0.0044043781235814095,-0.004768999759107828,0.6084555387496948,0.7935614585876465,0.004228830337524414,212,4.6311878e-05,6.455183e-05,7.944639020935109e-05,0.00010363232,0.00010651526,0.00014861076202890615,4.117301940917969,103.94541931152344
1779198864.3260098,9.2081778049469,guard-only,16750,25.558861676966508,0.0,0.0,0.0,0.012026035,0.0006290539,0.037618786,-0.0049494486302137375,-0.0024651428684592247,0.6083921194076538,0.793617308139801,0.013787984848022461,213,7.3118135e-06,4.4843182e-05,4.5435377856729305e-05,-9.139016e-05,-8.282601e-06,9.176471409947305e-05,4.117301940917969,103.95966339111328
1779198864.429107,9.311275005340576,guard-only,17250,26.321812771801326,0.0,0.0,0.0,0.012031583,0.0006221137,0.037612554,-0.005001742392778397,-0.002109874738380313,0.6083106994628906,0.7936804890632629,0.013584375381469727,214,1.2859702e-05,3.7902966e-05,4.002507650810053e-05,-4.7861264e-05,-2.595318e-05,5.444509311464865e-05,4.117301940917969,103.93060302734375
1779198864.5375614,9.419729471206665,guard-only,17500,26.70328831921874,0.0,0.0,0.0,0.012026968,0.0006061336,0.037611306,-0.00472615472972393,-0.00270069413818419,0.6083718538284302,0.7936334609985352,0.014287233352661133,215,8.244999e-06,2.1922868e-05,2.3422043381791557e-05,-4.635106e-05,-6.265871e-05,7.793930393040363e-05,4.117301940917969,103.90000915527344
1779198864.601308,9.483476161956787,guard-only,18000,27.466239414053558,0.0,0.0,0.0,0.012041508,0.0006098235,0.03760061,-0.004975071642547846,-0.0019426881335675716,0.6083670854568481,0.7936378121376038,0.011945009231567383,216,2.2784807e-05,2.5612768e-05,3.428062574695963e-05,3.355538e-05,-2.711139e-05,4.313920651760844e-05,4.117301940917969,103.90000915527344
1779198864.704076,9.586244106292725,guard-only,18000,27.466239414053558,0.0,0.0,0.0,0.012066966,0.0005972441,0.037597604,-0.004762035328894854,-0.002644798718392849,0.6083288192749023,0.793666422367096,0.01273798942565918,217,4.824251e-05,1.3033394e-05,4.997208326823107e-05,9.838275e-05,-5.598522e-05,0.00011319677668926968,4.117301940917969,104.01764678955078
1779198864.7892318,9.67139983177185,guard-only,18000,27.466239414053558,0.0,0.0,0.0,0.012030243,0.0006261333,0.03761459,-0.005012308247387409,-0.0026833389420062304,0.608429491519928,0.7935875654220581,0.012445688247680664,218,1.1519529e-05,4.1922554e-05,4.3476432909891984e-05,-6.0063023e-05,6.223748e-05,8.649317883923156e-05,4.117301940917969,104.10880279541016
1779198864.8734906,9.755658626556396,guard-only,18000,27.466239414053558,0.0,0.0,0.0,0.012077542,0.0006281147,0.03756284,-0.003994822967797518,-0.00598923722282052,0.6083475947380066,0.7936381697654724,0.0014574527740478516,219,5.881861e-05,4.3903943e-05,7.339744491724592e-05,0.00010693403,4.9807022e-05,0.00011796451154839121,4.117301940917969,104.12342071533203
1779198864.9555502,9.83771824836731,guard-only,18250,27.84771496147097,0.0,0.0,0.0,0.01206764,0.00063564954,0.037567787,-0.004124572034925222,-0.005283794831484556,0.6083937883377075,0.7936069965362549,0.010656595230102539,220,4.8916787e-05,5.143881e-05,7.098452755707905e-05,3.408348e-05,6.588941e-05,7.418287148257308e-05,4.117301940917969,104.07089233398438
1779198865.037976,9.920144081115723,guard-only,18250,27.84771496147097,0.0,0.0,0.0,0.012033905,0.00061177043,0.03762318,-0.0047609261237084866,-0.00259888032451272,0.6083666682243347,0.7936375737190247,0.008072853088378906,221,1.5181489e-05,2.7559698e-05,3.146449609976755e-05,-9.5193915e-05,-3.8147136e-05,0.00010255283994447364,4.117301940917969,104.02568054199219
1779198865.1238277,10.005995750427246,guard-only,18250,27.84771496147097,0.0,0.0,0.0,0.012036658,0.0006089094,0.037629608,-0.004942158702760935,-0.002754908986389637,0.6083176136016846,0.793673574924469,0.00829315185546875,222,1.7934479e-05,2.4698675e-05,3.052327103084114e-05,-5.6990946e-05,-3.6726273e-05,6.779960878267095e-05,4.117301940917969,104.05664825439453
1779198865.2062418,10.088409900665283,guard-only,18250,27.84771496147097,0.0,0.0,0.0,0.012044735,0.0006253361,0.03761682,-0.0047762589529156685,-0.0026400010101497173,0.6082974076271057,0.7936905026435852,0.008464336395263672,223,2.601184e-05,4.1125342e-05,4.866117185332994e-05,-1.0429641e-05,3.4211633e-05,3.576609135550211e-05,4.117301940917969,104.05664825439453
1779198865.2879536,10.170121669769287,guard-only,18500,28.22919050888838,0.0,0.0,0.0,0.0120334,0.0006103511,0.037617154,-0.004964583087712526,-0.002040474908426404,0.6084077954292297,0.7936065196990967,0.01916027069091797,224,1.4676712e-05,2.6140362e-05,2.997873293204767e-05,-5.5184977e-05,-3.9354556e-05,6.778025396782036e-05,4.117301940917969,104.0927963256836
1779198865.37032,10.252488136291504,guard-only,18500,28.22919050888838,0.0,0.0,0.0,0.012040582,0.0006129076,0.03761121,-0.004995850380510092,-0.0019758606795221567,0.6083537340164185,0.793647825717926,0.01773667335510254,225,2.185814e-05,2.8696842e-05,3.607335690080184e-05,-1.2917264e-05,-1.8395025e-05,2.247738048589173e-05,4.117301940917969,104.06304931640625
1779198865.4528308,10.334998846054077,guard-only,18500,28.22919050888838,0.0,0.0,0.0,0.0120238885,0.0006090142,0.0376069,-0.004967214539647102,-0.0024007942993193865,0.6083783507347107,0.7936279773712158,0.018536090850830078,226,5.165115e-06,2.4803448e-05,2.533553800510847e-05,-7.032992e-05,-2.7170972e-05,7.539602067670971e-05,4.117301940917969,104.03014373779297
1779198865.536027,10.418195009231567,guard-only,18750,28.610666056305792,0.0,0.0,0.0,0.012040934,0.0006147488,0.03762855,-0.004974064417183399,-0.001869577681645751,0.608384370803833,0.793624758720398,0.006991863250732422,227,2.221018e-05,3.0538067e-05,3.776063622047471e-05,4.7430804e-06,-8.607349e-07,4.820547237874838e-06,4.117301940917969,104.03726196289062
1779198865.6171553,10.49932336807251,guard-only,18750,28.610666056305792,0.0,0.0,0.0,0.012047477,0.0006286884,0.037595823,-0.004706996958702803,-0.003327104961499572,0.6083948612213135,0.793613612651825,0.006699800491333008,228,2.8753653e-05,4.4477638e-05,5.29625610468722e-05,2.7430098e-05,5.075894e-05,5.769644947948005e-05,4.117301940917969,104.04484558105469
1779198865.718783,10.600950956344604,guard-only,18750,28.610666056305792,0.0,0.0,0.0,0.012030696,0.0006126077,0.037622485,-0.0050444453954696655,-0.0015703216195106506,0.6082760691642761,0.7937079668045044,0.017703533172607422,229,1.1972152e-05,2.8396957e-05,3.081751977763671e-05,-3.635219e-05,-1.7702016e-05,4.0433192289535115e-05,4.117301940917969,103.98580169677734
1779198865.802027,10.684195041656494,guard-only,19000,28.9921416037232,0.0,0.0,0.0,0.012029629,0.000597239,0.03761795,-0.004886642564088106,-0.00211416557431221,0.6083621382713318,0.7936416864395142,0.005962848663330078,230,1.0905787e-05,1.30282715e-05,1.699035192335279e-05,-2.8814538e-05,-6.093188e-05,6.74015710243047e-05,4.117301940917969,103.98580169677734
1779198865.8863645,10.768532514572144,guard-only,19000,28.9921416037232,0.0,0.0,0.0,0.012028876,0.00061415555,0.037612576,-0.004900994710624218,-0.0025866483338177204,0.6083256602287292,0.7936681509017944,0.0037615299224853516,231,1.0152347e-05,2.9944815e-05,3.161901407260972e-05,-2.2782093e-05,1.5991482e-05,2.7834354009819754e-05,4.117301940917969,104.00040435791016
1779198865.9882529,10.870420932769775,guard-only,19000,28.9921416037232,0.0,0.0,0.0,0.012061002,0.00064349454,0.03756698,-0.004287553019821644,-0.005261315032839775,0.6084047555923462,0.7935978770256042,0.004202604293823242,232,4.227832e-05,5.9283804e-05,7.281501170370086e-05,7.905544e-05,9.795528e-05,0.00012587692393267936,4.117301940917969,104.04232025146484
1779198866.0711405,10.953308582305908,guard-only,19000,28.9921416037232,0.0,0.0,0.0,0.0120515525,0.0006350083,0.03755357,-0.004226855933666229,-0.005623789969831705,0.6083223819732666,0.7936588525772095,0.015054702758789062,233,3.282912e-05,5.0797593e-05,6.048261464642417e-05,1.5986574e-05,3.322693e-05,3.687274648079957e-05,4.11202335357666,104.03600311279297
1779198866.1756318,11.057799816131592,guard-only,19000,28.9921416037232,0.0,0.0,0.0,0.012070334,0.0006437758,0.03754044,-0.004328932613134384,-0.005360894836485386,0.6083717942237854,0.7936222553253174,0.015673398971557617,234,5.161017e-05,5.9565064e-05,7.881374461602825e-05,6.543319e-05,4.8580667e-05,8.149590961109625e-05,4.117301940917969,104.01206970214844
1779198866.2396789,11.121846914291382,guard-only,18750,28.610666056305792,0.0,0.0,0.0,0.012078278,0.00064626755,0.03756148,-0.004397252108901739,-0.0047912029549479485,0.6082724332809448,0.7937016487121582,0.005938529968261719,235,5.9554353e-05,6.205682e-05,8.601028722245066e-05,7.8104546e-05,4.413802e-05,8.971335147945359e-05,4.117301940917969,104.03362274169922
1779198866.3230023,11.205170392990112,guard-only,18750,28.610666056305792,0.0,0.0,0.0,0.012066745,0.00062615843,0.037590384,-0.0048989043571054935,-0.0020752979908138514,0.608313262462616,0.7936791777610779,0.01624464988708496,236,4.8021786e-05,4.19477e-05,6.376285402334154e-05,7.290335e-06,-5.172395e-05,5.223519962383502e-05,4.11202335357666,104.02702331542969
1779198866.3876011,11.269769191741943,guard-only,18750,28.610666056305792,0.0,0.0,0.0,0.012040748,0.0006220597,0.037599698,-0.004811383783817291,-0.0026781426277011633,0.6083183288574219,0.7936740517616272,0.008518457412719727,237,2.2024848e-05,3.784895e-05,4.3790831667499705e-05,-0.00010273061,-5.3208154e-05,0.00011569220862447264,4.11202335357666,104.02702331542969
1779198866.4708571,11.353025197982788,guard-only,18750,28.610666056305792,0.0,0.0,0.0,0.012023687,0.00062435446,0.03760054,-0.004989816341549158,-0.00228134891949594,0.6083125472068787,0.7936785817146301,0.010137557983398438,238,4.9639493e-06,4.014373e-05,4.044947172992161e-05,-0.00013460696,-2.8812834e-05,0.00013765613672232313,4.117301940917969,104.01722717285156
1779198866.5733705,11.455538511276245,guard-only,18750,28.610666056305792,0.0,0.0,0.0,0.012012774,0.0006186366,0.03760123,-0.004978533368557692,-0.002144912723451853,0.6082507371902466,0.7937264442443848,0.020462989807128906,239,-5.9492886e-06,3.4425873e-05,3.4936152970124115e-05,-0.000129739,-3.877616e-05,0.00013540973702367027,4.117301940917969,104.02447509765625
1779198866.6601698,11.542337894439697,guard-only,18750,28.610666056305792,0.0,0.0,0.0,0.012036613,0.0006337827,0.037585657,-0.00494927354156971,-0.002603879664093256,0.6083057522773743,0.7936831116676331,0.009605169296264648,240,1.7889775e-05,4.9571972e-05,5.2701276195184313e-05,-1.7584403e-05,1.9385054e-05,2.6172342424014412e-05,4.117301940917969,104.02565002441406
1779198866.7434454,11.625613451004028,guard-only,18500,28.22919050888838,0.0,0.0,0.0,0.012039049,0.00061173504,0.037602052,-0.004898850806057453,-0.002554182196035981,0.6083195805549622,0.7936729788780212,0.005188465118408203,241,2.0325184e-05,2.7524307e-05,3.421550302910616e-05,-3.977417e-06,-6.1856736e-05,6.19844782715855e-05,4.117301940917969,104.01737976074219
1779198866.8453808,11.727548837661743,guard-only,17250,26.321812771801326,0.0,0.0,0.0,0.012054804,0.0006087809,0.037599966,-0.005079797934740782,-0.001692596822977066,0.6083744168281555,0.7936320900917053,0.01666402816772461,242,3.6080368e-05,2.4570152e-05,4.365186508137044e-05,4.9466136e-05,-5.3096843e-05,7.256840411109554e-05,4.11202335357666,103.9762954711914
1779198866.9266477,11.808815717697144,guard-only,16500,25.177386129549095,0.0,0.0,0.0,0.012044057,0.00060324604,0.037602365,-0.0048601278103888035,-0.0021036097314208746,0.6082636117935181,0.7937174439430237,0.006501436233520508,243,2.5333837e-05,1.9035302e-05,3.168826263115775e-05,-6.3541665e-07,-5.5328837e-05,5.533248609474078e-05,4.11202335357666,103.96202850341797
1779198867.0289836,11.911151647567749,guard-only,16000,24.414435034714273,0.0,0.0,0.0,0.012040291,0.0006036614,0.037598446,-0.004976724274456501,-0.0019432640401646495,0.6082742810249329,0.7937089204788208,0.015092849731445312,244,2.1567568e-05,1.9450672e-05,2.9042875413599955e-05,-1.2497557e-05,-3.740092e-05,3.9433715171534e-05,4.117301940917969,103.97406768798828
1779198867.1113214,11.993489503860474,guard-only,15000,22.888532845044633,0.0,0.0,0.0,0.0120727755,0.00062097143,0.037590545,-0.004687842912971973,-0.0036044949665665627,0.6083900928497314,0.7936161160469055,0.002718687057495117,245,5.40521e-05,3.67607e-05,6.536802288231333e-05,9.414636e-05,2.8648807e-05,9.840879382806165e-05,4.117301940917969,103.97406768798828
1779198867.1929176,12.075085639953613,guard-only,14250,21.744106202792402,0.0,0.0,0.0,0.012011421,0.0006166729,0.0376036,-0.005028765648603439,-0.002204373013228178,0.6083231568336487,0.7936704754829407,0.013077735900878906,246,-7.3025003e-06,3.246218e-05,3.3273405404047834e-05,-0.00019247955,1.951852e-06,0.00019248944209984076,4.117301940917969,103.98540496826172
1779198867.2802224,12.16239047050476,guard-only,13750,20.98115510795758,0.0,0.0,0.0,0.01202068,0.00063529285,0.03762982,-0.005109740421175957,-0.002004374051466584,0.6083310842514038,0.7936643958091736,0.018112659454345703,247,1.9567087e-06,5.1082112e-05,5.1119575320415016e-05,-0.000100971665,6.926451e-05,0.00012244529238998998,4.11202335357666,103.99640655517578
1779198867.363148,12.24531602859497,guard-only,13000,19.83672846570535,0.0,0.0,0.0,0.012030483,0.0006128894,0.037621353,-0.005135296378284693,-0.0014942921698093414,0.6082813739776611,0.7937034368515015,0.019233226776123047,248,1.175981e-05,2.8678682e-05,3.0996127436646176e-05,-3.4729663e-05,-3.3673994e-05,4.8374448163235914e-05,4.11202335357666,103.9634017944336
1779198867.4251099,12.307277917861938,guard-only,12750,19.455252918287936,0.0,0.0,0.0,0.012056741,0.0006250115,0.037590656,-0.0051583959721028805,-0.0021247195545583963,0.6082976460456848,0.793689489364624,0.01855325698852539,249,3.801752e-05,4.0800776e-05,5.576768883794206e-05,0.00010144082,3.448249e-05,0.00010714140901322655,4.117301940917969,103.9519271850586
1779198867.509042,12.391210079193115,guard-only,12000,18.310826276035705,0.0,0.0,0.0,0.012062718,0.00060881255,0.03758841,-0.00508998753502965,-0.0018802019767463207,0.6082810759544373,0.7937031388282776,0.016988754272460938,250,4.3994747e-05,2.4601817e-05,5.040622120572417e-05,9.1982125e-05,-3.2702927e-05,9.762270553029347e-05,4.117301940917969,103.9519271850586
1779198867.5908308,12.472998857498169,guard-only,11000,16.784924086366065,0.0,0.0,0.0,0.012047135,0.0006306879,0.03760435,-0.0050428323447704315,-0.0025025042705237865,0.6083734035491943,0.7936309576034546,0.017098665237426758,251,2.8411858e-05,4.6477187e-05,5.447350344779558e-05,7.1527684e-06,5.7454454e-05,5.789798387122917e-05,4.11202335357666,103.98958587646484
1779198867.671992,12.554160118103027,guard-only,10250,15.640497444113832,0.0,0.0,0.0,0.012055628,0.0006105439,0.037578568,-0.0051041594706475735,-0.002302008680999279,0.6083027124404907,0.7936853170394897,0.015614986419677734,252,3.690459e-05,2.6333146e-05,4.533633418104024e-05,3.5835437e-05,-3.2904485e-05,4.865062772482953e-05,4.117301940917969,103.98226928710938
1779198867.7538438,12.636011838912964,guard-only,9500,14.4960708018616,0.0,0.0,0.0,0.012039003,0.0006118282,0.03760692,-0.0050260527059435844,-0.0020364888478070498,0.6082453727722168,0.7937305569648743,0.004155397415161133,253,2.0279549e-05,2.761744e-05,3.426343726086715e-05,-2.8365437e-05,-1.8904077e-05,3.408756491901332e-05,4.117301940917969,103.99282836914062
1779198867.8578496,12.740017652511597,guard-only,8750,13.35164415960937,0.0,0.0,0.0,0.012070368,0.00064348103,0.037570756,-0.004427689593285322,-0.004720799624919891,0.6083176136016846,0.7936673164367676,0.0043048858642578125,254,5.164463e-05,5.92703e-05,7.861384358135473e-05,7.074556e-05,7.819978e-05,0.00010545207614876446,4.11202335357666,103.98373413085938
1779198867.9460547,12.828222751617432,guard-only,8500,12.970168612191959,0.0,0.0,0.0,0.0120437965,0.00060783,0.03760977,-0.004985790699720383,-0.0021629463881254196,0.6083245277404785,0.7936698198318481,0.009475469589233398,255,2.5073066e-05,2.3619272e-05,3.444602521493073e-05,-4.647999e-05,-7.4065734e-05,8.744211139939055e-05,4.117301940917969,103.99193572998047
1779198868.048095,12.930263042449951,guard-only,7250,11.062790875104906,0.0,0.0,0.0,0.012069257,0.00065453677,0.037560105,-0.004513231106102467,-0.004550781100988388,0.6083880662918091,0.7936139106750488,0.01963520050048828,256,5.0533563e-05,7.032603e-05,8.659902615016446e-05,5.0595303e-05,0.00010065663,0.00011265718975589137,4.11202335357666,103.95568084716797
1779198868.1306477,13.012815713882446,guard-only,6750,10.299839780270085,0.0,0.0,0.0,0.012043869,0.0006292211,0.037601914,-0.005012382287532091,-0.0023415989708155394,0.6083317995071411,0.7936635613441467,0.004418373107910156,257,2.514571e-05,4.5010354e-05,5.1558110324550456e-05,-4.2484433e-05,-7.2200346e-06,4.3093570778432645e-05,4.117301940917969,103.99240112304688
1779198868.1924138,13.074581861495972,guard-only,6000,9.155413138017853,0.0,0.0,0.0,0.012033921,0.0006232448,0.037600495,-0.005150525365024805,-0.0015512892277911305,0.6082722544670105,0.7937101721763611,0.00032901763916015625,258,1.5197322e-05,3.9034057e-05,4.1888139491835105e-05,-7.505827e-05,-3.2278615e-05,8.170466889560991e-05,4.117301940917969,103.99240112304688
1779198868.2949278,13.177095890045166,guard-only,5250,8.010986495765621,0.0,0.0,0.0,0.012043815,0.0006157425,0.037590496,-0.004931003786623478,-0.0022121735382825136,0.6082643866539001,0.7937160730361938,0.01574563980102539,259,2.5091693e-05,3.153179e-05,4.029698157123955e-05,-1.8460421e-05,-4.843599e-05,5.183466537210149e-05,4.11202335357666,103.99057006835938
1779198868.3779168,13.260084867477417,guard-only,4750,7.2480354009308,0.0,0.0,0.0,0.012033567,0.00062548136,0.03760501,-0.005111743696033955,-0.00197969120927155,0.6083271503448486,0.7936674952507019,0.009470701217651367,260,1.4843419e-05,4.127063e-05,4.385877280990406e-05,-4.7364905e-05,-1.1746997e-06,4.737947165616994e-05,4.11202335357666,103.9743423461914
1779198868.4593487,13.341516733169556,guard-only,4000,6.103608758678568,0.0,0.0,0.0,0.0120215975,0.0006141602,0.03760562,-0.0049826884642243385,-0.0018505025655031204,0.6082541346549988,0.793724536895752,0.017787933349609375,261,2.8740615e-06,2.9949471e-05,3.0087057961527395e-05,-8.2267456e-05,-4.727465e-05,9.488322785611177e-05,4.11202335357666,103.96200561523438
1779198868.541029,13.423197031021118,guard-only,3500,5.340657663843747,0.0,0.0,0.0,0.012067736,0.0006494927,0.037576348,-0.004315998405218124,-0.004797869361937046,0.6083516478538513,0.7936414480209351,0.015872478485107422,262,4.9012713e-05,6.528199e-05,8.16332260000425e-05,0.00010799053,9.370551e-05,0.00014297788949559062,4.11202335357666,103.98690032958984
1779198868.6238053,13.50597333908081,guard-only,2500,3.8147554741741057,0.0,0.0,0.0,0.012048772,0.0006067874,0.03759965,-0.004927121102809906,-0.0015258152270689607,0.6083774566650391,0.7936310768127441,0.0064449310302734375,263,3.0048192e-05,2.2576656e-05,3.7584559978328476e-05,1.3889257e-05,-7.335477e-05,7.465811301475073e-05,4.11202335357666,103.99050903320312
1779198868.6857321,13.56790018081665,guard-only,2000,3.051804379339284,0.0,0.0,0.0,0.012021808,0.00062146736,0.037613813,-0.005094453226774931,-0.00212110741995275,0.6082408428192139,0.7937333583831787,0.004464149475097656,264,3.0845404e-06,3.725663e-05,3.738409723149717e-05,-0.00011685233,1.75635e-05,0.00011816490041530964,4.11202335357666,103.99050903320312
1779198868.7874064,13.669574499130249,guard-only,1250,1.9073777370870528,0.0,0.0,0.0,0.012020304,0.00062999595,0.037606765,-0.005006115417927504,-0.002420783508569002,0.6083349585533142,0.7936609387397766,0.016722679138183594,265,1.5804544e-06,4.5785215e-05,4.5812482920754195e-05,-8.684301e-05,4.0908813e-05,9.599603299188873e-05,4.11202335357666,103.95030975341797
1779198868.8706272,13.752795219421387,guard-only,750,1.1444266422522316,0.0,0.0,0.0,0.01205125,0.0006361613,0.03759853,-0.00511444266885519,-0.0019781743176281452,0.6083381175994873,0.7936590313911438,0.0072176456451416016,266,3.252644e-05,5.195057e-05,6.129299544403345e-05,3.9330906e-05,4.8583235e-05,6.250800722480816e-05,4.11202335357666,103.95149993896484
1779198868.9580817,13.84024977684021,guard-only,0,0.0,0.0,0.0,0.0,0.0120514985,0.00063227303,0.03758619,-0.004966646898537874,-0.0026803885120898485,0.6083128452301025,0.7936773300170898,0.0038979053497314453,267,3.2775104e-05,4.80623e-05,5.8173806955275184e-05,2.8353441e-05,2.1157912e-05,3.5377603702958626e-05,4.11202335357666,103.9310302734375
1779198869.0647595,13.946927547454834,guard-only,0,0.0,0.0,0.0,0.0,0.012068938,0.00064369245,0.037559368,-0.004610219970345497,-0.00431395135819912,0.6083439588546753,0.7936484217643738,0.012765169143676758,268,5.021505e-05,5.948171e-05,7.784359476555746e-05,7.333844e-05,4.983565e-05,8.86685855739894e-05,4.11202335357666,103.97602081298828
1779198869.1721861,14.054354190826416,guard-only,0,0.0,0.0,0.0,0.0,0.01205377,0.0006222599,0.037583116,-0.0051437560468912125,-0.0019407023210078478,0.608267605304718,0.7937129735946655,0.014335393905639648,269,3.50466e-05,3.8049184e-05,5.173011240156519e-05,8.349096e-06,-2.5855417e-05,2.7170020116557148e-05,4.11202335357666,104.02957153320312
1779198869.2394295,14.121597528457642,guard-only,0,0.0,0.0,0.0,0.0,0.012046631,0.00061345473,0.037582684,-0.0052232565358281136,-0.0012264824472367764,0.6082838773727417,0.7937014102935791,0.006854057312011719,270,2.7908012e-05,2.9243995e-05,4.0423612358598544e-05,-2.2815195e-05,-5.3449323e-05,5.8115086491670686e-05,4.117301940917969,104.03494262695312
1779198869.3412628,14.223430871963501,guard-only,0,0.0,0.0,0.0,0.0,0.012063587,0.0006245682,0.03759085,-0.005113417748361826,-0.0019048475660383701,0.6083763241767883,0.7936299443244934,0.006217241287231445,271,4.486367e-05,4.0357467e-05,6.034462886837935e-05,3.3670134e-05,-4.877813e-06,3.40216255920956e-05,4.11202335357666,103.95140075683594
