wall_time_s,elapsed_s,mode,thrust_raw,thrust_percent,roll_cmd_deg,pitch_cmd_deg,yawrate_cmd_deg_s,mocap_x,mocap_y,mocap_z,mocap_qx,mocap_qy,mocap_qz,mocap_qw,yaw_deg,mocap_age_s,mocap_frame_count,drift_x_m,drift_y_m,horizontal_drift_m,velocity_x_m_s,velocity_y_m_s,horizontal_speed_m_s,body_error_x_m,body_error_y_m,body_velocity_x_m_s,body_velocity_y_m_s,battery_v,estimate_z
1779205775.0203083,0.0006577968597412109,hold-xy,0,0.0,0.0,-0.0,0.0,0.0043478915,0.0012360215,0.037762314,0.0043799695558846,0.003278133925050497,-0.638249933719635,-0.7698097825050354,79.32414141004166,0.0334017276763916,55,0.0,0.0,0.0,0.0,0.0,0.0,0.0,0.0,0.0,0.0,4.11202335357666,106.15411376953125
1779205775.0845127,0.06486225128173828,hold-xy,0,0.0,-7.047989e-05,0.0001349256,0.0,0.0043439916,0.0012488882,0.03773007,0.004732014611363411,0.0026682515162974596,-0.637965202331543,-0.7700459957122803,79.281322816361,0.0027031898498535156,56,-3.8999133e-06,1.2866687e-05,1.3444737325598624e-05,-1.2328105e-05,4.0673178e-05,4.250046543706515e-05,-1.1916859e-05,-6.2249037e-06,3.7670656e-05,1.9677685e-05,4.11202335357666,106.11273193359375
1779205775.187029,0.16737842559814453,hold-xy,0,0.0,0.00032055826,6.212207e-05,0.0,0.004375574,0.0012384783,0.03772678,0.004627549089491367,0.002652594121173024,-0.6381046175956726,-0.7699311971664429,79.30206335799646,0.012946844100952148,57,2.7682632e-05,2.456829e-06,2.7791439637189926e-05,9.405273e-05,-5.3737112e-06,9.420611687401924e-05,-7.5528887e-06,2.6745429e-05,1.2178811e-05,-9.341557e-05,4.106744766235352,106.16026306152344
1779205775.2714548,0.2518043518066406,hold-xy,0,0.0,0.00018040085,-1.6899707e-05,0.0,0.0043670908,0.0012336285,0.037722893,0.004358213394880295,0.0034707505255937576,-0.6380915641784668,-0.7699403166770935,79.30072234396329,0.0023076534271240234,58,1.9199215e-05,-2.3930334e-06,1.9347777094059057e-05,3.906552e-05,-1.9066461e-05,4.3470043282320486e-05,-1.2129844e-06,1.9309717e-05,-1.1482314e-05,-4.1926138e-05,4.106744766235352,106.20311737060547
1779205775.3574886,0.33783817291259766,hold-xy,0,0.0,-0.00015044572,-0.00022194732,0.0,0.0043388903,0.0012210598,0.03773517,0.00477052666246891,0.00278845033608377,-0.6379709243774414,-0.7700405716896057,79.28225326737109,0.0032219886779785156,59,-9.001233e-06,-1.4961697e-05,1.746065777781669e-05,-7.204541e-05,-5.7644243e-05,9.22680863729857e-05,1.6374663e-05,-6.061767e-06,-7.003701e-05,6.0068443e-05,4.11202335357666,106.21131896972656
1779205775.461647,0.44199657440185547,hold-xy,0,0.0,0.00017915179,-0.0005373808,0.0,0.004359715,0.0011830884,0.03767215,0.0045030503533780575,0.004571226425468922,-0.6383453011512756,-0.7697234153747559,79.33951421679164,0.0018453598022460938,60,1.1823606e-05,-5.2933116e-05,5.423755552387356e-05,8.76611e-06,-0.00014829074,0.00014854961540408627,4.9832284e-05,2.1411575e-05,-0.0001441097,-3.6046957e-05,4.106744766235352,106.1401138305664
1779205775.548566,0.5289156436920166,hold-xy,0,0.0,-0.00010238192,-0.0004154194,0.0,0.004339277,0.001189901,0.037730485,0.0049127573147416115,0.002279221545904875,-0.6384658813476562,-0.7696311473846436,79.35560360627153,0.005087852478027344,61,-8.614734e-06,-4.612049e-05,4.6918155908159294e-05,-6.713993e-05,-7.9378675e-05,0.00010396511011853705,4.6918125e-05,5.255515e-08,-9.041438e-05,5.132235e-05,4.11202335357666,106.13147735595703
1779205775.629618,0.6099674701690674,hold-xy,0,0.0,-0.00024088708,0.00010395151,0.0,0.004332766,0.0012294534,0.037746184,0.004776208661496639,0.0020501436665654182,-0.6383079886436462,-0.7697635293006897,79.33197512693911,0.004509449005126953,62,-1.512561e-05,-6.5681525e-06,1.6490139628741484e-05,-7.092614e-05,8.979409e-05,0.00011442681532382598,9.254656e-06,-1.3648299e-05,7.5112395e-05,8.632279e-05,4.11202335357666,106.1700439453125
1779205775.711633,0.6919825077056885,hold-xy,0,0.0,5.008468e-05,-0.0002865343,0.0,0.004345606,0.0012006601,0.037686024,0.004936015233397484,0.0026130806654691696,-0.6383302211761475,-0.7697423696517944,79.33560938607577,0.014468908309936523,63,-2.2854656e-06,-3.5361387e-05,3.543516653832042e-05,3.811041e-06,-5.702341e-05,5.7150619557530374e-05,3.5173565e-05,4.2978418e-06,-5.533325e-05,-1.4297735e-05,4.11202335357666,106.1700439453125
1779205775.7725897,0.7529392242431641,hold-xy,0,0.0,4.350847e-05,-0.00063882675,0.0,0.0043403227,0.0011717586,0.037719756,0.004386316519230604,0.003854097332805395,-0.6383525133132935,-0.769722044467926,79.33989185517832,0.0015411376953125,64,-7.5688586e-06,-6.426289e-05,6.47070807348728e-05,-1.878492e-05,-0.00015726782,0.0001583857314028812,6.455393e-05,4.4492713e-06,-0.00015802855,-1.0631056e-05,4.106744766235352,106.1524887084961
1779205775.8565328,0.8368823528289795,hold-xy,0,0.0,-6.026755e-05,-0.00021371513,0.0,0.004337527,0.0011994485,0.03771788,0.004880444146692753,0.002299163257703185,-0.6384102702140808,-0.7696773409843445,79.34733568027238,0.004102945327758789,65,-1.0364689e-05,-3.6573038e-05,3.8013336808323456e-05,-2.3455852e-05,-8.012998e-06,2.4786793940789105e-05,3.7858696e-05,-3.4253626e-06,-1.2210827e-05,2.157037e-05,4.106744766235352,106.17964172363281
1779205775.9384701,0.9188196659088135,hold-xy,0,0.0,0.00023045363,-0.00034558686,0.0,0.0043575466,0.0011842158,0.037709545,0.00503880437463522,0.0022029445972293615,-0.6384202241897583,-0.769668459892273,79.34875783637094,0.004422187805175781,66,9.655021e-06,-5.180575e-05,5.2697770639548934e-05,5.716649e-05,-6.159932e-05,8.403858596507025e-05,4.912862e-05,1.9063944e-05,-4.9971888e-05,-6.756696e-05,4.106744766235352,106.16454315185547
1779205776.0414035,1.0217530727386475,hold-xy,0,0.0,0.00016720264,0.000510008,0.0,0.004368906,0.0012550391,0.0377303,0.00461902329698205,0.003212581854313612,-0.6380148530006409,-0.7700034976005554,79.28910045466394,0.015217304229736328,67,2.1014363e-05,1.9017607e-05,2.8342067349159392e-05,7.7002274e-05,0.00018747959,0.00020267695078068058,-2.2591865e-05,1.7113749e-05,0.00019852436,-4.081695e-05,4.106744766235352,106.18902587890625
1779205776.1243386,1.1046881675720215,hold-xy,0,0.0,-0.00013473479,-0.00066092913,0.0,0.0043308586,0.0011751135,0.037697874,0.004828413017094135,0.002746814861893654,-0.6383603811264038,-0.7697176337242126,79.340191427573,0.015830039978027344,68,-1.7032959e-05,-6.090803e-05,6.324483960579451e-05,-8.475086e-05,-0.00016003016,0.00018108661139565528,6.300764e-05,-5.472414e-06,-0.00017294547,5.3686355e-05,4.11202335357666,106.1562728881836
1779205776.2260623,1.2064118385314941,hold-xy,0,0.0,-0.00018291647,-0.00045811848,0.0,0.004325253,0.0011854973,0.037732884,0.004846616182476282,0.0026947560254484415,-0.6385180950164795,-0.7695868611335754,79.3636369087368,0.014023065567016602,69,-2.263859e-05,-5.052425e-05,5.53642973658493e-05,-7.5569e-05,-8.19321e-05,0.00011146094470708003,5.3834683e-05,-1.2924102e-05,-9.447253e-05,5.9147977e-05,4.106744766235352,106.13558197021484
1779205776.3080196,1.2883691787719727,hold-xy,0,0.0,-1.4804818e-06,-0.0004125234,0.0,0.004336803,0.0011824057,0.037691228,0.004398040007799864,0.004542597569525242,-0.6383965015411377,-0.7696818113327026,79.34710592374984,0.013009071350097656,70,-1.1088327e-05,-5.3615775e-05,5.475036427762401e-05,-1.1135933e-05,-6.853052e-05,6.94293953257895e-05,5.474149e-05,-9.858786e-07,-6.940798e-05,-1.7244556e-06,4.106744766235352,106.13558197021484
1779205776.3918533,1.3722028732299805,hold-xy,0,0.0,-0.00019190265,-0.00031783135,0.0,0.0043212436,0.0011900966,0.03769786,0.005117466207593679,0.0024295307230204344,-0.6383810043334961,-0.76969975233078,79.3430485955496,0.002100706100463867,71,-2.6647933e-05,-4.5924913e-05,5.309623107654924e-05,-5.7064528e-05,-2.3618308e-05,6.17590845445107e-05,5.0060757e-05,-1.7695496e-05,-3.3763783e-05,5.1712588e-05,4.106744766235352,106.1512451171875
1779205776.4935417,1.473891258239746,hold-xy,0,0.0,4.0386836e-05,0.00021164968,0.0,0.004346583,0.0012302808,0.037718978,0.00479569286108017,0.0032101115211844444,-0.6381651163101196,-0.7698779106140137,79.31145938138157,0.011853933334350586,72,-1.3085082e-06,-5.7406723e-06,5.887912356406086e-06,4.2741674e-05,0.000114595176,0.0001223066033606773,5.8837604e-06,-2.2108247e-07,0.00012053424,-2.0746123e-05,4.11202335357666,106.15266418457031
1779205776.5549061,1.5352556705474854,hold-xy,0,0.0,-0.0001251541,0.00045740945,0.0,0.0043403916,0.0012533562,0.03770695,0.004975791089236736,0.0026309206150472164,-0.638200044631958,-0.769849956035614,79.31624183101619,0.011841058731079102,73,-7.4999407e-06,1.7334707e-05,1.888759360380118e-05,-3.4332152e-07,0.0001930045,0.0001930048006367367,-1.5643816e-05,-1.058358e-05,0.00018959519,3.61181e-05,4.11202335357666,106.16655731201172
1779205776.6379745,1.6183240413665771,hold-xy,0,0.0,-0.00020234383,-0.00057364727,0.0,0.0043168813,0.0011755875,0.03769386,0.005325973499566317,0.0023602922447025776,-0.638351559638977,-0.7697228789329529,79.33861318208254,0.0005197525024414062,74,-3.1010248e-05,-6.0433988e-05,6.792571051693794e-05,-7.496346e-05,-0.00011207016,0.0001348304165368211,6.5127795e-05,-1.9294388e-05,-0.00012400415,5.2935942e-05,4.106744766235352,106.18894958496094
1779205776.7230866,1.7034361362457275,hold-xy,0,0.0,2.668485e-05,-6.652989e-05,0.0,0.004337252,0.0012044958,0.03771177,0.004958366509526968,0.0028889975510537624,-0.6385080814361572,-0.7695937752723694,79.36227600272969,0.014608383178710938,75,-1.0639429e-05,-3.1525735e-05,3.327265297693751e-05,3.3571036e-05,4.365809e-05,5.507307100543075e-05,3.2947955e-05,-4.636977e-06,4.9104943e-05,-2.4934867e-05,4.106744766235352,106.18894958496094
1779205776.8075602,1.787909746170044,hold-xy,0,0.0,-5.9065074e-05,-0.00020857944,0.0,0.004329903,0.0011965623,0.037686516,0.005258494988083839,0.002182635013014078,-0.6384568214416504,-0.7696366310119629,79.35418463382142,0.016874313354492188,76,-1.7988496e-05,-3.9459206e-05,4.336605812225657e-05,-3.3191827e-06,1.6090926e-06,3.6886518760763637e-06,4.2103176e-05,-1.038929e-05,9.682201e-07,3.5593123e-06,4.106744766235352,106.15192413330078
1779205776.8720732,1.8524227142333984,hold-xy,0,0.0,-8.1960185e-05,0.0006714136,0.0,0.004340767,0.0012647463,0.03771961,0.004653402138501406,0.003402672242373228,-0.6381404995918274,-0.7698983550071716,79.30794876659779,0.0040645599365234375,77,-7.1246177e-06,2.8724782e-05,2.959515606998369e-05,3.982671e-05,0.00026566954,0.0002686381802898475,-2.6904245e-05,-1.2330242e-05,0.0002684462,1.01544865e-05,4.11202335357666,106.12422180175781
1779205776.9553757,1.935725212097168,hold-xy,0,0.0,0.00048095066,-0.00011203725,0.0,0.004375906,0.0012066029,0.037658565,0.0046372185461223125,0.005179762840270996,-0.638425350189209,-0.7696524262428284,79.3521103126864,0.005053520202636719,78,2.8014649e-05,-2.9418617e-05,4.0623584071989775e-05,0.00015594732,-2.5940826e-05,0.00015809013768035087,2.373572e-05,3.2968033e-05,3.3206725e-06,-0.00015805525,4.106744766235352,106.0502700805664
1779205777.0567596,2.037109136581421,hold-xy,0,0.0,-0.00046929574,-0.00023753592,0.0,0.0043011205,0.0012097936,0.037729286,0.004298603627830744,0.004364396911114454,-0.6383050680160522,-0.7697591185569763,79.33330979544725,0.014792919158935547,79,-4.677102e-05,-2.6227906e-05,5.3623049600906984e-05,-0.00013564914,-7.713728e-06,0.0001358682811446889,3.44318e-05,-4.110818e-05,-3.2688462e-05,0.00013187743,4.11202335357666,106.06205749511719
1779205777.1391082,2.119457721710205,hold-xy,0,0.0,-3.0730145e-05,-0.00020429675,0.0,0.00433187,0.0012051985,0.03768908,0.005398144945502281,0.0014631785452365875,-0.6385453343391418,-0.7695638537406921,79.36700142868847,0.0058596134185791016,80,-1.6021542e-05,-3.0823052e-05,3.4738311059666765e-05,6.1044557e-06,-2.050166e-05,2.1391177431672577e-05,3.325005e-05,-1.005905e-05,-1.9023253e-05,-9.7825505e-06,4.106744766235352,106.14087677001953
1779205777.2419422,2.2222917079925537,hold-xy,0,0.0,-4.200374e-05,-0.0003360543,0.0,0.004329119,0.001193055,0.03769614,0.005113368388265371,0.0027569634839892387,-0.6386250853538513,-0.7694962024688721,79.37960301808747,0.016489028930664062,81,-1.877267e-05,-4.2966567e-05,4.6888582069928385e-05,-4.6780433e-06,-5.3861724e-05,5.406449317305158e-05,4.569037e-05,-1.0532298e-05,-5.3801232e-05,-5.328876e-06,4.106744766235352,106.15960693359375
1779205777.3268793,2.3072288036346436,hold-xy,0,0.0,-8.760126e-05,0.00025827702,0.0,0.0043342207,0.0012390297,0.037705332,0.005211987067013979,0.0013647322775796056,-0.6382589340209961,-0.7698029279708862,79.32433519428147,0.01793694496154785,82,-1.3670884e-05,3.008172e-06,1.3997934321565345e-05,1.5057512e-05,0.00012749693,0.00012838300185093808,-4.235842e-07,-1.3991525e-05,0.00012807955,8.821819e-06,4.106744766235352,106.15960693359375
1779205777.4309862,2.4113357067108154,hold-xy,0,0.0,-0.000114050345,-0.0004761942,0.0,0.0043200916,0.0011796365,0.037713174,0.005049533676356077,0.002346041612327099,-0.6387856602668762,-0.7693645358085632,79.40325505553604,0.01835155487060547,83,-2.7799979e-05,-5.6385063e-05,6.286584280404863e-05,-3.0337695e-05,-8.258722e-05,8.798309331984404e-05,6.0535753e-05,-1.6956912e-05,-8.6757726e-05,1.4632891e-05,4.106744766235352,106.16266632080078
1779205777.5118322,2.4921817779541016,hold-xy,0,0.0,0.00011047626,-0.0001806147,0.0,0.0043410966,0.0011959723,0.037671175,0.004383820109069347,0.005809591617435217,-0.6384759545326233,-0.769607424736023,79.36041383885835,0.016106605529785156,84,-6.7949295e-06,-4.00492e-05,4.062153840596433e-05,5.4602315e-05,1.1695593e-06,5.461483742596486e-05,4.061522e-05,7.161898e-07,1.1230701e-05,-5.3447657e-05,4.106744766235352,106.16266632080078
1779205777.6801064,2.6604559421539307,hold-xy,0,0.0,-0.00030815255,-0.00041559286,0.0,0.004291705,0.0011780942,0.037685018,0.005272104404866695,0.002237992361187935,-0.6383650302886963,-0.7697124481201172,79.34054889801203,0.015247821807861328,85,-5.618669e-05,-5.7927333e-05,8.070018773718253e-05,-4.9387145e-05,-3.0892697e-05,5.825331435381461e-05,6.732065e-05,-4.4502245e-05,-3.9494807e-05,4.2820662e-05,4.106744766235352,106.15259552001953
1779205777.7003918,2.680741310119629,hold-xy,0,0.0,0.0007146143,-0.00030833372,0.0,0.00432052,0.0011751512,0.03768315,0.005414413753896952,0.0012869549682363868,-0.63873291015625,-0.7694084048271179,79.39486347273005,0.01523280143737793,86,-2.737157e-05,-6.0870312e-05,6.674127463234866e-05,0.00039126008,-6.5116365e-05,0.0003966416423733735,6.486803e-05,-1.5701491e-05,8.003197e-06,-0.00039656088,4.106744766235352,106.15259552001953
1779205777.8019693,2.7823188304901123,hold-xy,0,0.0,0.00052747654,-0.0002408585,0.0,0.004326311,0.0011807936,0.037679266,0.0052162054926157,0.0026426527183502913,-0.6385140419006348,-0.7695879340171814,79.36298648824167,0.014893531799316406,87,-2.1580607e-05,-5.5227894e-05,5.9294544016360346e-05,0.0002909282,-2.8972558e-05,0.0002923672776954115,5.826236e-05,-1.1015461e-05,2.5226658e-05,-0.00029127693,4.106744766235352,106.1826400756836
1779205777.986229,2.966578483581543,hold-xy,0,0.0,4.4264598e-05,-0.00018105804,0.0,0.004291187,0.0011966489,0.037712492,0.005023072008043528,0.002716884482651949,-0.6385771036148071,-0.7695366144180298,79.37243187857763,0.013742685317993164,88,-5.6704506e-05,-3.9372593e-05,6.903334075022891e-05,0.00014681817,5.3735876e-06,0.000146916472129789,4.915491e-05,-4.8470578e-05,3.2358246e-05,-0.00014330875,4.106744766235352,106.2242660522461
1779205778.0270798,3.007429361343384,hold-xy,0,0.0,0.00062282046,0.0005898571,0.0,0.0043389006,0.001235635,0.037692472,0.005076253321021795,0.0030272584408521652,-0.6380698084831238,-0.7699558138847351,79.29713079553713,0.0035576820373535156,89,-8.990988e-06,-3.8649887e-07,8.999291343672677e-06,0.00038324317,0.00023293027,0.00044847723003627705,2.0495438e-06,-8.762797e-06,0.0003000524,-0.00033331724,4.106744766235352,106.24871063232422
1779205778.1287687,3.1091182231903076,hold-xy,0,0.0,0.00031441433,-0.00024298191,0.0,0.004319221,0.0011818781,0.03769382,0.005203802604228258,0.00212848954834044,-0.6386685371398926,-0.769461452960968,79.38568183544012,0.013647794723510742,90,-2.8670765e-05,-5.414337e-05,6.126595345482834e-05,0.0002038159,-1.3010838e-05,0.0002042307642535819,5.8498008e-05,-1.8207145e-05,2.4754057e-05,-0.00020272503,4.106744766235352,106.24388885498047
1779205778.1911733,3.171522855758667,hold-xy,0,0.0,0.00056086446,-6.425148e-05,0.0,0.0043488154,0.001190993,0.03763632,0.004816283471882343,0.004557810258120298,-0.6386069655418396,-0.7695046067237854,79.37846482035071,0.004868745803833008,91,9.23872e-07,-4.5028515e-05,4.503799245845802e-05,0.00026739622,2.9306502e-05,0.0002689974061779175,4.4086715e-05,9.2077335e-06,7.809105e-05,-0.0002574129,4.106744766235352,106.24388885498047
1779205778.2731848,3.2535343170166016,hold-xy,0,0.0,6.900443e-05,-0.0002730327,0.0,0.004319636,0.0011831657,0.03769806,0.0052677360363304615,0.0027069339994341135,-0.6386561989784241,-0.7694694399833679,79.38419628647631,0.005658626556396484,92,-2.8255396e-05,-5.2855816e-05,5.993416900031906e-05,7.940081e-05,-8.396364e-06,7.984351698662559e-05,5.7156445e-05,-1.8034565e-05,6.3747557e-06,-7.958863e-05,4.106744766235352,106.1966781616211
1779205778.380069,3.3604185581207275,hold-xy,0,0.0,-0.00013541551,-0.00036433522,0.0,0.004303594,0.0011777994,0.03768685,0.005328689701855183,0.0021666772663593292,-0.638389527797699,-0.7696919441223145,79.34415266996342,0.005742311477661133,93,-4.4297427e-05,-5.8222096e-05,7.3157872708759e-05,1.051891e-05,-2.09512e-05,2.344355464079704e-05,6.54091e-05,-3.2767737e-05,-1.8644863e-05,-1.42115905e-05,4.106744766235352,106.2457275390625
1779205778.4646306,3.4449801445007324,hold-xy,0,0.0,0.00013641235,0.00043569898,0.0,0.0043382654,0.0012373058,0.037725013,0.004717562813311815,0.0028312772046774626,-0.6383105516433716,-0.7697592973709106,79.33283314780671,0.0064585208892822266,94,-9.62615e-06,1.2842938e-06,9.71144562484508e-06,0.00013141759,0.00019824892,0.00023785125020055463,5.1973416e-07,-9.697528e-06,0.00021914883,-9.244999e-05,4.106744766235352,106.26477813720703
1779205778.5669284,3.5472779273986816,hold-xy,0,0.0,6.345206e-05,-0.00019396974,0.0,0.0043288115,0.0011952505,0.03768542,0.005354444961994886,0.002545897150412202,-0.6384630799293518,-0.7696295976638794,79.35533060573881,0.017347097396850586,95,-1.9080006e-05,-4.0770974e-05,4.50146519530908e-05,6.0965274e-05,7.511553e-07,6.09699015019077e-05,4.3593784e-05,-1.1220553e-05,1.199959e-05,-5.9777412e-05,4.106744766235352,106.18110656738281
1779205778.6481934,3.628542900085449,hold-xy,0,0.0,-0.00011997503,0.00054322154,0.0,0.0043281754,0.0012609903,0.037713036,0.004800285212695599,0.003318880219012499,-0.6383369565010071,-0.7697349190711975,79.33712260822315,0.006913185119628906,96,-1.9716099e-05,2.4968758e-05,3.181451656325394e-05,4.0594663e-05,0.00021559843,0.0002193868930264474,-2.088955e-05,-2.3995626e-05,0.0002193869,-1.549779e-09,4.106744766235352,106.1627197265625
1779205778.7519279,3.7322773933410645,hold-xy,0,0.0,-2.4204703e-05,-0.00022468694,0.0,0.0043261396,0.0012052329,0.03769659,0.005149536766111851,0.002451926004141569,-0.6385774612426758,-0.7695363759994507,79.37231010107024,0.01880645751953125,97,-2.175197e-05,-3.0788593e-05,3.7697290268198395e-05,2.1766074e-05,-3.1212898e-05,3.805268778417276e-05,3.4272092e-05,-1.5700616e-05,-2.6663243e-05,-2.7149188e-05,4.106744766235352,106.19866943359375
1779205778.8334613,3.8138108253479004,hold-xy,0,0.0,0.0002481678,0.00019937343,0.0,0.0043574246,0.0012355126,0.037728153,0.005104763898998499,0.0021758186630904675,-0.6382229924201965,-0.7698315382003784,79.31937728574735,0.0077266693115234375,98,9.533018e-06,-5.089678e-07,9.546595178785952e-06,0.00011657704,7.623511e-05,0.00013929105581569364,-1.2666449e-06,9.462193e-06,9.65201e-05,-0.00010042843,4.106744766235352,106.17886352539062
1779205778.93607,3.916419506072998,hold-xy,0,0.0,-0.00011722736,0.00020222572,0.0,0.0043323925,0.0012455974,0.03770215,0.004931076429784298,0.0027211294509470463,-0.6382165551185608,-0.7698363065719604,79.31876118397543,0.018433570861816406,99,-1.549907e-05,9.575859e-06,1.821862351800196e-05,-1.0969234e-07,8.628503e-05,8.628509894322815e-05,-6.53727e-06,-1.700536e-05,8.476969e-05,1.6100277e-05,4.106744766235352,106.21771240234375
1779205779.0184593,3.9988088607788086,hold-xy,0,0.0,-5.1738058e-05,-0.0006740354,0.0,0.0043244204,0.001178504,0.03767436,0.005160974338650703,0.002464839955791831,-0.6385127902030945,-0.7695899605751038,79.36268868097635,0.018010854721069336,100,-2.3471192e-05,-5.751755e-05,6.212218147862576e-05,-2.8957073e-05,-0.00018265712,0.0001849382005174746,6.0861712e-05,-1.2450602e-05,-0.00018486344,-5.257478e-06,4.106744766235352,106.21771240234375
1779205779.0814564,4.061805963516235,hold-xy,0,0.0,-0.00036377896,-0.0005571074,0.0,0.0043017017,0.0011832174,0.03767626,0.005240601021796465,0.002754654036834836,-0.6386945247650146,-0.7694376707077026,79.3899374627803,0.008750200271606445,101,-4.6189874e-05,-5.2804127e-05,7.015540119360521e-05,-0.00011459346,-0.00010829077,0.0001576659467779515,6.0405997e-05,-3.567766e-05,-0.00012753872,9.269533e-05,4.106744766235352,106.2054672241211
1779205779.162813,4.143162488937378,hold-xy,0,0.0,-0.00013861539,-6.9340174e-05,0.0,0.0043212716,0.0012133387,0.03767394,0.005770644173026085,0.0009233960299752653,-0.6386139988899231,-0.7695050835609436,79.37700252549627,0.008852481842041016,102,-2.6619993e-05,-2.2682827e-05,3.4973342771759454e-05,-7.961164e-06,3.5407764e-05,3.629173143541842e-05,2.7201362e-05,-2.198228e-05,3.333332e-05,1.43519965e-05,4.106744766235352,106.2352523803711
1779205779.247341,4.2276904582977295,hold-xy,1000,1.525902189669642,-1.6180024e-05,-0.00014661555,0.0,0.004329595,0.0012069894,0.0376887,0.004889434203505516,0.0033662274945527315,-0.638543426990509,-0.769562840461731,79.36789846264827,0.009696722030639648,103,-1.8296763e-05,-2.9032119e-05,3.4316693220843536e-05,2.4265351e-05,2.0236912e-06,2.4349591698679443e-05,3.190949e-05,-1.2626162e-05,6.4659553e-06,-2.3475392e-05,4.106744766235352,106.23265838623047
1779205779.3291616,4.309511184692383,hold-xy,1000,1.525902189669642,-0.00014256669,-0.00044911198,0.0,0.0043171057,0.0011864183,0.03766739,0.005468900315463543,0.0020830335561186075,-0.6384552121162415,-0.7696367502212524,79.35387893629998,0.018854141235351562,104,-3.07858e-05,-4.960317e-05,5.838013475970593e-05,-3.457688e-05,-8.35137e-05,9.038860140412296e-05,5.4436794e-05,-2.1092066e-05,-8.8463996e-05,1.8553174e-05,4.106744766235352,106.23218536376953
1779205779.412111,4.392460584640503,hold-xy,1000,1.525902189669642,-0.00014953049,0.00023663903,0.0,0.0043251486,0.0012370795,0.03770622,0.005289383698254824,0.0019790988881140947,-0.6382237672805786,-0.7698302268981934,79.31937794914828,0.020066022872924805,105,-2.2742897e-05,1.0579824e-06,2.2767491941480665e-05,5.3159292e-06,0.0001274813,0.00012759207830504606,3.1753852e-06,-2.254497e-05,0.00012625798,1.8402821e-05,4.106744766235352,106.23218536376953
1779205779.4730096,4.453359127044678,hold-xy,2000,3.051804379339284,0.00019118318,-4.1878808e-05,0.0,0.0043464713,0.001217715,0.03764469,0.0047402833588421345,0.0044716717675328255,-0.6386227011680603,-0.7694924473762512,79.38071662105312,0.009829998016357422,106,-1.4202669e-06,-1.8306542e-05,1.8361553418383124e-05,9.364634e-05,7.5697535e-06,9.395178705807756e-05,1.8254745e-05,1.9776262e-06,2.4697458e-05,-9.0647525e-05,4.106744766235352,106.2445297241211
1779205779.5557544,4.536103963851929,hold-xy,2000,3.051804379339284,-0.00016839261,0.00023326598,0.0,0.0043279,0.0012434572,0.03769834,0.0052642254158854485,0.0024703165981918573,-0.6382559537887573,-0.7698022723197937,79.3244517303889,0.019941091537475586,107,-1.999177e-05,7.4356794e-06,2.1329796257720334e-05,-1.1153665e-05,0.000111622234,0.0001121781069445699,-3.6035617e-06,-2.102319e-05,0.00010762409,3.163833e-05,4.106744766235352,106.23635864257812
1779205779.637657,4.618006467819214,hold-xy,3000,4.577706569008926,0.00037695322,0.0007030129,0.0,0.0043781484,0.0012782104,0.03777308,0.00360889988951385,0.004326625261455774,-0.6376820802688599,-0.770279049873352,79.2405491164312,0.019446372985839844,108,3.0256808e-05,4.2188913e-05,5.191703775290629e-05,0.00017514246,0.0002046686,0.00026937728197842033,-4.7095742e-05,2.1848798e-05,0.0002337671,-0.00013385461,4.106744766235352,106.27040100097656
1779205779.7199795,4.700329065322876,hold-xy,3000,4.577706569008926,0.000132801,0.00070521096,0.0,0.0043664156,0.0012930697,0.037811637,0.0033937764819711447,0.00440286286175251,-0.6379269361495972,-0.7700769305229187,79.27704860845768,0.009294509887695312,109,1.8524006e-05,5.7048164e-05,5.998026317139001e-05,8.453687e-05,0.00019147349,0.000209304992474735,-5.949859e-05,7.5861517e-06,0.00020385899,-4.7435118e-05,4.106744766235352,106.27040100097656
1779205779.8230808,4.8034303188323975,hold-xy,4000,6.103608758678568,-0.00030548207,-0.00044308178,0.0,0.00431168,0.0012069596,0.03767275,0.0051556178368628025,0.0025021012406796217,-0.6387147307395935,-0.7694222927093506,79.39278351223307,0.00948190689086914,110,-3.6211684e-05,-2.9061921e-05,4.6431468330194365e-05,-0.000100381985,-0.00011698459,0.0001541490778268432,3.5230987e-05,-3.0243327e-05,-0.00013346341,7.713272e-05,4.106744766235352,106.14149475097656
1779205779.9070833,4.887432813644409,hold-xy,5000,7.629510948348211,6.666497e-05,0.00086803606,0.0,0.004356322,0.0013004448,0.03780145,0.003897497896105051,0.003070464124903083,-0.6377925276756287,-0.7701922059059143,79.25591916028327,0.0112457275390625,111,8.430332e-06,6.442331e-05,6.49725590156687e-05,9.258307e-05,0.00025913733,0.00027517954647782503,-6.4865555e-05,-3.7274112e-06,0.00027185414,-4.2651016e-05,4.106744766235352,106.14149475097656
1779205779.9880798,4.968429327011108,hold-xy,5000,7.629510948348211,0.000117964286,-0.0006759589,0.0,0.004340724,0.0011819433,0.03767259,0.0046157618053257465,0.004458052106201649,-0.6385830640792847,-0.7695261836051941,79.37479887582737,0.0009140968322753906,112,-7.1674585e-06,-5.4078177e-05,5.455109154862276e-05,1.35716145e-05,-0.00020786446,0.00020830704559386248,5.4472534e-05,2.9265652e-06,-0.0002017981,-5.166573e-05,4.106744766235352,106.2061538696289
1779205780.090298,5.070647478103638,hold-xy,6000,9.155413138017853,-0.00031719502,-0.00032533437,0.0,0.004308124,0.0012095119,0.037714638,0.0050898646004498005,0.002186017343774438,-0.6385966539382935,-0.7695216536521912,79.37501369592998,0.0012066364288330078,113,-3.9767474e-05,-2.6509631e-05,4.779343675493612e-05,-8.645225e-05,-6.4361986e-05,0.0001077796693701948,3.338745e-05,-3.4197816e-05,-7.9198566e-05,7.310297e-05,4.106744766235352,106.21922302246094
1779205780.17161,5.151959657669067,hold-xy,6000,9.155413138017853,-2.1475193e-05,0.000881025,0.0,0.0043455837,0.0012979605,0.03774666,0.004403307102620602,0.003619028953835368,-0.637968122959137,-0.7700416445732117,79.28247475292322,0.0008816719055175781,114,-2.3078173e-06,6.1939005e-05,6.198198496749357e-05,7.71401e-05,0.00027997748,0.00029041002687214986,-6.042936e-05,-1.3786181e-05,0.00028943908,-2.3727855e-05,4.106744766235352,106.17586517333984
1779205780.2751694,5.255518913269043,hold-xy,7000,10.681315327687495,-0.0003179778,-0.00031467906,0.0,0.0043050777,0.0012153937,0.037707478,0.004775725305080414,0.0031217169016599655,-0.638424277305603,-0.7696635127067566,79.34997143016109,0.012584686279296875,115,-4.281383e-05,-2.0627864e-05,4.7524024621699435e-05,-7.829348e-05,-7.367693e-05,0.00010750887811914061,2.8184939e-05,-3.826411e-05,-8.687718e-05,6.3328625e-05,4.106744766235352,106.2125244140625
1779205780.3775995,5.3579490184783936,hold-xy,8000,12.207217517357137,5.246795e-05,0.00016008825,0.0,0.004342219,0.0012478484,0.037746433,0.004382696934044361,0.0034645639825612307,-0.6381075978279114,-0.769926905632019,79.30310333932188,0.013371944427490234,116,-5.672686e-06,1.1826865e-05,1.3116940228210575e-05,5.4817076e-05,4.421665e-05,7.042743745956091e-05,-1.0568422e-05,-7.769335e-06,5.3623073e-05,-4.565731e-05,4.101466178894043,106.24855041503906
1779205780.4393485,5.419697999954224,hold-xy,8000,12.207217517357137,-5.493318e-05,0.0008705527,0.0,0.0043464815,0.0013011405,0.037803434,0.0038309937808662653,0.0033794899936765432,-0.6379628777503967,-0.7700502276420593,79.2814993931348,0.008238554000854492,117,-1.4100224e-06,6.5119006e-05,6.513426931761511e-05,5.7492074e-05,0.00026999286,0.0002760461567944625,-6.372062e-05,-1.3496507e-05,0.00027597483,-6.2746767e-06,4.096187591552734,106.23027801513672
1779205780.5248024,5.505151987075806,hold-xy,8000,12.207217517357137,-0.00019834356,-0.0005860755,0.0,0.0043162825,0.0012015016,0.037689656,0.005145644303411245,0.002364274812862277,-0.6384100914001465,-0.7696756720542908,79.34733869198892,0.013414144515991211,118,-3.160909e-05,-3.4519937e-05,4.680556016039842e-05,-7.260933e-05,-0.00018335528,0.0001972087027104402,3.9768103e-05,-2.468316e-05,-0.00019361748,3.746388e-05,4.101466178894043,106.16827392578125
1779205780.5854535,5.565803050994873,hold-xy,8000,12.207217517357137,0.00091790163,-4.7156464e-05,0.0,0.0044033597,0.0012175532,0.037617363,0.004219313617795706,0.007045683916658163,-0.6380505561828613,-0.7699506878852844,79.29884270776951,0.001247406005859375,119,5.5468176e-05,-1.846836e-05,5.846194241311382e-05,0.00030792065,-6.221825e-05,0.0003141436551514271,7.847487e-06,5.7932855e-05,-3.9595143e-06,-0.0003141187,4.101466178894043,106.16827392578125
1779205780.6738977,5.654247283935547,hold-xy,9000,13.733119707026779,-0.00018997547,0.0003847999,0.0,0.004337867,0.0012646862,0.0376914,0.005452231038361788,0.001668831566348672,-0.6381598711013794,-0.7698827981948853,79.30970543220567,0.010508298873901367,120,-1.0024756e-05,2.8664712e-05,3.0367110544046338e-05,-3.2587035e-05,0.00013501916,0.00013889596080221206,-2.630762e-05,-1.5168078e-05,0.00012663091,5.706754e-05,4.101466178894043,106.18074798583984
1779205780.7570882,5.737437725067139,hold-xy,10000,15.259021896696423,2.9544935e-06,0.00030004932,0.0,0.0043505374,0.0012615612,0.03764807,0.004796278662979603,0.004243109375238419,-0.6381860971450806,-0.7698554992675781,79.3154863903327,0.010087251663208008,121,2.6458874e-06,2.5539659e-05,2.5676349281782855e-05,2.2651646e-05,8.330065e-05,8.632551732326552e-05,-2.5587426e-05,-2.1350636e-06,8.60561e-05,-6.8149056e-06,4.096187591552734,106.20265197753906
1779205780.8384142,5.818763732910156,hold-xy,10000,15.259021896696423,8.943369e-05,-0.0005409834,0.0,0.0043462897,0.0012025721,0.037725292,0.005011225119233131,0.0020126234740018845,-0.6384004950523376,-0.7696855068206787,79.34571796840757,0.020280122756958008,122,-1.6018748e-06,-3.344938e-05,3.348771675323758e-05,-2.0585467e-06,-0.00019047252,0.00019048365053460988,3.316889e-05,4.6099462e-06,-0.00018756949,-3.319198e-05,4.090909004211426,106.17752838134766
1779205780.9193892,5.899738788604736,hold-xy,11000,16.784924086366065,-0.00020000589,-0.00022690775,0.0,0.0043265335,0.0012240876,0.037702996,0.00478624552488327,0.0028160824440419674,-0.6384290456771851,-0.7696607112884521,79.35046228904139,0.009238958358764648,123,-2.135802e-05,-1.19339675e-05,2.446598917497774e-05,-6.585184e-05,-6.318416e-05,9.126172834521658e-05,1.5675403e-05,-1.8784738e-05,-7.4265365e-05,5.30411e-05,4.090909004211426,106.17752838134766
1779205781.01761,5.997959613800049,hold-xy,11000,16.784924086366065,0.00026644007,0.0009807302,0.0,0.0043856073,0.0013215318,0.0377469,0.0031683812849223614,0.0067244903184473515,-0.6376902461051941,-0.7702571153640747,79.24466190149857,0.005723237991333008,124,3.771577e-05,8.551031e-05,9.345851019982226e-05,0.00012810009,0.0002431141,0.00027479829264101817,-9.10465e-05,2.1095662e-05,0.0002627488,-8.048087e-05,4.085630416870117,106.16083526611328
1779205781.1619422,6.142291784286499,hold-xy,12000,18.310826276035705,0.00036805755,-0.0011436737,0.0,0.0043626567,0.0011142544,0.037691727,0.004149711225181818,0.002381478901952505,-0.6386091709136963,-0.7695163488388062,79.3770204351972,0.015378952026367188,125,1.4765188e-05,-0.00012176717,0.00012265909640784612,3.854624e-05,-0.00029154334,0.00029408049850477674,0.00011695836,3.6959373e-05,-0.00027944092,-9.163034e-05,4.0750732421875,106.14118194580078
1779205781.2023609,6.182710409164429,hold-xy,12000,18.310826276035705,0.00255995,-0.0025849345,0.0,0.0044592684,0.0010135113,0.03770604,0.0013858865713700652,0.00571746239438653,-0.6387408375740051,-0.7693994641304016,79.39952798332439,0.015258073806762695,126,0.00011137687,-0.00022251019,0.00024882844020106444,0.0007419271,-0.0009495978,0.0012050692021359447,0.00019822398,0.00015040895,-0.0007969073,-0.00090395275,4.0750732421875,106.14118194580078
1779205781.2851431,6.265492677688599,hold-xy,13000,19.83672846570535,0.0031827728,-0.00239152,0.0,0.004554036,0.0009705643,0.037793707,-0.00043528954847715795,0.005144351162016392,-0.6386433839797974,-0.7694855332374573,79.38416858796899,0.006078243255615234,127,0.00020614453,-0.0002654572,0.0003360998260960953,0.00082850136,-0.0008048208,0.0011550545293205357,0.00022293722,0.00025151955,-0.00063841685,-0.00096258754,4.0750732421875,106.06346130371094
1779205781.3873088,6.367658376693726,hold-xy,13000,19.83672846570535,0.0023414483,-0.0018057794,0.0,0.0045345845,0.0009920993,0.037764337,0.00014645194460172206,0.0050262827426195145,-0.6384581327438354,-0.7696401476860046,79.35652343320355,0.015413761138916016,128,0.00018669292,-0.00024392223,0.00030716819817717473,0.00051708904,-0.0004937798,0.0007149822188968562,0.00020524401,0.0002285327,-0.00038977969,-0.00059939246,4.069794654846191,106.00399017333984
1779205781.4688492,6.4491987228393555,hold-xy,14000,21.36263065537499,0.0021592423,-0.0020262487,0.0,0.0045424644,0.0009507453,0.03776795,0.0007441850029863417,0.004746127407997847,-0.6385820508003235,-0.7695387601852417,79.3747448182748,0.005720376968383789,129,0.00019457284,-0.0002852762,0.00034531305746306293,0.00038787353,-0.0004816284,0.0006183945328248157,0.00024450867,0.00024383728,-0.0004018526,-0.000470028,4.069794654846191,105.93486785888672
1779205781.570867,6.5512166023254395,hold-xy,14000,21.36263065537499,0.00040610533,-0.0009897783,0.0,0.004429831,0.0010419972,0.037705302,0.002769589191302657,0.004102073144167662,-0.6384531259536743,-0.7696447372436523,79.35505863579053,0.015972375869750977,130,8.193962e-05,-0.0001940243,0.00021061702485659505,-9.670784e-05,-3.8820115e-05,0.00010420848139847385,0.00017554921,0.000116370116,-5.6016142e-05,8.787263e-05,4.064516067504883,105.8946304321289
1779205781.6540375,6.634387016296387,hold-xy,15000,22.888532845044633,0.0023371773,-0.0019166812,0.0,0.0045649433,0.00093739794,0.03773791,0.0005707441596314311,0.0057865772396326065,-0.6383582353591919,-0.7697174549102783,79.34255559409556,0.01746535301208496,131,0.00021705171,-0.00029862358,0.0003691713458987903,0.00042856924,-0.00041136568,0.0005940482501043229,0.0002533316,0.00026853415,-0.00032501158,-0.00049725326,4.064516067504883,105.83917999267578
1779205781.7351859,6.715535402297974,hold-xy,15000,22.888532845044633,0.002527085,-0.0016400084,0.0,0.004607899,0.00093651307,0.03780809,-0.0012725387932732701,0.005310814827680588,-0.6383364796638489,-0.7697380781173706,79.33854379888362,0.006570577621459961,132,0.00026000757,-0.00029950845,0.00039662229481151804,0.00044000626,-0.00029084008,0.0005274404744146766,0.00024623534,0.0003109299,-0.00020441583,-0.00048621767,4.059237480163574,105.78770446777344
1779205781.8170094,6.797358989715576,hold-xy,16000,24.414435034714273,0.0022283108,-0.001608554,0.0,0.0046062088,0.0009300159,0.037817087,-0.0016221090918406844,0.00501125818118453,-0.6385482549667358,-0.7695637345314026,79.36971584452989,0.01726055145263672,133,0.00025831722,-0.0003060056,0.0004004587463315609,0.00030087546,-0.00023098919,0.000379317871460893,0.00025310193,0.0003103331,-0.00017152219,-0.0003383226,4.059237480163574,105.78770446777344
1779205781.8995461,6.8798956871032715,hold-xy,16000,24.414435034714273,0.0023046862,-0.0014089486,0.0,0.004630025,0.00093355076,0.037837394,-0.0013031718553975224,0.004692780785262585,-0.6385285258293152,-0.7695827484130859,79.36650824940435,0.01730656623840332,134,0.00028213346,-0.00030247075,0.00041362766818587514,0.00029722715,-0.00014883703,0.00033241004330375907,0.0002452157,0.00033310227,-9.1435046e-05,-0.00031958736,4.048680305480957,105.71061706542969
1779205781.9816055,6.9619550704956055,hold-xy,17000,25.940337224383917,0.0026707225,-0.0018556234,0.0,0.004669595,0.000881515,0.037819657,-0.002502524061128497,0.004831998143345118,-0.6382859349250793,-0.7697800993919373,79.33036059277329,0.006751060485839844,135,0.0003217035,-0.00035450654,0.00047871497075472973,0.00033623504,-0.00027274128,0.00043294549191684846,0.00028881538,0.000381777,-0.0002057733,-0.0003809188,4.048680305480957,105.6278076171875
1779205782.042298,7.0226476192474365,hold-xy,17000,25.940337224383917,0.0030257567,-0.0026820982,0.0,0.0046964535,0.0008113382,0.037876558,-0.003611323656514287,0.003805396379902959,-0.6383869051933289,-0.7696977853775024,79.34437812017397,0.006426811218261719,136,0.0003485619,-0.00042468333,0.0005494099961960414,0.00036741872,-0.00053595565,0.000649803790465153,0.0003529092,0.00042107768,-0.00045877605,-0.0004601842,4.03812313079834,105.59095764160156
1779205782.143882,7.124231576919556,hold-xy,18000,27.466239414053558,0.0028473474,-0.0020317268,0.0,0.004711621,0.00084354053,0.03782662,-0.003022825578227639,0.004354304168373346,-0.6383128762245178,-0.7697587609291077,79.33386798060712,0.0058438777923583984,137,0.00036372943,-0.000392481,0.0005351078614374552,0.0003017306,-0.0002806109,0.00041204831904480976,0.0003183787,0.0004300877,-0.00021991658,-0.00034845452,4.03812313079834,105.5574951171875
1779205782.2249854,7.205334901809692,hold-xy,18000,27.466239414053558,0.002514005,-0.001878169,0.0,0.004702037,0.0008470763,0.037830293,-0.0027344052214175463,0.003977062646299601,-0.6382298469543457,-0.7698307633399963,79.32124533609561,0.005629301071166992,138,0.00035414565,-0.00038894522,0.0005260204693910007,0.0001758547,-0.0001833834,0.0002540754657894271,0.00031658533,0.0004200848,-0.0001476212,-0.00020679053,4.032844543457031,105.51288604736328
1779205782.3271737,7.307523250579834,hold-xy,19000,28.9921416037232,0.00090173713,-0.00038161315,0.0,0.004597942,0.0009908995,0.037780628,-7.378127338597551e-05,0.0053191897459328175,-0.6383943557739258,-0.7696911096572876,79.34731911456875,0.016076087951660156,139,0.00025005033,-0.000245122,0.00035015707262004363,-0.00021729918,0.00034194152,0.00040514556906782486,0.00019467446,0.00029105294,0.00029587958,0.0002767638,4.022287368774414,105.40948486328125
1779205782.4322553,7.412604808807373,hold-xy,19000,28.9921416037232,0.0022223997,-0.0012766036,0.0,0.0046899673,0.0009064812,0.037851732,-0.0020323339849710464,0.003804057138040662,-0.6383264064788818,-0.7697536945343018,79.33557518086205,0.019211292266845703,140,0.0003420757,-0.00032954034,0.00047498698709039894,0.0001186959,-9.060823e-06,0.00011904123127666104,0.00026054514,0.00039715093,1.30611215e-05,-0.00011832253,4.022287368774414,105.34043884277344
1779205782.514231,7.494580507278442,hold-xy,20000,30.518043793392845,0.0008609269,-0.0006813109,0.0,0.0045953924,0.0009744065,0.03773892,0.0010979276848956943,0.005795926321297884,-0.6380621194839478,-0.7699622511863708,79.29854641264113,0.01825547218322754,141,0.00024750084,-0.00026161503,0.0003601375970406679,-0.00025903207,0.00023937336,0.00035269989773169854,0.00021110623,0.00029177603,0.00018711014,0.0002989766,4.022287368774414,105.34043884277344
1779205782.6189911,7.5993406772613525,hold-xy,20000,30.518043793392845,0.00085443346,-0.000876775,0.0,0.004577198,0.00097007304,0.037732538,0.0006923573673702776,0.006868043448776007,-0.6381000280380249,-0.7699225544929504,79.30557061944555,0.020990610122680664,142,0.00022930652,-0.00026594847,0.0003511553406448248,-0.00023482202,0.00015481905,0.0002812655591136291,0.00021877652,0.00027467601,0.000108553795,0.0002594733,4.011730194091797,105.35112762451172
1779205782.701255,7.681604623794556,hold-xy,21000,32.043945983062486,0.0029331208,-0.0018892803,0.0,0.0047268467,0.0008578189,0.037850015,-0.0029265526682138443,0.00365394726395607,-0.6383236050605774,-0.7697539329528809,79.33494101058346,0.01038050651550293,143,0.00037895516,-0.00037820265,0.0005353916804041484,0.00031901678,-0.00025422798,0.00040792593259276436,0.0003015373,0.000442402,-0.00019079683,-0.00036055534,4.011730194091797,105.35867309570312
1779205782.7839913,7.764340877532959,hold-xy,21000,32.043945983062486,0.001546985,-0.0010996909,0.0,0.0046383445,0.00093389733,0.037812382,-0.0009027053602039814,0.005442704539746046,-0.6384459733963013,-0.7696468234062195,79.35503833348216,0.0018246173858642578,144,0.00029045297,-0.0003021242,0.00041909659729816594,-6.752004e-05,7.204592e-05,9.87399155780654e-05,0.00024327161,0.00034126366,5.8333582e-05,7.9666584e-05,4.00117301940918,105.25796508789062
1779205782.8868277,7.867177248001099,hold-xy,22000,33.56984817273213,0.00021061435,-0.00078194897,0.0,0.0045257094,0.000986285,0.03772863,0.0014360460918396711,0.0061973207630217075,-0.6384791731834412,-0.7696127891540527,79.36117537560226,0.012328147888183594,145,0.00017781788,-0.00024973648,0.0003065738236230759,-0.00041322838,0.00022064583,0.00046844665713079793,0.00021261536,0.00022086698,0.0001405639,0.00044686024,4.006451606750488,105.19854736328125
1779205782.9480352,7.928384780883789,hold-xy,22000,33.56984817273213,0.001887116,-0.0016591679,0.0,0.0046187155,0.0009082719,0.037799325,-0.0007086071418598294,0.004804764874279499,-0.6386119723320007,-0.7695136070251465,79.37911269368155,0.0013806819915771484,146,0.00027082395,-0.00032774964,0.00042516519136676393,9.743299e-05,-0.00016990452,0.00019585896720073469,0.00027221921,0.00032659166,-0.00014903591,-0.00012707883,3.995894432067871,105.22093963623047
1779205783.031123,8.011472463607788,hold-xy,23000,35.09575036240177,0.003042924,-0.0020490233,0.0,0.004710014,0.0008513178,0.037817508,-0.0016950657591223717,0.002712646732106805,-0.6384257078170776,-0.7696768045425415,79.34969826988575,0.002068758010864258,147,0.00036212243,-0.00038470374,0.0005283271792327154,0.00040060206,-0.00032629134,0.0005166701691157779,0.00031115126,0.00042698305,-0.00024663354,-0.00045400436,3.995894432067871,105.15196990966797
1779205783.2190154,8.19936490058899,hold-xy,24000,36.62165255207141,0.0038684332,-0.0025211212,0.0,0.004824188,0.0007553152,0.037920218,-0.005013391375541687,0.0029562823474407196,-0.6385167837142944,-0.769585907459259,79.36299078136587,0.01621079444885254,148,0.00047629653,-0.00048070634,0.0006767103876885456,0.00047755614,-0.00039416342,0.0006192129380807489,0.00038452825,0.00055684376,-0.00029923997,-0.0005421071,3.985337257385254,105.16471862792969
1779205783.2800376,8.260387182235718,hold-xy,24000,36.62165255207141,-0.0005369361,0.00020827423,0.0,0.0045581106,0.0010003606,0.037767287,0.0016634889179840684,0.005355385597795248,-0.6383012533187866,-0.7697662711143494,79.33367168009478,0.0049550533294677734,149,0.00021021906,-0.00023566093,0.0003157976032233713,-0.0007701024,0.0007411807,0.0010688341863118577,0.00019267986,0.0002502051,0.00058583677,0.00089398085,3.9747800827026367,105.19094848632812
1779205783.3829746,8.363324165344238,hold-xy,24000,36.62165255207141,0.0023335144,-0.0018224327,0.0,0.004732554,0.00081729307,0.037901837,-0.002981416182592511,0.0022156003396958113,-0.6384313106536865,-0.7696698904037476,79.35018341457864,0.013713359832763672,150,0.0003846623,-0.00041872845,0.000568593521973292,1.6605889e-05,-6.432313e-05,6.643207734095682e-05,0.00034042803,0.00045542,-6.0146303e-05,-2.8207149e-05,3.9747800827026367,105.14662170410156
1779205783.4650824,8.44543194770813,hold-xy,24000,36.62165255207141,0.0018300337,-0.0015586797,0.0,0.0046948167,0.00084457593,0.037825644,-0.002183680422604084,0.003704627975821495,-0.638643741607666,-0.7694904804229736,79.38273406859518,0.003911256790161133,151,0.0003469251,-0.0003914456,0.0005230551527860543,-0.0001115526,4.4026896e-05,0.00011992644124589482,0.0003208239,0.00041310862,2.2719856e-05,0.00011775466,3.9747800827026367,105.10900115966797
1779205783.5673645,8.547713994979858,hold-xy,25000,38.147554741741054,0.001075183,-0.00038881373,0.0,0.004643366,0.0009585738,0.037845694,-0.0010377462022006512,0.00502459891140461,-0.6385101079940796,-0.7695963382720947,79.36412517966093,0.01438593864440918,152,0.00029547466,-0.00027744775,0.0004053178078510233,-0.00024621206,0.00040333092,0.00047254228566681524,0.00021814638,0.00034160604,0.0003509591,0.0003164236,3.9747800827026367,105.1545639038086
1779205783.6486633,8.629012823104858,hold-xy,25000,38.147554741741054,0.003499751,-0.0031760153,0.0,0.0047934935,0.0007029297,0.037985,-0.005732042249292135,0.004295570310205221,-0.6391261219978333,-0.7690685391426086,79.45448946721083,0.003399372100830078,153,0.000445602,-0.00053309184,0.0006948007469460471,0.0003156833,-0.00054871244,0.0006330413096313722,0.0004425353,0.0005356403,-0.00048166938,-0.00041077478,3.9642229080200195,104.99040222167969
1779205783.7509723,8.731321811676025,hold-xy,26000,39.6734569314107,0.0027897344,-0.0019984997,0.0,0.004766271,0.00079058623,0.03795849,-0.004493186715990305,0.004436958581209183,-0.6385838389396667,-0.7695263028144836,79.3740473502284,0.0039255619049072266,154,0.00041837944,-0.0004454353,0.0006111087702810979,0.0001407411,-0.00012573515,0.0001887256908149698,0.0003606492,0.00049334177,-9.7626864e-05,-0.0001615128,3.9642229080200195,104.83281707763672
1779205783.8323722,8.812721729278564,hold-xy,26000,39.6734569314107,0.0037585169,-0.0022252772,0.0,0.0048467936,0.0007520127,0.037958812,-0.00510453013703227,0.0033667152747511864,-0.6386244893074036,-0.7694942355155945,79.37924090578622,0.003776073455810547,155,0.00049890205,-0.0004840088,0.0006951027332428302,0.00039474148,-0.000229917,0.00045681799247490905,0.0003837657,0.00057956163,-0.00015322439,-0.0004303544,3.9536657333374023,104.8924331665039
1779205783.934863,8.915212631225586,hold-xy,26000,39.6734569314107,0.0038156393,-0.0027691037,0.0,0.0048636077,0.0006930054,0.037930332,-0.005877932533621788,0.005070498678833246,-0.6387813091278076,-0.7693492770195007,79.40375129498875,0.014679908752441406,156,0.00051571615,-0.0005430161,0.0007488856227975547,0.00033139484,-0.0003542246,0.0004850748598007521,0.00043892278,0.00060677546,-0.00028724497,-0.00039088097,3.9536657333374023,104.87187957763672
1779205784.015878,8.996227502822876,hold-xy,26000,39.6734569314107,0.0032672037,-0.0022770574,0.0,0.00484189,0.00072558085,0.03794813,-0.005104609299451113,0.0030784043483436108,-0.6389356851577759,-0.7692371010780334,79.42543109897584,0.002688884735107422,157,0.00049399864,-0.0005104407,0.0007103410192473236,0.00016192434,-0.00014288176,0.00021595066334546744,0.00041111562,0.0005792826,-0.00011073963,-0.00018539531,3.9536657333374023,104.87187957763672
1779205784.117348,9.097697496414185,hold-xy,27000,41.19935912108034,0.0030929374,-0.002005099,0.0,0.0048394627,0.00074507995,0.03792983,-0.004515303298830986,0.0019094018498435616,-0.6386240720748901,-0.7695032954216003,79.37861115505271,0.0014531612396240234,158,0.00049157115,-0.0004909416,0.000694741553046666,0.00010625641,-4.3061005e-05,0.00011465022757087287,0.00039192452,0.00057363836,-2.2738224e-05,-0.00011237281,3.9536657333374023,104.84130859375
1779205784.199326,9.179675579071045,hold-xy,27000,41.19935912108034,0.0016151348,-0.00081134634,0.0,0.0047503365,0.0008535016,0.03786445,-0.002443246776238084,0.004317103419452906,-0.638872504234314,-0.7692966461181641,79.41725500353864,0.009398937225341797,159,0.00040244497,-0.0003825199,0.0005552327989063047,-0.00028678516,0.0004092128,0.0004997007713392642,0.00030210236,0.00046585148,0.00034958276,0.00035706128,3.9536657333374023,104.75031280517578
1779205784.2630436,9.243393182754517,hold-xy,27000,41.19935912108034,-0.0010349888,0.00028044148,0.0,0.0045562945,0.0009895884,0.037790168,0.0019596375059336424,0.005108303856104612,-0.6383914947509766,-0.7696924209594727,79.34685153189085,0.0006146430969238281,160,0.00020840298,-0.00024643308,0.0003227399376075315,-0.001003661,0.0008495522,0.0013149426817234866,0.00020365961,0.0002503674,0.0006493698,0.0011434129,3.943108558654785,104.63507843017578
1779205784.3459988,9.326348304748535,hold-xy,28000,42.72526131074998,0.0023503175,-0.0012855715,0.0,0.004756007,0.00085389055,0.03785639,-0.001622463925741613,0.005519859958440065,-0.6384420394897461,-0.7696484923362732,79.3544407425864,0.00017833709716796875,161,0.00040811533,-0.00038213097,0.0005590905004462682,1.5900878e-05,0.00010651443,0.00010769476097880112,0.00030016172,0.0004716833,0.000107618594,4.0495142e-06,3.932551383972168,104.71055603027344
1779205784.4277527,9.40810227394104,hold-xy,28000,42.72526131074998,0.0058195414,-0.002973821,0.0,0.004986216,0.00068688765,0.037886072,-0.003360403934493661,0.0038374497089535,-0.6375996470451355,-0.7703511118888855,79.22727877369795,0.010998725891113281,162,0.0006383243,-0.00054913387,0.0008420248910143805,0.0009847555,-0.0006317467,0.0011699774208910965,0.00042014464,0.0007297153,-0.00043654884,-0.0010854825,3.932551383972168,104.80716705322266
1779205784.509408,9.489757537841797,hold-xy,28000,42.72526131074998,0.007333028,-0.0036757514,0.0,0.0051447907,0.0005771355,0.03784148,-0.0016296383691951632,0.0024481427390128374,-0.6377708911895752,-0.7702205181121826,79.2521141804725,0.010330915451049805,163,0.0007968992,-0.00065888604,0.0010340111799926888,0.0012672041,-0.0008421793,0.0015215361158248998,0.00049871544,0.0009057936,-0.00059108716,-0.00140203,3.932551383972168,104.80716705322266
1779205784.6112862,9.591635704040527,hold-xy,29000,44.25116350041962,0.010521315,-0.004042737,0.0,0.005481719,0.00045323232,0.03781746,-0.006344811525195837,0.008633319288492203,-0.6395004987716675,-0.768716037273407,79.51542683650565,0.01891016960144043,164,0.0011338275,-0.0007827892,0.0013777966892422144,0.0019704262,-0.0009879326,0.0022042209096341313,0.00056339626,0.0012573418,-0.000612878,-0.0021173027,3.932551383972168,104.73348999023438
1779205784.6929603,9.673309803009033,hold-xy,29000,44.25116350041962,0.009377391,-0.0030703587,0.0,0.0055017928,0.0005023808,0.037821367,-0.006809805985540152,0.009273386560380459,-0.6391907930374146,-0.7689622640609741,79.47022655747134,0.008133411407470703,165,0.0011539012,-0.00073364074,0.0013673758852626276,0.0014444368,-0.0005320676,0.0015393160213559738,0.00051041495,0.0012685398,-0.00025914196,-0.0015173461,3.921994209289551,104.63899230957031
1779205784.794583,9.774932622909546,hold-xy,29000,44.25116350041962,0.008383188,0.00090702495,0.0,0.005558631,0.00085042417,0.03784299,-0.004493683110922575,0.0069796922616660595,-0.6391680836677551,-0.7690222859382629,79.46385837594443,0.006972312927246094,166,0.0012107394,-0.00038559735,0.0012706593272946993,0.0011770017,0.00064340257,0.001341379879124795,0.00015770546,0.0012608347,0.00084777613,-0.0010395074,3.921994209289551,104.52813720703125
1779205784.8965228,9.876872301101685,hold-xy,30000,45.777065690089266,0.0124339815,0.0015729853,0.0,0.0059765163,0.0008756984,0.03791985,-0.006305328104645014,0.009138951078057289,-0.6388673782348633,-0.7692368030548096,79.42194863247093,0.016748666763305664,167,0.0016286247,-0.00036032312,0.001668008140972593,0.002184156,0.0005326517,0.00224816720466331,5.5225246e-05,0.0016670937,0.00092455576,-0.0020492566,3.921994209289551,104.41173553466797
1779205784.9791625,9.959511995315552,hold-xy,30000,45.777065690089266,0.015354019,-5.327107e-06,0.0,0.0062897652,0.00072621973,0.03795646,-0.007459577172994614,0.006155938841402531,-0.636818528175354,-0.7709531188011169,79.11241941623504,0.0180056095123291,168,0.0019418737,-0.0005098018,0.002007678106393902,0.002683634,-0.00017816474,0.0026895415638151184,0.00013383903,0.002003212,0.00033193402,-0.0026689798,3.9114370346069336,104.2840576171875
1779205785.0628228,10.043172359466553,hold-xy,31000,47.30296787975891,0.017046895,-0.0014869937,0.0,0.0065306155,0.00057349494,0.037904214,-0.0072205024771392345,0.008838650770485401,-0.6364743113517761,-0.7712134122848511,79.06506807476606,0.020689725875854492,169,0.002182724,-0.0006625266,0.002281057990342603,0.0027708434,-0.00069052866,0.002855591545780406,0.00023644743,0.00226877,-0.00015237828,-0.002851523,3.9114370346069336,104.3031234741211
1779205785.1448863,10.125235795974731,hold-xy,31000,47.30296787975891,0.027958065,0.0018013443,0.0,0.0076609105,0.0006390253,0.038397904,-0.008339473977684975,0.021659033372998238,-0.6363473534584045,-0.7710533738136292,79.08401502623279,0.01047205924987793,170,0.003313019,-0.0005969962,0.003366377804919045,0.0056141075,-0.00027033503,0.005620612414512091,-4.1190244e-05,0.0033661257,0.0007976965,-0.0055637187,3.9008798599243164,104.20116424560547
1779205785.2920017,10.272351264953613,hold-xy,31000,47.30296787975891,0.040580135,0.008221567,0.0,0.009585507,0.0010463756,0.039933883,-0.003160051768645644,0.008121304214000702,-0.6351305842399597,-0.7723556756973267,78.86549830295039,0.0006086826324462891,171,0.0052376157,-0.00018964591,0.005241047856088344,0.0076079443,0.0005892468,0.007630729320111434,-0.0008253746,0.0051756487,0.002047347,-0.0073509454,3.9008798599243164,104.26483917236328
1779205785.3124928,10.292842388153076,hold-xy,32000,48.82887006942855,0.1214876,0.075112,0.0,0.011098323,0.0018318665,0.041279696,0.0007515176548622549,0.0039299847558140755,-0.6350036263465881,-0.7724989056587219,78.84216441185859,0.010937929153442383,172,0.006750432,0.00059584493,0.006776677631494694,0.04998708,0.023601819,0.05527887587196103,-0.0018908745,0.006507531,0.032828815,-0.044474974,3.9008798599243164,104.26483917236328
1779205785.4142842,10.394633769989014,hold-xy,32000,48.82887006942855,0.11160348,0.07335164,0.0,0.012971532,0.0031148435,0.04396773,-0.012048131786286831,0.013264905661344528,-0.6332637071609497,-0.773728609085083,78.59581794647006,0.008697748184204102,173,0.00862364,0.001878822,0.008825935891741136,0.0403928,0.020221045,0.045171551751742076,-0.0035468708,0.008081884,0.02780864,-0.035597034,3.9008798599243164,104.31383514404297
1779205785.4759989,10.456348419189453,hold-xy,32000,48.82887006942855,0.12069925,0.08592777,0.0,0.015378585,0.004623453,0.046805713,-0.011164025403559208,0.022283002734184265,-0.6323251724243164,-0.774302065372467,78.48802273726962,0.00951695442199707,174,0.011030694,0.0033874316,0.011539102974428748,0.040133256,0.021586861,0.045570503182309,-0.0055207126,0.0101327505,0.029162105,-0.035017747,3.890322685241699,104.29911041259766
1779205785.5573905,10.537739992141724,hold-xy,32000,48.82887006942855,0.12430255,0.10221121,0.0,0.017719964,0.0066474928,0.051551335,-0.00714842788875103,0.017014849931001663,-0.6296173930168152,-0.7766862511634827,78.07010959395281,0.01959538459777832,175,0.013372072,0.0054114712,0.014425544403407202,0.037942983,0.02362553,0.04469715540536664,-0.008058794,0.011964623,0.030958619,-0.03223972,3.890322685241699,104.30996704101562
1779205785.6395864,10.619935989379883,hold-xy,32000,48.82887006942855,0.124771446,0.114637494,0.0,0.019877262,0.008691229,0.057414662,-0.0032471944577991962,0.012934999540448189,-0.6266066431999207,-0.7792216539382935,77.61635490345249,0.019274234771728516,176,0.015529371,0.0074552074,0.017226185360659747,0.034403183,0.023968095,0.04192908946908502,-0.010612126,0.013569239,0.03078843,-0.028462626,3.8850440979003906,104.35350036621094
1779205785.7215154,10.701864957809448,hold-xy,32000,48.82887006942855,0.119728476,0.1286574,0.0,0.021452917,0.01103809,0.06390463,0.001258580363355577,0.013348519802093506,-0.624900758266449,-0.7805890440940857,77.36834932700582,0.01736283302307129,177,0.017105024,0.009802069,0.01971452228723578,0.029720278,0.025175272,0.038949830764990784,-0.0133053865,0.014547477,0.031065231,-0.023495546,3.8850440979003906,104.35350036621094
1779205785.8042324,10.784581899642944,hold-xy,32000,48.82887006942855,0.09444892,0.151207,0.0,0.021319376,0.014476206,0.071351156,0.0005788441631011665,0.01817687787115574,-0.6240010261535645,-0.7812119126319885,77.251660562201,0.01819157600402832,178,0.016971484,0.013240185,0.02152518844448969,0.020314965,0.030218337,0.03641216442871515,-0.01665888,0.013631415,0.033956304,-0.01314592,3.8850440979003906,104.5188980102539
1779205785.8855252,10.865874767303467,hold-xy,32000,48.82887006942855,0.05325929,0.17594826,0.0,0.019379336,0.018938234,0.07759276,-0.002654935931786895,0.01925884746015072,-0.6233391761779785,-0.7817098498344421,77.1570806576548,0.006819725036621094,179,0.015031445,0.017702213,0.023223106231131715,0.007939639,0.035598554,0.03647320768938991,-0.020600531,0.010720576,0.036472805,0.00017179456,3.8850440979003906,104.66549682617188
1779205785.9705682,10.950917720794678,hold-xy,32000,48.82887006942855,0.0055627488,0.20642465,0.0,0.016374005,0.024264012,0.08167716,-0.005273077171295881,0.01627732254564762,-0.6230495572090149,-0.7819951772689819,77.1027627197439,0.00055694580078125,180,0.012026113,0.02302799,0.025979140340201053,-0.0043167635,0.042417705,0.04263679335103168,-0.025131304,0.0065827994,0.040384073,0.0136756245,3.8850440979003906,104.9232177734375
1779205786.073524,11.053873538970947,hold-xy,32000,48.82887006942855,-0.04155482,0.23224314,0.0,0.012561765,0.029647145,0.083881944,-0.010258781723678112,0.01877286285161972,-0.6239356398582458,-0.7811828851699829,77.23810425402054,0.009195804595947266,181,0.008213873,0.028411124,0.029574645029270135,-0.015147572,0.046814874,0.049204486907119344,-0.029523714,0.0017349469,0.042312287,0.025114777,3.8850440979003906,105.22590637207031
1779205786.158499,11.138848543167114,hold-xy,32000,48.82887006942855,-0.091579914,0.25722447,0.0,0.008061108,0.03508491,0.08380884,-0.005516360513865948,0.01577335223555565,-0.6242466568946838,-0.781048595905304,77.27662934380653,0.004272937774658203,182,0.0037132166,0.03384889,0.03405194936098545,-0.025622532,0.050916888,0.05700038244407747,-0.033835534,-0.00383298,0.044023402,0.03620751,3.8850440979003906,105.38882446289062
