wall_time_s,elapsed_s,mode,thrust_raw,thrust_percent,roll_cmd_deg,pitch_cmd_deg,yawrate_cmd_deg_s,mocap_x,mocap_y,mocap_z,mocap_qx,mocap_qy,mocap_qz,mocap_qw,yaw_deg,mocap_age_s,mocap_frame_count,drift_x_m,drift_y_m,horizontal_drift_m,velocity_x_m_s,velocity_y_m_s,horizontal_speed_m_s,body_error_x_m,body_error_y_m,body_velocity_x_m_s,body_velocity_y_m_s,battery_v,estimate_z
1779201981.7380686,0.0015039443969726562,hold-xy,0,0.0,0.0,-0.0,0.0,0.0069108186,0.0033430178,0.037000507,0.012077739462256432,-0.007777232211083174,-0.6055256128311157,-0.7956961393356323,74.53475870599812,0.020749330520629883,57,0.0,0.0,0.0,0.0,0.0,0.0,0.0,0.0,0.0,0.0,4.048680305480957,104.5096664428711
1779201981.8262315,0.08966684341430664,hold-xy,0,0.0,0.00014103256,-0.00022194136,0.0,0.006917713,0.0033204556,0.03703691,0.011560939252376556,-0.006891708821058273,-0.605693519115448,-0.7955842614173889,74.55823965956309,0.011289358139038086,58,6.894581e-06,-2.256222e-05,2.359213963643189e-05,2.1187396e-05,-6.933484e-05,7.249983531719113e-05,1.9912019e-05,1.2653086e-05,-6.1190636e-05,-3.888357e-05,4.048680305480957,104.54512023925781
1779201981.8873281,0.15076351165771484,hold-xy,0,0.0,0.00058798015,0.00057417154,0.0,0.0069618225,0.0033612857,0.0370334,0.011176248081028461,-0.006286195013672113,-0.6056951284408569,-0.7955935001373291,74.55807075126255,0.011538982391357422,59,5.100388e-05,1.8267892e-05,5.41766712638813e-05,0.00023230749,0.00015277423,0.000278040890898974,-3.118881e-05,4.4298642e-05,0.00020911376,-0.00018324348,4.048680305480957,104.54512023925781
1779201981.988771,0.25220632553100586,hold-xy,0,0.0,0.00040370243,0.00044217397,0.0,0.0069550406,0.0033625243,0.037017625,0.011276720091700554,-0.0064743394032120705,-0.6056104898452759,-0.7956550121307373,74.54600632336553,0.009731292724609375,60,4.422199e-05,1.9506551e-05,4.833311481913553e-05,0.00014291008,0.000110540954,0.00018067261172883276,-3.058488e-05,3.742533e-05,0.00014462478,-0.00010828789,4.048680305480957,104.52313232421875
1779201982.0735183,0.33695363998413086,hold-xy,0,0.0,0.0004262062,-6.810276e-05,0.0,0.0069526955,0.0033269338,0.037031773,0.011036924086511135,-0.006501791067421436,-0.6058762669563293,-0.795455813407898,74.58442927184448,0.010168790817260742,61,4.187692e-05,-1.608394e-05,4.48594427549797e-05,9.169258e-05,-4.9263144e-05,0.0001040883558950581,4.3736472e-06,4.4645723e-05,-2.3117263e-05,-0.000101488804,4.048680305480957,104.53538513183594
1779201982.158648,0.42208337783813477,hold-xy,0,0.0,0.00047051816,0.00027383535,0.0,0.0069693867,0.003352426,0.037006054,0.011335574090480804,-0.006395323202013969,-0.6057632565498352,-0.7955384850502014,74.56791140652572,0.00011157989501953125,62,5.8568083e-05,9.408221e-06,5.931892496533158e-05,0.00011679022,4.585926e-05,0.00012547121756813768,-2.4653757e-05,5.395301e-05,7.5283286e-05,-0.000100376565,4.048680305480957,104.53409576416016
1779201982.2599442,0.5233795642852783,hold-xy,0,0.0,0.00052872655,0.00030929665,0.0,0.006980585,0.0033562267,0.0369986,0.01102897897362709,-0.005897977389395237,-0.6056548357009888,-0.7956292033195496,74.5519961313702,0.01707601547241211,63,6.9766305e-05,1.3208948e-05,7.10057295804732e-05,0.00012158947,4.562211e-05,0.00012986676499704872,-3.1314958e-05,6.372744e-05,7.636093e-05,-0.00010504468,4.048680305480957,104.5511703491211
1779201982.3614573,0.6248927116394043,hold-xy,0,0.0,0.00041737405,0.00012743704,0.0,0.006972704,0.0033449652,0.037001714,0.011345685459673405,-0.006253413390368223,-0.6055769920349121,-0.795681357383728,74.54094943055784,0.009663105010986328,64,6.1885454e-05,1.9473955e-06,6.191608741181491e-05,6.340749e-05,9.1933543e-07,6.341415303153022e-05,-1.8372482e-05,5.9127437e-05,1.7787315e-05,-6.0868435e-05,4.048680305480957,104.56605529785156
1779201982.4430456,0.7064809799194336,hold-xy,0,0.0,3.9009916e-05,0.0001270237,0.0,0.0069460273,0.003353211,0.037016317,0.011606805957853794,-0.006762623321264982,-0.6054800152778625,-0.7957472205162048,74.52733681599152,0.008460044860839844,65,3.520865e-05,1.0193326e-05,3.665450771151074e-05,-5.2279967e-05,3.0523224e-05,6.0538105285011987e-05,-1.9216812e-05,3.1213254e-05,1.5469823e-05,5.8528174e-05,4.048680305480957,104.59507751464844
1779201982.5467966,0.8102319240570068,hold-xy,0,0.0,-0.00018703431,0.00025526577,0.0,0.006926818,0.0033712834,0.03696537,0.011906588450074196,-0.007072898559272289,-0.6054097414016724,-0.7957934737205505,74.51738159527578,0.015282392501831055,66,1.599919e-05,2.826564e-05,3.247953947180018e-05,-9.605044e-05,7.730119e-05,0.0001232929893330102,-3.1510845e-05,7.873204e-06,4.8855767e-05,0.00011320016,4.043401718139648,104.5712661743164
1779201982.609734,0.8731694221496582,hold-xy,0,0.0,0.00012657951,0.0002517405,0.0,0.006945975,0.0033680862,0.03697473,0.012136881239712238,-0.007769655901938677,-0.6055830121040344,-0.7956516742706299,74.54298784864086,0.0004405975341796875,67,3.5156496e-05,2.506841e-05,4.317874950291842e-05,6.655726e-06,4.17789e-05,4.230573634795614e-05,-3.3531447e-05,2.7203794e-05,4.204164e-05,4.719724e-06,4.048680305480957,104.52387237548828
1779201982.693879,0.9573142528533936,hold-xy,0,0.0,-4.1183623e-05,0.00039789558,0.0,0.0069363937,0.0033851033,0.03699194,0.01184423454105854,-0.006807608064264059,-0.6054279208183289,-0.7957828640937805,74.51976224922214,0.003251314163208008,68,2.557505e-05,4.2085536e-05,4.924708657327362e-05,-3.0682055e-05,9.201272e-05,9.699344729511009e-05,-4.7384914e-05,1.341437e-05,8.0485515e-05,5.4127737e-05,4.048680305480957,104.52387237548828
1779201982.775224,1.0386593341827393,hold-xy,0,0.0,-7.593349e-05,6.2023435e-05,0.0,0.006925322,0.0033648321,0.036996298,0.011942033655941486,-0.007527527399361134,-0.605633556842804,-0.79561847448349,74.55009155891375,0.007558345794677734,69,1.4503486e-05,2.1814369e-05,2.619575929042169e-05,-6.4592095e-05,-1.4530669e-05,6.620633710634616e-05,-2.4889747e-05,8.168128e-06,-3.121265e-05,5.8387064e-05,4.043401718139648,104.52284240722656
1779201982.8574467,1.1208820343017578,hold-xy,0,0.0,-5.9652808e-05,0.00019963586,0.0,0.006926393,0.0033741174,0.036969185,0.011817403137683868,-0.00742071308195591,-0.6052567362785339,-0.7959079742431641,74.49576335657818,0.01363229751586914,70,1.5574507e-05,3.1099655e-05,3.478151596249058e-05,-4.099501e-05,2.640938e-05,4.87652151066592e-05,-3.4131175e-05,6.694525e-06,1.4489999e-05,4.6562716e-05,4.043401718139648,104.54625701904297
1779201982.9223888,1.1858241558074951,hold-xy,0,0.0,8.573982e-05,0.00044670195,0.0,0.006940433,0.0033907788,0.036989685,0.011896183714270592,-0.00668979249894619,-0.6054901480674744,-0.7957357168197632,74.52858436260713,0.002763509750366211,71,2.9614195e-05,4.7761016e-05,5.61971093808548e-05,2.6861548e-05,8.441914e-05,8.85896929584571e-05,-5.3930144e-05,1.580047e-05,8.852562e-05,-3.3687356e-06,4.048680305480957,104.52072143554688
1779201983.0113585,1.2747938632965088,hold-xy,0,0.0,0.0006065232,8.779407e-05,0.0,0.0069745705,0.003355693,0.037013173,0.011417345143854618,-0.006974543444812298,-0.6055781841278076,-0.7956733107566833,74.54177766425585,0.010329484939575195,72,6.3751824e-05,1.26753e-05,6.499967816153502e-05,0.00014461168,-7.020922e-05,0.000160754075039369,-2.9208906e-05,5.8067188e-05,-2.9125233e-05,-0.00015809362,4.043401718139648,104.4814224243164
1779201983.1161544,1.3795897960662842,hold-xy,0,0.0,0.00044157132,0.00027985172,0.0,0.006972721,0.0033721318,0.037008975,0.011283449828624725,-0.006172568537294865,-0.6056127548217773,-0.7956556081771851,74.54605650771241,0.021004438400268555,73,6.190222e-05,2.9114075e-05,6.840697412939817e-05,9.533276e-05,3.2502867e-06,9.538815131711563e-05,-4.455615e-05,5.1906296e-05,2.8535493e-05,-9.1019916e-05,4.048680305480957,104.49656677246094
1779201983.2025836,1.4660189151763916,hold-xy,0,0.0,6.989062e-05,0.00034013478,0.0,0.0069472883,0.0033863299,0.036969755,0.011825770139694214,-0.007002163678407669,-0.6056101322174072,-0.7956428527832031,74.54621151522502,0.010742664337158203,74,3.646966e-05,4.3312088e-05,5.6621314578890435e-05,-1.2175922e-05,4.6326957e-05,4.7900315170106456e-05,-5.146391e-05,2.361014e-05,4.1407628e-05,2.408004e-05,4.043401718139648,104.5714340209961
1779201983.2838776,1.5473129749298096,hold-xy,0,0.0,0.00045553123,0.00012627032,0.0,0.006972214,0.0033635283,0.037011508,0.011169676668941975,-0.0060704550705850124,-0.6055194735527039,-0.7957289218902588,74.53258230190434,0.010212421417236328,75,6.139558e-05,2.0510517e-05,6.47309701023979e-05,8.286505e-05,-5.117064e-05,9.739122633416796e-05,-3.6141282e-05,5.3702013e-05,-2.7218044e-05,-9.351058e-05,4.043401718139648,104.5714340209961
1779201983.3861365,1.6495718955993652,hold-xy,0,0.0,5.5802193e-05,1.9100728e-05,0.0,0.0069394186,0.0033610594,0.036981802,0.011255751363933086,-0.006514084525406361,-0.6053504347801208,-0.7958528399467468,74.50859964123164,0.014150619506835938,76,2.8599985e-05,1.8041581e-05,3.381505246058204e-05,-4.2061656e-05,-4.335276e-05,6.040401428492888e-05,-2.5025018e-05,2.274217e-05,-5.3012183e-05,2.8954328e-05,4.043401718139648,104.5931167602539
1779201983.4733212,1.7367565631866455,hold-xy,0,0.0,0.0005325009,0.00013328299,0.0,0.006980911,0.003357225,0.03701834,0.011384635232388973,-0.006836643908172846,-0.6056118607521057,-0.7956493496894836,74.54650383917155,0.004537105560302734,77,7.009227e-05,1.4207326e-05,7.151765084095802e-05,9.915105e-05,-4.2230175e-05,0.00010776975124816931,-3.2370204e-05,6.37726e-05,-1.428402e-05,-0.000106818945,4.043401718139648,104.55277252197266
1779201983.554963,1.8183984756469727,hold-xy,0,0.0,0.0002692074,3.392208e-05,0.0,0.0069628228,0.0033530528,0.037019894,0.011420740745961666,-0.006603838875889778,-0.6056579351425171,-0.7956157326698303,74.55289542075838,0.002896547317504883,78,5.200412e-05,1.0035001e-05,5.296347709635402e-05,4.2486354e-06,-4.4590666e-05,4.479261542662154e-05,-2.3523731e-05,4.7452755e-05,-4.184829e-05,-1.5971824e-05,4.048680305480957,104.57948303222656
1779201983.6605818,1.9240171909332275,hold-xy,0,0.0,8.103569e-05,0.00032547032,0.0,0.0069533326,0.0033816146,0.036985595,0.011822231113910675,-0.006979945115745068,-0.6055973172187805,-0.7956528067588806,74.544343766871,0.0024347305297851562,79,4.2513944e-05,3.85968e-05,5.742080245156952e-05,-2.3864557e-05,4.956046e-05,5.500687715380684e-05,-4.8530674e-05,3.0690753e-05,4.140848e-05,3.6209036e-05,4.043401718139648,104.57524108886719
1779201983.7437952,2.007230520248413,hold-xy,0,0.0,0.00026387913,0.00020912394,0.0,0.006964024,0.0033709006,0.03702028,0.011286457069218159,-0.005904978606849909,-0.6054873466491699,-0.7957529425621033,74.52776397713568,0.0028607845306396484,80,5.3205527e-05,2.7882867e-05,6.006898169295897e-05,2.2038386e-05,-4.132249e-06,2.24224440126982e-05,-4.10661e-05,4.3838998e-05,1.8967153e-06,-2.2342078e-05,4.048680305480957,104.59674072265625
1779201983.826199,2.089634418487549,hold-xy,0,0.0,-0.0001439373,-3.319492e-05,0.0,0.0069279354,0.0033605648,0.03697155,0.011927731335163116,-0.007582941558212042,-0.6056690216064453,-0.7955912351608276,74.55527149808889,0.0032501220703125,81,1.7116778e-05,1.7547049e-05,2.4512915167635753e-05,-0.0001165817,-4.0699833e-05,0.0001234818580578619,-2.1471731e-05,1.1825723e-05,-7.027679e-05,0.00010153296,4.043401718139648,104.5524673461914
1779201983.9128172,2.176252603530884,hold-xy,0,0.0,0.0002544078,0.00010146396,0.0,0.006956905,0.0033604996,0.037029404,0.011219728738069534,-0.005797861609607935,-0.6055607199668884,-0.795698881149292,74.53827458938268,0.005092144012451172,82,4.6086498e-05,1.7481856e-05,4.9290775371825845e-05,2.0908847e-05,-2.8720582e-05,3.5525366787410824e-05,-2.9135577e-05,3.9758004e-05,-2.2106964e-05,-2.7808883e-05,4.048680305480957,104.52108001708984
1779201984.0148604,2.2782957553863525,hold-xy,0,0.0,0.0003008166,0.00010104544,0.0,0.006961873,0.0033578947,0.037010636,0.011392154730856419,-0.006437455303966999,-0.6056005954742432,-0.795661211013794,74.54449390730794,0.014921426773071289,83,5.1054172e-05,1.4876947e-05,5.3177553296924115e-05,3.0797564e-05,-2.8578976e-05,4.201485125251839e-05,-2.7944388e-05,4.5243378e-05,-1.9338251e-05,-3.7299866e-05,4.043401718139648,104.46446990966797
1779201984.075781,2.339216470718384,hold-xy,0,0.0,0.00010268655,0.00011442467,0.0,0.0069504846,0.0033611665,0.037033454,0.0113680986687541,-0.006228018086403608,-0.60553377866745,-0.7957140207290649,74.53469078575297,0.014815330505371094,84,3.966596e-05,1.8148683e-05,4.362067237246335e-05,-3.4424706e-05,-3.921845e-06,3.464738521040847e-05,-2.8068678e-05,3.33903e-05,-1.2959358e-05,3.2132477e-05,4.043401718139648,104.46446990966797
1779201984.1576543,2.4210896492004395,hold-xy,0,0.0,0.0002657088,0.00022226802,0.0,0.0069638127,0.0033658668,0.037013132,0.011126288212835789,-0.005930006504058838,-0.6057013869285583,-0.7955921292304993,74.5586847956869,0.015518903732299805,85,5.2994117e-05,2.2849068e-05,5.771010617858844e-05,2.5163112e-05,1.4627167e-05,2.910560417730825e-05,-3.613405e-05,4.4997632e-05,2.0798889e-05,-2.0360314e-05,4.043401718139648,104.47396087646484
1779201984.23931,2.5027453899383545,hold-xy,0,0.0,-2.6908529e-06,0.00053079776,0.0,0.006949772,0.0033987416,0.03697025,0.01174396462738514,-0.006426564883440733,-0.6055395603179932,-0.7957026362419128,74.53552899305863,0.00465703010559082,86,3.8953498e-05,5.5723824e-05,6.798911457246663e-05,-2.7914297e-05,0.000116839554,0.00012012780499209507,-6.409299e-05,2.268498e-05,0.0001051664,5.8057878e-05,4.043401718139648,104.46004486083984
1779201984.3420694,2.6055047512054443,hold-xy,1000,1.525902189669642,6.5799155e-05,0.00044102105,0.0,0.0069521368,0.0033955118,0.03698616,0.01161990873515606,-0.00616235937923193,-0.6054396033287048,-0.7957825660705566,74.52095543290352,0.0031266212463378906,87,4.1318126e-05,5.2493997e-05,6.680424397318113e-05,-1.2737917e-05,7.249677e-05,7.360731106267668e-05,-6.161717e-05,2.5809532e-05,6.6467604e-05,3.1624255e-05,4.048680305480957,104.5501480102539
1779201984.4245918,2.6880271434783936,hold-xy,1000,1.525902189669642,0.00034865722,0.00022386364,0.0,0.0069688894,0.0033759885,0.036972865,0.011371688917279243,-0.00604654848575592,-0.6055008769035339,-0.7957404255867004,74.52979377658336,0.004072904586791992,88,5.8070756e-05,3.297068e-05,6.677783108229893e-05,5.2692056e-05,-2.1050182e-05,5.674119368322187e-05,-4.7265763e-05,4.7172303e-05,-6.2325835e-06,-5.639785e-05,4.043401718139648,104.56464385986328
1779201984.5266318,2.790067195892334,hold-xy,2000,3.051804379339284,-5.606476e-05,0.0002266108,0.0,0.00693784,0.0033844924,0.03696644,0.01185233797878027,-0.006918247789144516,-0.6055031418800354,-0.7957245707511902,74.53070214311238,0.014100074768066406,89,2.7021393e-05,4.147459e-05,4.950047775926308e-05,-6.434931e-05,1.29911205e-05,6.564756580992309e-05,-4.717931e-05,1.4980318e-05,-4.642877e-06,6.5483175e-05,4.043401718139648,104.55221557617188
1779201984.6080964,2.8715317249298096,hold-xy,3000,4.577706569008926,-0.00029645508,-0.00054125313,0.0,0.0068968376,0.003326768,0.03701015,0.012116055935621262,-0.008353020064532757,-0.6057647466659546,-0.7955076694488525,74.56989236891904,0.00437474250793457,90,-1.39810145e-05,-1.6249716e-05,2.143646499629354e-05,-0.00017993587,-0.00018080992,0.00025508654362593736,1.9383833e-05,-9.153636e-06,-0.00022216697,0.00012534345,4.043401718139648,104.58185577392578
1779201984.7160895,2.979524850845337,hold-xy,3000,4.577706569008926,0.00040427473,0.00024385085,0.0,0.006965304,0.0033674855,0.037022542,0.011564347892999649,-0.007164302282035351,-0.6056592464447021,-0.7956078052520752,74.55358192772641,0.01773667335510254,91,5.4485165e-05,2.4467707e-05,5.972689333373594e-05,9.109652e-05,2.5155168e-06,9.113123802211514e-05,-3.8095353e-05,4.60005e-05,2.668704e-05,-8.7136126e-05,4.048680305480957,104.5730209350586
1779201984.8222942,3.0857295989990234,hold-xy,5000,7.629510948348211,0.00030807452,-4.3008753e-05,0.0,0.0069546066,0.003344182,0.03701915,0.011591218411922455,-0.007291277404874563,-0.6056374311447144,-0.7956228852272034,74.55056321177811,0.018705368041992188,92,4.3787993e-05,1.1641532e-06,4.380346824723867e-05,3.3272772e-05,-6.4671374e-05,7.27287011978838e-05,-1.2786678e-05,4.189564e-05,-5.347107e-05,-4.9298164e-05,4.043401718139648,104.5136947631836
1779201984.9033952,3.166830539703369,hold-xy,5000,7.629510948348211,8.461968e-05,-0.00027891778,0.0,0.0069321226,0.0033261897,0.037037097,0.011297401040792465,-0.006257661618292332,-0.6056506633758545,-0.7956258654594421,74.55158533163541,0.007301807403564453,93,2.1304004e-05,-1.6828068e-05,2.7148562125676517e-05,-4.962656e-05,-0.000103620274,0.00011489106441865666,1.0545317e-05,2.5016809e-05,-0.0001130956,2.0232183e-05,4.043401718139648,104.5488052368164
1779201984.9640975,3.2275328636169434,hold-xy,6000,9.155413138017853,2.4144058e-05,0.0006117824,0.0,0.0069421874,0.0033809738,0.036973514,0.011826397851109505,-0.007062290795147419,-0.6056001782417297,-0.7956498265266418,74.54483814360627,0.006964921951293945,94,3.1368807e-05,3.795605e-05,4.924087758269082e-05,1.4728645e-05,0.00019672283,0.00019727342897091923,-4.4942823e-05,2.0119802e-05,0.00019353416,3.8227474e-05,4.043401718139648,104.5488052368164
1779201985.0659947,3.329430103302002,hold-xy,6000,9.155413138017853,0.00026287127,0.0002963172,0.0,0.006956408,0.0033580512,0.037001263,0.011296954937279224,-0.005696701817214489,-0.605488657951355,-0.7957533597946167,74.52778214767638,0.007079362869262695,95,4.558917e-05,1.5033409e-05,4.800391674990814e-05,5.2223906e-05,7.014257e-05,8.744893178078898e-05,-2.6650468e-05,3.9926537e-05,8.1532424e-05,-3.1619296e-05,4.043401718139648,104.59699249267578
1779201985.1277332,3.3911685943603516,hold-xy,7000,10.681315327687495,0.00038622107,0.00043521845,0.0,0.006967848,0.0033668093,0.036994927,0.011409173719584942,-0.006225962191820145,-0.6056582927703857,-0.7956187129020691,74.5526053980449,0.015987634658813477,96,5.7029538e-05,2.3791566e-05,6.17932595351894e-05,0.00010152163,9.8833596e-05,0.0001416852932696261,-3.8122125e-05,4.8632402e-05,0.00012230391,-7.152953e-05,4.043401718139648,104.61555480957031
1779201985.2099855,3.4734208583831787,hold-xy,7000,10.681315327687495,8.570626e-05,0.00038645492,0.0,0.006946843,0.0033748318,0.037016433,0.01156220119446516,-0.006425542291253805,-0.6055328249931335,-0.7957103848457336,74.53464206645633,0.005977153778076172,97,3.602449e-05,3.181398e-05,4.8061347938137184e-05,2.765475e-06,9.526906e-05,9.530919222691886e-05,-4.026819e-05,2.623673e-05,9.255698e-05,2.2738695e-05,4.043401718139648,104.58067321777344
1779201985.2928123,3.5562477111816406,hold-xy,8000,12.207217517357137,-9.1583155e-05,0.00026554166,0.0,0.0069305915,0.0033738557,0.036974758,0.012082677334547043,-0.007599555421620607,-0.6056581735610962,-0.7955968976020813,74.55364665961983,0.00774073600769043,98,1.977291e-05,3.0837953e-05,3.663259777865453e-05,-5.820822e-05,6.307625e-05,8.583012450715058e-05,-3.499033e-05,1.084546e-05,4.5295008e-05,7.2905226e-05,4.043401718139648,104.58067321777344
1779201985.3742867,3.6377220153808594,hold-xy,9000,13.733119707026779,-0.00021662835,0.00018892957,0.0,0.0069172056,0.00337365,0.03701139,0.011615539900958538,-0.007290547713637352,-0.6056817770004272,-0.7955889105796814,74.55694094669963,0.01549220085144043,99,6.38701e-06,3.063213e-05,3.1290914648849315e-05,-9.5216936e-05,4.3315824e-05,0.00010460652941583937,-3.122691e-05,-2.0003317e-06,1.6397507e-05,0.000103313345,4.03812313079834,104.54536437988281
1779201985.4765975,3.740032911300659,hold-xy,10000,15.259021896696423,6.6111534e-05,0.0005674276,0.0,0.0069457935,0.0034021763,0.036974754,0.01183326356112957,-0.007173359394073486,-0.6056697368621826,-0.7955958247184753,74.55497148636053,0.018807172775268555,100,3.4974888e-05,5.915854e-05,6.872390987306053e-05,1.998165e-05,0.00011676831,0.00011846562225796984,-6.6336404e-05,1.7957089e-05,0.00011787277,1.1836959e-05,4.032844543457031,104.52008819580078
1779201985.5580595,3.8214948177337646,hold-xy,10000,15.259021896696423,0.0005564941,0.000260984,0.0,0.0069790687,0.0033727903,0.03702094,0.011283859610557556,-0.006425900384783745,-0.605648398399353,-0.7956264615058899,74.55141859546615,0.0159149169921875,101,6.825011e-05,2.977252e-05,7.446127096967814e-05,0.00013232829,-2.277163e-05,0.00013427331757156615,-4.6876856e-05,5.7853613e-05,1.3299859e-05,-0.00013361302,4.027565956115723,104.52304077148438
1779201985.6398997,3.9033350944519043,hold-xy,11000,16.784924086366065,6.7538786e-05,0.00042334734,0.0,0.006948773,0.0033965223,0.036977846,0.012046363204717636,-0.0075821420177817345,-0.605559766292572,-0.7956724762916565,74.53946945374412,0.0055217742919921875,102,3.795419e-05,5.3504482e-05,6.559916310915314e-05,-5.9112426e-06,6.125085e-05,6.153543444608806e-05,-6.1686005e-05,2.231786e-05,5.7458663e-05,2.2025255e-05,4.027565956115723,104.45257568359375
1779201985.7438939,4.007329225540161,hold-xy,12000,18.310826276035705,-0.00033534435,0.00025341395,0.0,0.006909013,0.0033947285,0.036979873,0.011816163547337055,-0.007095458917319775,-0.6057050824165344,-0.7955699563026428,74.55999144250598,0.009478330612182617,103,-1.8058345e-06,5.1710755e-05,5.1742275538473216e-05,-0.00012337315,3.7496437e-05,0.00012894540213718655,-4.9363734e-05,-1.5507578e-05,3.2976386e-06,0.00012890322,4.022287368774414,104.4018783569336
1779201985.8458989,4.109334230422974,hold-xy,12000,18.310826276035705,0.0001167946,0.00011098475,0.0,0.0069373976,0.0033741174,0.03697645,0.011925505474209785,-0.007706096395850182,-0.6056355237960815,-0.7956154942512512,74.55058680349602,0.017889738082885742,104,2.6579015e-05,3.1099655e-05,4.091005458158652e-05,4.6221103e-06,-3.981823e-05,4.008560123653812e-05,-3.7056216e-05,1.733405e-05,-3.7148166e-05,-1.5062173e-05,4.011730194091797,104.3743667602539
1779201985.9272037,4.190639019012451,hold-xy,12000,18.310826276035705,0.00012703922,0.00035001876,0.0,0.006944105,0.003391968,0.036982294,0.011838370934128761,-0.006182089447975159,-0.6053916811943054,-0.7958155870437622,74.51396898164904,0.005560398101806641,105,3.32864e-05,4.8950315e-05,5.9195590078527204e-05,2.472567e-05,2.9320037e-05,3.8353923061274216e-05,-5.6060784e-05,1.9008057e-05,3.485743e-05,-1.5999469e-05,4.0170087814331055,104.33147430419922
1779201986.0289876,4.2924230098724365,hold-xy,13000,19.83672846570535,0.00014656958,0.00026947146,0.0,0.0069451556,0.003386302,0.03703716,0.011442853137850761,-0.006105407606810331,-0.6055083870887756,-0.7957332730293274,74.53089406303178,0.015091419219970703,106,3.4336932e-05,4.3284148e-05,5.524981847065127e-05,2.0724223e-05,2.0980624e-06,2.0830153163523126e-05,-5.0874456e-05,2.1548363e-05,7.5495973e-06,-1.9413883e-05,4.011730194091797,104.31926727294922
1779201986.110617,4.374052286148071,hold-xy,13000,19.83672846570535,-0.00020816576,-0.00017209034,0.0,0.0069061313,0.0033575175,0.03700009,0.011997614055871964,-0.008316117338836193,-0.605712354183197,-0.795549750328064,74.56236035268785,0.0038208961486816406,107,-4.6873465e-06,1.4499761e-05,1.5238578984405376e-05,-0.00011151359,-9.148437e-05,0.00014423824037603086,-1.2728899e-05,-8.377913e-06,-0.000117867414,8.31381e-05,4.006451606750488,104.26593017578125
1779201986.2159858,4.479421138763428,hold-xy,14000,21.36263065537499,0.00029633494,0.00019229148,0.0,0.0069508664,0.0033715498,0.037035402,0.011345205828547478,-0.006574891973286867,-0.605642557144165,-0.7956287860870361,74.55068831790065,0.017497777938842773,108,4.0047802e-05,2.8531998e-05,4.917216117505866e-05,6.830602e-05,-1.8128045e-05,7.067063234665632e-05,-3.81692e-05,3.1000214e-05,7.2273724e-07,-7.066694e-05,4.00117301940918,104.21704864501953
1779201986.2987874,4.562222719192505,hold-xy,15000,22.888532845044633,0.00020279706,0.00059147435,0.0,0.0069558388,0.0034062024,0.036999755,0.01161007210612297,-0.006564852315932512,-0.605600118637085,-0.7956573963165283,74.54444291523592,0.00809621810913086,109,4.5020133e-05,6.318465e-05,7.758293832845811e-05,6.3992615e-05,0.000100059195,0.00011877245886100776,-7.289718e-05,2.6553962e-05,0.00011349424,-3.5013625e-05,4.00117301940918,104.21704864501953
1779201986.3898568,4.653292179107666,hold-xy,15000,22.888532845044633,-9.1339396e-05,0.00046412906,0.0,0.0069328174,0.003407496,0.037007768,0.01163250021636486,-0.006311281118541956,-0.605593204498291,-0.795664370059967,74.5432035642541,0.014901876449584961,110,2.199877e-05,6.4478256e-05,6.812775698142845e-05,-3.7166927e-05,7.4647e-05,8.338798180295784e-05,-6.800912e-05,4.0189043e-06,6.204173e-05,5.571696e-05,4.00117301940918,104.17721557617188
1779201986.474288,4.737723350524902,hold-xy,16000,24.414435034714273,6.792821e-05,-9.0513e-05,0.0,0.006931469,0.0033642855,0.037018787,0.012026413343846798,-0.007715159561485052,-0.6055880784988403,-0.7956500053405762,74.5437111118733,0.017336130142211914,111,2.0650215e-05,2.1267682e-05,2.9643644973706486e-05,-3.0950774e-05,-0.0001058405,0.00011027312752704213,-2.6001864e-05,1.4235476e-05,-0.00011026116,1.6245813e-06,3.995894432067871,104.11627960205078
1779201986.5553327,4.81876802444458,hold-xy,16000,24.414435034714273,0.0007221231,-7.5472744e-05,0.0,0.006982196,0.0033458928,0.037037693,0.010930448770523071,-0.007156081032007933,-0.6055956482887268,-0.7956652641296387,74.54471674370554,0.014381647109985352,112,7.137749e-05,2.8749928e-06,7.143536792729415e-05,0.00015950513,-0.00013977718,0.00021208382953603002,-2.179215e-05,6.803025e-05,-9.2216746e-05,-0.00019098593,3.9906158447265625,104.03070831298828
1779201986.6370394,4.900474786758423,hold-xy,17000,25.940337224383917,0.0011820458,-0.0009017498,0.0,0.0070100743,0.0032584192,0.037060607,0.009776470251381397,-0.0073045725002884865,-0.605807900428772,-0.7955173254013062,74.57598937243179,0.0031909942626953125,113,9.92557e-05,-8.459855e-05,0.00013041706035572969,0.0002016826,-0.00038032836,0.00043049452110077865,5.5153585e-05,0.000118180746,-0.00031299095,-0.000295571,3.985337257385254,103.9561767578125
1779201986.7587938,5.022229194641113,hold-xy,17000,25.940337224383917,0.00026235223,-0.00014659646,0.0,0.0069555063,0.0033303099,0.037082944,0.010524467565119267,-0.005932615138590336,-0.6055197715759277,-0.7957385182380676,74.53278834518565,0.01283407211303711,114,4.468765e-05,-1.27078965e-05,4.6459409495653414e-05,-4.841466e-06,-7.385682e-05,7.40153351526996e-05,3.3004744e-07,4.6458237e-05,-7.2473114e-05,-1.5030521e-05,3.9747800827026367,103.95064544677734
1779201986.8199902,5.083425521850586,hold-xy,18000,27.466239414053558,0.0014085325,-0.0002890567,0.0,0.0070358766,0.0032935273,0.03706003,0.010352816432714462,-0.008168047294020653,-0.6056123971939087,-0.7956505417823792,74.54861235506978,0.0011982917785644531,115,0.000125058,-4.949048e-05,0.00013449464840473206,0.00032766146,-0.00020320954,0.0003855595176086702,1.4383702e-05,0.0001337233,-0.000108569104,-0.00036995797,3.9747800827026367,103.85490417480469
1779201986.9116313,5.175066709518433,hold-xy,18000,27.466239414053558,0.0025253342,-0.00054202165,0.0,0.0071342774,0.003239451,0.037097137,0.008118437603116035,-0.00525785144418478,-0.6057249903678894,-0.7956152558326721,74.56272420624052,0.010141611099243164,116,0.00022345874,-0.000103566796,0.0002462922920201727,0.0005863278,-0.0003384173,0.000676983436382844,4.0349376e-05,0.00024296464,-0.00017013738,-0.0006552555,3.969501495361328,103.79838562011719
1779201987.0136516,5.277086973190308,hold-xy,18000,27.466239414053558,0.0018168892,-0.00080190005,0.0,0.0070991684,0.0032161968,0.03709438,0.008674798533320427,-0.005531903821974993,-0.6056482195854187,-0.7956660985946655,74.55169087283883,0.018522024154663086,117,0.00018834975,-0.00012682099,0.000227066489589858,0.0002979485,-0.00031139306,0.00043097442485971646,7.2068586e-05,0.00021532606,-0.00022077857,-0.00037012942,3.969501495361328,103.74454498291016
1779201987.0960517,5.359487056732178,hold-xy,19000,28.9921416037232,0.0012334147,-0.00049203547,0.0,0.0070731062,0.0032392824,0.037087385,0.008490822277963161,-0.0051908716559410095,-0.6055253148078918,-0.7957638502120972,74.53378342840138,0.009490489959716797,118,0.00016228762,-0.000103735365,0.00019260917940416313,0.00012305044,-0.00014222795,0.00018806966585273042,5.670162e-05,0.00018407396,-0.000104263694,-0.00015652247,3.969501495361328,103.74454498291016
1779201987.1989074,5.462342739105225,hold-xy,19000,28.9921416037232,0.001227465,-0.0002958513,0.0,0.007083673,0.003248535,0.037069466,0.009272854775190353,-0.007124649360775948,-0.6055904626846313,-0.7956905364990234,74.54468595874862,0.018689870834350586,119,0.0001728544,-9.4482675e-05,0.0001969914212615681,0.000119982855,-6.9921334e-05,0.00013887000286151975,4.5002642e-05,0.00019178212,-3.541904e-05,-0.00013427722,3.958944320678711,103.72112274169922
1779201987.280082,5.543517351150513,hold-xy,20000,30.518043793392845,0.0017925664,-0.00033693024,0.0,0.0071368683,0.003228208,0.037072763,0.00800360832363367,-0.005293531809002161,-0.605739176273346,-0.7956054210662842,74.56483668589681,0.005994558334350586,120,0.00022604968,-0.00011480972,0.000253534478443461,0.00025399541,-0.00011390839,0.00027836808773933053,5.0506183e-05,0.00024845294,-4.2199666e-05,-0.00027515084,3.958944320678711,103.65603637695312
1779201987.3860989,5.649534225463867,hold-xy,20000,30.518043793392845,0.0015404732,-0.00034899957,0.0,0.0071280356,0.003226974,0.037067655,0.008327852934598923,-0.0058167725801467896,-0.6056683659553528,-0.7956523299217224,74.55496489351751,0.005553245544433594,121,0.00021721702,-0.000116043724,0.00024627095683715555,0.00015290627,-8.32133e-05,0.00017408268921201807,5.4005068e-05,0.00024027658,-3.9487117e-05,-0.00016954512,3.9483871459960938,103.63925170898438
1779201987.470501,5.733936309814453,hold-xy,20000,30.518043793392845,0.0014312796,-0.0005872554,0.0,0.0071221944,0.003207988,0.03708133,0.008456767536699772,-0.006427469663321972,-0.6055865287780762,-0.7957085967063904,74.54371196475168,0.016843557357788086,122,0.00021137577,-0.00013502967,0.00025082409313241077,8.306593e-05,-0.00013615444,0.00015949288576871322,7.381389e-05,0.00023971699,-0.000109092965,-0.00011634735,3.9483871459960938,103.58157348632812
1779201987.551407,5.814842462539673,hold-xy,20000,30.518043793392845,0.0027215125,-0.0016099405,0.0,0.007204474,0.0030942438,0.037114393,0.00680837407708168,-0.006292903795838356,-0.605582594871521,-0.7957284450531006,74.5436196723608,0.016747236251831055,123,0.00029365532,-0.00024877395,0.0003848661159002915,0.00036287593,-0.0005165704,0.0006312875123073249,0.00016151619,0.0003493343,-0.00040117977,-0.00048742045,3.9483871459960938,103.52977752685547
1779201987.6331582,5.8965935707092285,hold-xy,21000,32.043945983062486,0.002085916,-0.0011336689,0.0,0.0071828365,0.0031200862,0.03712386,0.006934732664376497,-0.0062896073795855045,-0.6057488918304443,-0.7956008315086365,74.567524554935,0.016888856887817383,124,0.0002720179,-0.00022293162,0.0003516990841319307,0.00017447305,-0.00026660174,0.000318617842648036,0.00014250912,0.0003215329,-0.00021056164,-0.00023912577,3.9483871459960938,103.4716796875
1779201987.7145662,5.978001594543457,hold-xy,21000,32.043945983062486,0.0016379345,-0.0011619598,0.0,0.007155597,0.0031145113,0.0371293,0.007344723679125309,-0.006502552889287472,-0.6055507063865662,-0.7957462072372437,74.53905296041206,0.016271591186523438,125,0.00024477858,-0.00022850651,0.00033486083589644855,2.2505796e-05,-0.00020701089,0.000208230684094533,0.00015498395,0.00029683622,-0.00019352003,-7.687664e-05,3.9378299713134766,103.41444396972656
1779201987.7970982,6.06053352355957,hold-xy,21000,32.043945983062486,0.003056641,-0.0012446258,0.0,0.0072655138,0.003067541,0.037140235,0.006667511072009802,-0.007411715108901262,-0.6057036519050598,-0.7956278920173645,74.5623933002276,0.017390966415405273,126,0.00035469513,-0.00027547684,0.00044910591700722194,0.00042078947,-0.00031799023,0.0005274292120998203,0.00017112198,0.0004152269,-0.00019450794,-0.0004902532,3.9378299713134766,103.41444396972656
1779201987.898741,6.1621763706207275,hold-xy,22000,33.56984817273213,0.0027329195,-0.0012757253,0.0,0.0072592087,0.0030550873,0.037163258,0.006547779310494661,-0.007203134708106518,-0.605555534362793,-0.7957435250282288,74.54084549226735,0.016948223114013672,127,0.00034839008,-0.00028793048,0.0004519730251304355,0.0002760239,-0.0002591908,0.0003786410756588793,0.0001846495,0.00041253382,-0.00017623891,-0.00033512522,3.9378299713134766,103.37175750732422
1779201987.9817886,6.2452239990234375,hold-xy,22000,33.56984817273213,0.0020220957,-0.00086645526,0.0,0.0072260518,0.0030897874,0.037141826,0.007386194076389074,-0.007838540710508823,-0.6056886315345764,-0.7956288456916809,74.5604964680365,0.018510818481445312,128,0.00031523313,-0.00025323033,0.00040434828051760774,7.114418e-05,-5.3679483e-05,8.91234053643321e-05,0.00016017017,0.0003712722,-3.2802243e-05,-8.286733e-05,3.9272727966308594,103.31510925292969
1779201988.086024,6.349459409713745,hold-xy,23000,35.09575036240177,0.002432738,-0.0010681973,0.0,0.007262673,0.003057723,0.0371638,0.006649083457887173,-0.00827466044574976,-0.6055777072906494,-0.7957153916358948,74.54542283222594,0.013565778732299805,129,0.0003518546,-0.00028529484,0.0004529843203569151,0.00015042737,-0.00012568072,0.0001960204931443487,0.00018121893,0.000415156,-8.105132e-05,-0.0001784789,3.9272727966308594,103.30889892578125
1779201988.1910903,6.454525709152222,hold-xy,23000,35.09575036240177,0.0018918877,-0.0011085065,0.0,0.0072220983,0.0030605383,0.037157074,0.0062711709178984165,-0.006050154101103544,-0.6057878136634827,-0.7955785393714905,74.57311328370052,0.016404390335083008,130,0.00031127967,-0.00028247945,0.0004203447006227556,-1.3773082e-05,-7.971439e-05,8.089549602339638e-05,0.00018949885,0.0003752064,-8.050609e-05,-7.927858e-06,3.9272727966308594,103.26941680908203
1779201988.2780025,6.541437864303589,hold-xy,23000,35.09575036240177,0.0017173497,-0.0005434605,0.0,0.007219853,0.0031068828,0.03716236,0.006976020522415638,-0.006509444676339626,-0.6057422757148743,-0.7956036925315857,74.56678750406937,0.014020442962646484,131,0.00030903425,-0.00023613498,0.00038892402957727977,-1.7184888e-05,9.989925e-05,0.00010136656163700573,0.00014538164,0.00036072993,9.172386e-05,4.3149907e-05,3.916715621948242,103.26055908203125
1779201988.3401704,6.6036057472229,hold-xy,23000,35.09575036240177,0.0012958839,-0.00043670944,0.0,0.007190831,0.0031274166,0.037131537,0.0067821103148162365,-0.006313454359769821,-0.6056583523750305,-0.7956708073616028,74.55456049253078,0.004595756530761719,132,0.00028001238,-0.00021560118,0.0003533989296485966,-0.00013364208,0.00015597387,0.0002053973118508172,0.00013324156,0.00032731862,0.00011474916,0.00017035459,3.916715621948242,103.199462890625
1779201988.4210975,6.684532880783081,hold-xy,24000,36.62165255207141,0.001852973,-0.0008197771,0.0,0.007219459,0.003093115,0.03714996,0.006468889769166708,-0.006086141336709261,-0.6055232286453247,-0.7957780957221985,74.53497622063283,0.00418853759765625,133,0.0003086403,-0.00024990272,0.0003971274405116626,1.2044031e-05,-1.7338796e-05,2.1111431463334622e-05,0.00015855563,0.00036410207,-1.3499475e-05,-1.6231348e-05,3.906158447265625,103.25432586669922
1779201988.5230682,6.786503553390503,hold-xy,24000,36.62165255207141,0.0032200315,-0.0013589319,0.0,0.0073219426,0.003015413,0.037168182,0.005690303165465593,-0.007799467071890831,-0.6054276823997498,-0.7958417534828186,74.52352441908498,0.014131546020507812,134,0.00041112397,-0.00032760482,0.0005256879621082234,0.00034251626,-0.00026543744,0.0004333294569223121,0.00020602049,0.0004836356,-0.00016441476,-0.0004009267,3.906158447265625,103.20044708251953
1779201988.5843072,6.847742557525635,hold-xy,24000,36.62165255207141,0.0017298288,-0.00050367194,0.0,0.007254146,0.0030873092,0.037154227,0.0065880101174116135,-0.007913149893283844,-0.6054949760437012,-0.7957825660705566,74.53302764385585,0.014043807983398438,135,0.0003433274,-0.00025570858,0.0004280894719935155,-9.1887894e-05,0.00016589802,0.00018964581342740375,0.00015488837,0.00039908668,0.00013538498,0.00013280226,3.906158447265625,103.20044708251953
1779201988.6674428,6.930878162384033,hold-xy,24000,36.62165255207141,0.00091556594,0.00032443815,0.0,0.007204148,0.0031773262,0.03713571,0.0071371132507920265,-0.005914317909628153,-0.6053996682167053,-0.7958676218986511,74.51678571667372,0.01589369773864746,136,0.00029332936,-0.0001656916,0.00033689141057314246,-0.0002488486,0.000448353,0.0005127826354030925,8.137239e-05,0.00032691643,0.00036565005,0.00035950812,3.906158447265625,103.1268081665039
1779201988.7381666,7.001601934432983,hold-xy,24000,36.62165255207141,0.002559202,-0.0011952068,0.0,0.007286122,0.0030470882,0.037160095,0.00586343090981245,-0.006380528677254915,-0.6053476929664612,-0.7959139943122864,74.5102084599837,0.0071489810943603516,137,0.00037530344,-0.0002959296,0.00047794038583952314,0.0001352648,-0.000177812,0.00022341368175343178,0.00018494982,0.00044070464,-0.00013522881,-0.00017783939,3.906158447265625,103.12281799316406
1779201988.8033054,7.0667407512664795,hold-xy,25000,38.147554741741054,0.0018264683,-0.0004597226,0.0,0.0072540175,0.0031069955,0.037166756,0.006704330909997225,-0.007008024957031012,-0.6055667400360107,-0.7957354187965393,74.54216634089708,0.00027632713317871094,138,0.0003431989,-0.00023602229,0.0004165237059964753,-3.9062303e-05,0.00012510571,0.0001310622109360304,0.00013601212,0.00039369112,0.000110169,7.0993614e-05,3.906158447265625,103.12167358398438
1779201988.8880181,7.151453495025635,hold-xy,25000,38.147554741741054,0.0044675614,-0.0021580437,0.0,0.007412644,0.002933126,0.037248027,0.004109733738005161,-0.0066395532339811325,-0.605423629283905,-0.7958650588989258,74.52198817551523,0.010351896286010742,139,0.0005018255,-0.00040989183,0.0006479506860719697,0.00061024714,-0.000611285,0.0008637539555507949,0.00026110484,0.000593013,-0.0004262597,-0.00075124804,3.906158447265625,103.12167358398438
1779201989.009761,7.273196458816528,hold-xy,25000,38.147554741741054,0.0033026382,-0.0011448672,0.0,0.0073656198,0.0030223196,0.037200056,0.00529816560447216,-0.007883966900408268,-0.605508029460907,-0.7957825660705566,74.53535706036257,0.01948714256286621,140,0.00045480113,-0.00032069813,0.000556499199262383,0.0003018947,-0.00019027713,0.0003568554324696465,0.00018781747,0.0005238473,-0.00010288987,-0.00034170086,3.895601272583008,103.04585266113281
1779201989.0923986,7.355834007263184,hold-xy,25000,38.147554741741054,0.0031741243,-0.00060294726,0.0,0.0073820055,0.0030582473,0.03725058,0.004785629920661449,-0.006954302079975605,-0.6054872274398804,-0.7958102226257324,74.5313160576253,0.02002263069152832,141,0.00047118682,-0.0002847705,0.0005505554270908462,0.00027119942,-1.9148283e-06,0.0002712061771510746,0.00014878408,0.00053007033,7.0486574e-05,-0.0002618863,3.895601272583008,103.04585266113281
1779201989.1736479,7.4370832443237305,hold-xy,25000,38.147554741741054,0.0020204883,0.00019870771,0.0,0.007321801,0.0031465404,0.037176218,0.005798394326120615,-0.006043706554919481,-0.6053741574287415,-0.7958969473838806,74.51368636419788,0.01811695098876953,142,0.0004109824,-0.0001964774,0.00045553256003559096,-2.736134e-05,0.0003171968,0.00031837470479542657,7.960847e-05,0.00044852248,0.00029837503,0.00011106211,3.895601272583008,103.02218627929688
1779201989.2571886,7.5206239223480225,hold-xy,25000,38.147554741741054,0.0029358873,6.80669e-05,0.0,0.0073937,0.003130869,0.03721255,0.0050608632154762745,-0.006502731703221798,-0.6052234172821045,-0.7960130572319031,74.49271199189218,0.01008749008178711,143,0.00048288144,-0.00021214876,0.0005274292120998203,0.00021640104,0.00017069558,0.00027562001108671224,7.5322154e-05,0.0005220231,0.00022233884,-0.00016288593,3.895601272583008,102.93588256835938
1779201989.3610036,7.624439001083374,hold-xy,25000,38.147554741741054,0.0035121948,-0.00031432856,0.0,0.0074451324,0.003093685,0.037248585,0.004479265306144953,-0.006849866826087236,-0.6050959229469299,-0.7961105108261108,74.47494823295644,0.01906275749206543,144,0.00053431373,-0.00024933275,0.0005896252943450687,0.00031417282,1.865461e-06,0.00031417836117157916,9.722123e-05,0.0005815548,8.5888794e-05,-0.00030221045,3.895601272583008,102.86771392822266
1779201989.4462614,7.7096967697143555,hold-xy,26000,39.6734569314107,0.003776195,-0.0007616059,0.0,0.0074738525,0.0030496102,0.037261046,0.00455991318449378,-0.007816355675458908,-0.6053855419158936,-0.795880913734436,74.51788434453766,0.009041547775268555,145,0.00056303386,-0.0002934076,0.0006348977533848418,0.00031035056,-0.00013747037,0.0003394341915859448,0.00013246604,0.000620925,-4.9637863e-05,-0.00033578512,3.890322685241699,102.91593170166016
1779201989.5328932,7.796328544616699,hold-xy,27000,41.19935912108034,0.0036295042,-6.166013e-05,0.0,0.007493086,0.0031019682,0.03726707,0.004560491070151329,-0.007032623048871756,-0.6050812602043152,-0.7961196303367615,74.4730374929772,0.010006189346313477,146,0.00058226753,-0.00024104957,0.0006301907285735795,0.0002846003,8.712468e-05,0.00029763742748252107,7.638411e-05,0.0006255444,0.0001601302,-0.00025089114,3.8850440979003906,102.91093444824219
1779201989.6351073,7.898542642593384,hold-xy,28000,42.72526131074998,0.0042802263,-0.00013102619,0.0,0.0075607877,0.0030853692,0.037273087,0.0038500174414366484,-0.006110162008553743,-0.6048808693885803,-0.7962832450866699,74.44332965977357,0.019899368286132812,147,0.0006499691,-0.00025764853,0.000699172798350569,0.0004192188,7.048373e-06,0.0004192780352651121,7.389365e-05,0.00069525704,0.000119221026,-0.00040197067,3.8744869232177734,102.84153747558594
1779201989.7231965,7.986631870269775,hold-xy,28000,42.72526131074998,0.0046356283,0.0004197191,0.0,0.0076246895,0.0031229071,0.037272267,0.004255190491676331,-0.006697188597172499,-0.604503333568573,-0.7965630888938904,74.3895558425955,0.016986370086669922,148,0.00071387086,-0.00022011064,0.0007470343129107141,0.00050411315,0.00012868212,0.0005202779607315995,1.9892192e-05,0.0007467695,0.00025959002,-0.00045089045,3.8639297485351562,102.73416900634766
1779201989.8248444,8.088279724121094,hold-xy,29000,44.25116350041962,0.0061939848,-0.0003229396,0.0,0.007775128,0.0030237231,0.037321087,0.0030814812052994967,-0.0052785794250667095,-0.6045237183570862,-0.7965636849403381,74.39129001909228,0.012612581253051758,149,0.00086430926,-0.00031929463,0.0009214008569098605,0.00077856134,-0.00019057462,0.0008015462784496654,7.496313e-05,0.0009183464,2.5938032e-05,-0.0008011265,3.853372573852539,102.75215911865234
1779201989.8656003,8.129035711288452,hold-xy,29000,44.25116350041962,0.0071057607,0.00056745065,0.0,0.007869367,0.0030530747,0.03737175,0.003367852186784148,-0.007213349919766188,-0.6042507290840149,-0.7967544794082642,74.35413666905912,0.0025560855865478516,150,0.0009585479,-0.00028994307,0.0010014395453563942,0.0011013837,3.989121e-05,0.001102105864465171,2.0688312e-05,0.0010012258,0.0003354461,-0.0010498159,3.853372573852539,102.75215911865234
1779201989.9467854,8.21022081375122,hold-xy,29000,44.25116350041962,0.012618387,0.002321757,0.0,0.008389445,0.003070944,0.037318893,0.004816059023141861,-0.0112639544531703,-0.6040446758270264,-0.7968562841415405,74.33081676963054,0.002509593963623047,151,0.0014786264,-0.00027207378,0.0015034494117636017,0.0026916934,9.3917704e-05,0.0026933313553385587,-0.00013738856,0.0014971588,0.0008174071,-0.0025662968,3.853372573852539,102.69696807861328
1779201990.0486856,8.312120914459229,hold-xy,29000,44.25116350041962,0.017486595,0.00455361,0.0,0.008994073,0.0031458559,0.037343584,0.00473452266305685,-0.013605733402073383,-0.6032347083091736,-0.797433614730835,74.21979915389853,0.010941028594970703,152,0.002083254,-0.00019716192,0.0020925630204606327,0.0038248175,0.0003061819,0.0038370529994203114,-0.00037680485,0.0020583582,0.0013347929,-0.0035974025,3.853372573852539,102.66695404052734
1779201990.1307175,8.394152879714966,hold-xy,29000,44.25116350041962,0.016404787,0.008017342,0.0,0.009185564,0.0034738295,0.037323885,0.004235459491610527,-0.012640898115932941,-0.6023967862129211,-0.7980853915214539,74.0973187176899,0.0007078647613525391,153,0.0022747451,0.0001308117,0.00227850328108451,0.0033000053,0.0012807334,0.003539818235818547,-0.0007490951,0.0021518443,0.0021359331,-0.0028227828,3.853372573852539,102.57611846923828
1779201990.232569,8.496004343032837,hold-xy,29000,44.25116350041962,0.025948163,0.008513201,0.0,0.01010404,0.0033600125,0.037608817,-0.00027012440841645,-0.010803328827023506,-0.6019724011421204,-0.7984437942504883,74.0341462235647,0.020342111587524414,154,0.003193221,1.6994774e-05,0.0031932663395891326,0.0056614038,0.00048121004,0.005681818062757056,-0.0008946808,0.0030653703,0.0020198985,-0.0053106556,3.853372573852539,102.51493072509766
1779201990.3366132,8.600048542022705,hold-xy,29000,44.25116350041962,0.029549181,0.012919485,0.0,0.010888929,0.003703298,0.037429992,0.001986203482374549,-0.010926826857030392,-0.6019226908683777,-0.7984771132469177,74.02645209343817,0.010828971862792969,155,0.00397811,0.00036028028,0.003994391073970734,0.006036531,0.0012437515,0.006163329355172205,-0.0014411196,0.0037253636,0.0028569433,-0.0054611815,3.853372573852539,102.53948211669922
1779201990.418769,8.682204246520996,hold-xy,29000,44.25116350041962,0.03536751,0.018493433,0.0,0.011770977,0.00407493,0.037484515,0.000260552013060078,-0.0052152662537992,-0.6022183895111084,-0.7983143329620361,74.06051860016552,0.009437322616577148,156,0.004860158,0.00073191244,0.004914960050324402,0.0073928107,0.0022050745,0.007714661717908041,-0.002038478,0.004472297,0.004150522,-0.0065030125,3.8480939865112305,102.5393295288086
1779201990.5038269,8.76726222038269,hold-xy,29000,44.25116350041962,0.03304591,0.01957795,0.0,0.011979637,0.0043204455,0.03746746,0.0006679778452962637,-0.006638464517891407,-0.601710855960846,-0.798686146736145,73.98923869208993,0.009326934814453125,157,0.005068818,0.0009774277,0.005162197231261972,0.005909959,0.0024083636,0.0063818357532591675,-0.0023375838,0.004602606,0.0039450154,-0.0050164415,3.853372573852539,102.5393295288086
1779201990.6090972,8.872532606124878,hold-xy,29000,44.25116350041962,0.031711116,0.020108134,0.0,0.01219082,0.0045330757,0.03743085,0.0007850099354982376,-0.007059431169182062,-0.602586567401886,-0.7980219125747681,74.11546614431688,0.0193178653717041,158,0.005280001,0.001190058,0.0054124532072917985,0.004801909,0.002355349,0.005348457583531429,-0.00258975,0.004752667,0.003579691,-0.003973891,3.8480939865112305,102.58329772949219
1779201990.6918519,8.955287218093872,hold-xy,29000,44.25116350041962,0.031192267,0.020813666,0.0,0.012399842,0.0047151763,0.037455168,0.0005841266829520464,-0.007229529786854982,-0.6026694178581238,-0.7979579567909241,74.12764679059029,0.019977331161499023,159,0.0054890234,0.0013721585,0.0056579323133233,0.0041251658,0.0023141939,0.0047299561885845755,-0.0028210639,0.0049044667,0.003354174,-0.0033349665,3.8480939865112305,102.58329772949219
1779201990.7726548,9.03609013557434,hold-xy,30000,45.777065690089266,0.032412753,0.018074244,0.0,0.012635662,0.0045918357,0.037438203,0.0005215940182097256,-0.006005137227475643,-0.6034815907478333,-0.7973541617393494,74.2427665729472,0.017722606658935547,160,0.0057248436,0.0012488179,0.005859469373260889,0.0037393866,0.0011744356,0.00391947845860066,-0.0027565383,0.005170578,0.0021457765,-0.0032799318,3.8480939865112305,102.62397766113281
1779201990.8550282,9.118463516235352,hold-xy,30000,45.777065690089266,0.03248743,0.017560093,0.0,0.01280928,0.004617542,0.037373606,0.0008151038782671094,-0.006085026543587446,-0.604900598526001,-0.7962773442268372,74.44687452604863,0.018635034561157227,161,0.0058984617,0.0012745243,0.006034588838225603,0.003256962,0.00091677497,0.0033835303000701146,-0.0028094188,0.0053407326,0.0017564998,-0.0028918828,3.8375368118286133,102.58988952636719
1779201990.9191551,9.18259048461914,hold-xy,30000,45.777065690089266,0.03227068,0.015033472,0.0,0.012885673,0.0044867024,0.03741584,4.524911128100939e-05,-0.005036093760281801,-0.6048585772514343,-0.7963169813156128,74.43982841581538,0.01600933074951172,162,0.0059748543,0.0011436846,0.006083329616230308,0.0026231974,5.3722644e-05,0.0026237474897979913,-0.0027045237,0.005449078,0.00075542694,-0.0025126443,3.842815399169922,102.5900650024414
1779201990.9870148,9.250450134277344,hold-xy,30000,45.777065690089266,0.032362852,0.014218111,0.0,0.01299561,0.004429807,0.037441723,0.00025842408649623394,-0.005621984601020813,-0.605231523513794,-0.7960295677185059,74.49408394861499,0.009716033935546875,163,0.0060847914,0.0010867892,0.00618108365382494,0.0022810097,-0.00019257556,0.0022891244087642217,-0.0026739284,0.0055727824,0.00042423396,-0.0022494702,3.842815399169922,102.5900650024414
1779201991.0916448,9.355080127716064,hold-xy,30000,45.777065690089266,0.034401596,0.014410859,0.0,0.013311254,0.0043788003,0.03759642,-0.0006690871086902916,-0.005150076933205128,-0.6044421195983887,-0.7966321110725403,74.38013314283884,0.01004171371459961,164,0.006400435,0.0010357825,0.006483703935466934,0.0025045616,-0.00028150826,0.0025203324415090864,-0.0027208715,0.005885174,0.00040325068,-0.0024878634,3.8375368118286133,102.50514221191406
1779201991.1933532,9.456788539886475,hold-xy,30000,45.777065690089266,0.039027657,0.013532187,0.0,0.013839174,0.0041547418,0.03765886,-0.0013118473580107093,-0.006952914409339428,-0.6027647256851196,-0.7978876233100891,74.14135120215225,0.009305238723754883,165,0.0069283554,0.000811724,0.006975743993091746,0.0032991567,-0.0008531896,0.003407692388712885,-0.002674106,0.006442838,8.082797e-05,-0.0034067337,3.8375368118286133,102.40856170654297
1779201991.2758188,9.539254188537598,hold-xy,31000,47.30296787975891,0.043715637,0.011313137,0.0,0.014317116,0.0038226694,0.03750301,-0.000556137936655432,-0.00888828281313181,-0.6013567447662354,-0.7989310026168823,73.94216871298792,0.009579181671142578,166,0.007406297,0.00047965162,0.007421812640339105,0.0040538986,-0.0018092981,0.004439330280212209,-0.002509574,0.00698465,-0.00061736605,-0.004396193,3.8322582244873047,102.39049530029297
1779201991.3588583,9.622293710708618,hold-xy,31000,47.30296787975891,0.05227714,0.009095136,0.0,0.015124338,0.0033435188,0.037464466,-0.0002624987391754985,-0.01057177223265171,-0.5986459255218506,-0.8009439706802368,73.55697920871611,0.011497974395751953,167,0.008213519,5.0105155e-07,0.008213518928893168,0.0058229906,-0.0030384993,0.006568081512385165,-0.002325413,0.007877459,-0.0012659644,-0.006444923,3.826979637145996,102.46649169921875
1779201991.4609864,9.724421739578247,hold-xy,31000,47.30296787975891,0.067732036,0.0042202794,0.0,0.016672332,0.0023253756,0.038447022,-0.006443867459893227,-0.006292644422501326,-0.5972887277603149,-0.801975667476654,73.35661155995827,0.012045621871948242,168,0.009761513,-0.0010176422,0.009814414693273198,0.008647826,-0.005133859,0.01005690801253533,-0.001820825,0.009644031,-0.002441923,-0.009755943,3.826979637145996,102.43428802490234
1779201991.5658116,9.829246997833252,hold-xy,31000,47.30296787975891,0.0943061,-0.0040329704,0.0,0.019144604,0.00071746856,0.038696058,0.0015200251946225762,-0.004746575374156237,-0.5980516672134399,-0.8014421463012695,73.46291047999146,0.02405261993408203,169,0.012233785,-0.0026255492,0.012512354152093631,0.014044166,-0.008790654,0.016568469976793274,-0.00096523017,0.012475069,-0.0044295606,-0.015965374,3.826979637145996,102.41133117675781
1779201991.6501105,9.913545846939087,hold-xy,31000,47.30296787975891,0.12987995,-0.02013107,0.0,0.022489313,-0.0019245185,0.037889156,0.004961300175637007,-0.008687992580235004,-0.6001310348510742,-0.7998391389846802,73.76428636506915,0.015086889266967773,170,0.015578494,-0.0052675363,0.016444951522664234,0.02058969,-0.014651819,0.025270756796005236,0.0007018796,0.016429966,-0.008310836,-0.023865063,3.826979637145996,102.4908218383789
1779201991.7366529,10.000088214874268,hold-xy,32000,48.82887006942855,0.17394593,-0.033865668,0.0,0.026724823,-0.004802596,0.03719925,0.0052402568981051445,-0.010505513288080692,-0.5996662378311157,-0.8001641035079956,73.70070237561758,0.015642642974853516,171,0.019814003,-0.008145614,0.021423019232891305,0.02919012,-0.020297643,0.03555358427784137,0.0022573327,0.02130376,-0.011289503,-0.033713564,3.8111438751220703,102.56195831298828
1779201991.79754,10.060975313186646,hold-xy,32000,48.82887006942855,0.20417795,-0.030585233,0.0,0.030307828,-0.0062209554,0.038518127,0.004920847713947296,0.004687402863055468,-0.5974150896072388,-0.8019034266471863,73.37258676901224,0.0024938583374023438,172,0.02339701,-0.009563973,0.0252762658336364,0.03495174,-0.019955669,0.040247395524286494,0.0024690828,0.025155382,-0.009119909,-0.03920051,3.8111438751220703,102.56195831298828
1779201991.8795588,10.142994165420532,hold-xy,32000,48.82887006942855,0.23218566,-0.036432385,0.0,0.034053765,-0.008276888,0.040241282,0.004465397913008928,0.00020004356338176876,-0.597838819026947,-0.8016039133071899,73.43033244890395,0.0028035640716552734,173,0.027142946,-0.011619906,0.029525610950513707,0.03821965,-0.021517448,0.043860486071544726,0.0033967216,0.029329576,-0.00972439,-0.042768896,3.8111438751220703,102.45332336425781
1779201991.984843,10.248278379440308,hold-xy,32000,48.82887006942855,0.27206418,-0.048543334,0.0,0.039188232,-0.0113468915,0.043021034,0.004623034503310919,-0.00018140989413950592,-0.5995740294456482,-0.800305962562561,73.6785107533885,0.013482332229614258,174,0.032277413,-0.014689909,0.03546300480752723,0.04303548,-0.024797395,0.04966853502230516,0.005027091,0.035104886,-0.01170394,-0.04826988,3.8111438751220703,102.4636001586914
1779201992.07161,10.335045337677002,hold-xy,32000,48.82887006942855,0.3190625,-0.057071127,0.0,0.044901054,-0.014267653,0.046414796,0.004720640834420919,-0.002587823197245598,-0.6009276509284973,-0.7992852926254272,73.87273096580697,0.015516281127929688,175,0.037990235,-0.017610671,0.041873543879916424,0.05035127,-0.027699228,0.05746736079230611,0.006365019,0.041386954,-0.012623015,-0.056063864,3.816422462463379,102.44173431396484
1779201992.1747246,10.438159942626953,hold-xy,32000,48.82887006942855,0.35720256,-0.056586765,0.0,0.05103872,-0.01674994,0.050060082,0.0068144951947033405,-0.005575684364885092,-0.6005674004554749,-0.7995256781578064,73.82237022853559,0.016791820526123047,176,0.0441279,-0.020092959,0.048487097012818677,0.053326372,-0.026701843,0.05963799469836485,0.007002582,0.047978774,-0.010786929,-0.05865435,3.8111438751220703,102.57560729980469
1779201992.2621496,10.525584936141968,hold-xy,32000,48.82887006942855,0.39224198,-0.050064765,0.0,0.056951184,-0.018489351,0.0526269,0.012928850948810577,-0.0012755509233102202,-0.6002724170684814,-0.7996901273727417,73.77644494714274,0.010309457778930664,177,0.050040364,-0.02183237,0.054595699917449926,0.056216642,-0.024248078,0.061223200088258545,0.0069824094,0.05414736,-0.0075763594,-0.060752604,3.8111438751220703,102.67286682128906
1779201992.3668513,10.630286693572998,hold-xy,32000,48.82887006942855,0.43001652,-0.03570544,0.0,0.06344879,-0.019631919,0.054024767,0.007120257709175348,-0.006065073423087597,-0.5986626148223877,-0.8009466528892517,73.5499287008246,0.01971602439880371,178,0.056537967,-0.022974936,0.06102777436439063,0.059806835,-0.020570584,0.06324560256323392,0.0060240943,0.060729727,-0.0027924832,-0.063183926,3.8111438751220703,102.68270111083984
1779201992.450015,10.71345043182373,hold-xy,32000,48.82887006942855,0.45497698,-0.016631765,0.0,0.068756,-0.019780865,0.053696834,0.006675065029412508,-0.004247620236128569,-0.5980160236358643,-0.8014451861381531,73.45617164441425,0.02006363868713379,179,0.06184518,-0.023123883,0.06602681674554,0.06109007,-0.0149389645,0.06289013897962722,0.0045562703,0.06586942,0.0030747931,-0.06281493,3.8111438751220703,102.82027435302734
1779201992.5385127,10.801948070526123,hold-xy,32000,48.82887006942855,0.47823977,0.0072282776,0.0,0.0745304,-0.01913369,0.05167815,0.007471555378288031,-0.013330124318599701,-0.5979995727539062,-0.8013507723808289,73.46695533653839,0.014669179916381836,180,0.067619585,-0.022476709,0.07125735557592842,0.061213173,-0.0083894525,0.061785397578994095,0.0023050364,0.07122006,0.00937673,-0.061069734,3.8111438751220703,102.96988677978516
1779201992.6211348,10.884570121765137,hold-xy,32000,48.82887006942855,0.5068373,0.03311602,0.0,0.0803027,-0.018199163,0.048656028,0.008628275245428085,-0.008008821867406368,-0.5980142951011658,-0.8013989925384521,73.45873287866432,0.016052722930908203,181,0.073391885,-0.02154218,0.07648813178058209,0.06416535,-0.0024215628,0.06421102585828814,-0.00024444237,0.07648774,0.015946904,-0.06219929,3.8111438751220703,102.91092681884766
1779201992.708154,10.97158932685852,hold-xy,32000,48.82887006942855,0.53683877,0.058331016,0.0,0.08655119,-0.016925765,0.045303747,0.008598314598202705,-0.0022019636817276478,-0.5988206267356873,-0.8008341193199158,73.56992293884788,0.016652584075927734,182,0.07964037,-0.020268783,0.08217914906472344,0.06660703,0.0027254352,0.06666276628228099,-0.0030847602,0.08212123,0.021453608,-0.0631163,3.8111438751220703,102.83387756347656
1779201992.770827,11.034262418746948,hold-xy,32000,48.82887006942855,0.5632381,0.08676397,0.0,0.09228875,-0.015304711,0.04273131,0.010561026632785797,-0.006087191868573427,-0.5982792377471924,-0.8011949062347412,73.49368338460141,0.002031564712524414,183,0.08537793,-0.018647728,0.0873906671193835,0.068893984,0.00819957,0.06938021548960117,-0.00637844,0.087157585,0.027435884,-0.063725084,3.8111438751220703,102.83387756347656
1779201992.854068,11.11750340461731,hold-xy,32000,48.82887006942855,0.5930023,0.113837816,0.0,0.09856317,-0.013324466,0.041015998,0.010635551065206528,-0.0036618709564208984,-0.5997046232223511,-0.8001424074172974,73.69618862514042,0.004137992858886719,184,0.091652356,-0.016667483,0.09315556581406541,0.071425855,0.013061777,0.07261034864056487,-0.009732388,0.09264577,0.032587938,-0.06488674,3.8058650493621826,102.6656723022461
1779201992.935315,11.198750257492065,hold-xy,32000,48.82887006942855,0.6152257,0.13886909,0.0,0.10432219,-0.011168534,0.039343618,0.009925342164933681,-0.002933796960860491,-0.600378155708313,-0.7996492981910706,73.79270196427156,0.004047870635986328,185,0.09741137,-0.014511552,0.0984863477942353,0.07123942,0.017095096,0.07326184009103634,-0.013253985,0.09759043,0.036299583,-0.06363676,3.8111438751220703,102.5235595703125
1779201993.0019162,11.26535153388977,hold-xy,32000,48.82887006942855,0.6493788,0.17270365,0.0,0.1102487,-0.008721488,0.038899463,0.0070928302593529224,-0.0059939841739833355,-0.6014837026596069,-0.7988311052322388,73.9540500986841,0.006453037261962891,186,0.103337884,-0.012064505,0.10403975464425275,0.077563256,0.023402058,0.08101675858159783,-0.016968958,0.102646604,0.043929435,-0.0680729,3.8058650493621826,102.35482025146484
1779201993.1060035,11.369438886642456,hold-xy,32000,48.82887006942855,0.67151654,0.1946275,0.0,0.11725196,-0.005865276,0.039786402,0.010167371481657028,-0.001741330954246223,-0.602153480052948,-0.7983137369155884,74.04708408953327,0.002391815185546875,187,0.11034115,-0.009208294,0.11072470865115483,0.07372106,0.024304463,0.07762410103331889,-0.021473307,0.10862255,0.04363048,-0.064201884,3.8058650493621826,102.2199935913086
1779201993.1893225,11.452757835388184,hold-xy,32000,48.82887006942855,0.716738,0.23548782,0.0,0.124650374,-0.0028092861,0.04241666,0.005015222821384668,-0.006376507226377726,-0.6018267273902893,-0.7985855340957642,74.00436629997729,0.014081478118896484,188,0.11773956,-0.006152304,0.11790018726066871,0.082591,0.029812314,0.08780687368430617,-0.026530694,0.11487635,0.051417172,-0.07117809,3.8058650493621826,102.2199935913086
1779201993.2920287,11.555464029312134,hold-xy,32000,48.82887006942855,0.7390529,0.2615201,0.0,0.1318348,0.0002815351,0.045742117,0.0037579683121293783,0.0053536780178546906,-0.6002643704414368,-0.7997749447822571,73.7809527467474,0.015210151672363281,189,0.12492399,-0.0030614827,0.12496149692010705,0.079032265,0.02999708,0.08453356470862854,-0.03195292,0.12080723,0.05087775,-0.06750836,3.800586462020874,102.1917724609375
