wall_time_s,elapsed_s,phase_index,phase_name,phase_elapsed_s,roll_norm,pitch_norm,yaw_norm,thrust_norm,roll_deg,pitch_deg,yawrate_deg_s,thrust_raw,thrust_axis_seen,button_5,button_9,event_count,last_event_age_s,mocap_x,mocap_y,mocap_z,height_above_floor,mocap_qx,mocap_qy,mocap_qz,mocap_qw,mocap_age_s,mocap_frame_count,mocap_vx_m_s,mocap_vy_m_s,mocap_vz_m_s,horizontal_distance_from_start_m
1779121919.7787313,8.03233003616333,-1,preflight_wait,0.002518177032470703,0.0,0.0,0.0,0.0,0.0,0.0,0.0,0,0,0,0,1,8.032533407211304,,,,,,,,,,0,,,,
1779121919.7988813,8.052479982376099,-1,preflight_wait,0.022619962692260742,0.0,0.0,0.0,0.0,0.0,0.0,0.0,0,0,0,0,1,8.052639245986938,,,,,,,,,,0,,,,
1779121919.818816,8.072414636611938,-1,preflight_wait,0.042537689208984375,0.0,0.0,0.0,0.0,0.0,0.0,0.0,0,0,0,0,1,8.07256031036377,,,,,,,,,,0,,,,
1779121919.838871,8.092469692230225,-1,preflight_wait,0.06258797645568848,0.0,0.0,0.0,0.0,0.0,0.0,0.0,0,0,0,0,1,8.092612743377686,,,,,,,,,,0,,,,
1779121919.8588276,8.112426280975342,-1,preflight_wait,0.08257412910461426,0.0,0.0,0.0,0.0,0.0,0.0,0.0,0,0,0,0,1,8.112580060958862,,,,,,,,,,0,,,,
1779121919.8788166,8.132415294647217,-1,preflight_wait,0.10254406929016113,0.0,0.0,0.0,0.0,0.0,0.0,0.0,0,0,0,0,1,8.132564067840576,,,,,,,,,,0,,,,
1779121919.8988023,8.152400970458984,-1,preflight_wait,0.12251877784729004,0.0,0.0,0.0,0.0,0.0,0.0,0.0,0,0,0,0,1,8.152543067932129,,,,,,,,,,0,,,,
1779121919.9197567,8.173355340957642,-1,preflight_wait,0.14350271224975586,0.0,0.0,0.0,0.0,0.0,0.0,0.0,0,0,0,0,1,8.173510313034058,,,,,,,,,,0,,,,
1779121919.938776,8.19237470626831,-1,preflight_wait,0.16251182556152344,0.0,0.0,0.0,0.0,0.0,0.0,0.0,0,0,0,0,1,8.192521810531616,,,,,,,,,,0,,,,
1779121919.958809,8.21240758895874,-1,preflight_wait,0.18253207206726074,0.0,0.0,0.0,0.0,0.0,0.0,0.0,0,0,0,0,1,8.212554931640625,,,,,,,,,,0,,,,
1779121919.9788983,8.232496976852417,-1,preflight_wait,0.2026197910308838,0.0,0.0,0.0,0.0,0.0,0.0,0.0,0,0,0,0,1,8.232642412185669,,,,,,,,,,0,,,,
1779121919.998867,8.252465724945068,-1,preflight_wait,0.22259116172790527,0.0,0.0,0.0,0.0,0.0,0.0,0.0,0,0,0,0,1,8.252614498138428,,,,,,,,,,0,,,,
1779121920.0188189,8.272417545318604,-1,preflight_wait,0.24255800247192383,0.0,0.0,0.0,0.0,0.0,0.0,0.0,0,0,0,0,1,8.272568464279175,,,,,,,,,,0,,,,
1779121920.0388076,8.2924063205719,-1,preflight_wait,0.2625281810760498,0.0,0.0,0.0,0.0,0.0,0.0,0.0,0,0,0,0,1,8.292551040649414,,,,,,,,,,0,,,,
1779121920.0588803,8.312479019165039,-1,preflight_wait,0.28260064125061035,0.0,0.0,0.0,0.0,0.0,0.0,0.0,0,0,0,0,1,8.312623739242554,,,,,,,,,,0,,,,
1779121920.0788984,8.332497119903564,-1,preflight_wait,0.30262088775634766,0.0,0.0,0.0,0.0,0.0,0.0,0.0,0,0,0,0,1,8.332643747329712,,,,,,,,,,0,,,,
1779121920.0988975,8.352496147155762,-1,preflight_wait,0.3226196765899658,0.0,0.0,0.0,0.0,0.0,0.0,0.0,0,0,0,0,1,8.352642059326172,,,,,,,,,,0,,,,
1779121920.1188247,8.37242341041565,-1,preflight_wait,0.3425600528717041,0.0,0.0,0.0,0.0,0.0,0.0,0.0,0,0,0,0,1,8.37257194519043,,,,,,,,,,0,,,,
1779121920.1388354,8.392434120178223,-1,preflight_wait,0.36257243156433105,0.0,0.0,0.0,0.0,0.0,0.0,0.0,0,0,0,0,1,8.392584800720215,,,,,,,,,,0,,,,
1779121920.15886,8.412458658218384,-1,preflight_wait,0.38257837295532227,0.0,0.0,0.0,0.0,0.0,0.0,0.0,0,0,0,0,1,8.412602424621582,,,,,,,,,,0,,,,
1779121920.1788743,8.432472944259644,-1,preflight_wait,0.40259552001953125,0.0,0.0,0.0,0.0,0.0,0.0,0.0,0,0,0,0,1,8.432618141174316,,,,,,,,,,0,,,,
1779121920.1988904,8.452489137649536,-1,preflight_wait,0.42261242866516113,0.0,0.0,0.0,0.0,0.0,0.0,0.0,0,0,0,0,1,8.452635288238525,,,,,,,,,,0,,,,
1779121920.2188244,8.472423076629639,-1,preflight_wait,0.44256114959716797,0.0,0.0,0.0,0.0,0.0,0.0,0.0,0,0,0,0,1,8.472572803497314,,,,,,,,,,0,,,,
1779121920.238851,8.492449760437012,-1,preflight_wait,0.46259379386901855,0.0,0.0,0.0,0.0,0.0,0.0,0.0,0,0,0,0,1,8.492602348327637,,,,,,,,,,0,,,,
1779121920.2588792,8.51247787475586,-1,preflight_wait,0.4826035499572754,0.0,0.0,0.0,0.0,0.0,0.0,0.0,0,0,0,0,1,8.512624263763428,,,,,,,,,,0,,,,
1779121920.278868,8.532466650009155,-1,preflight_wait,0.5026264190673828,0.0,0.0,0.0,0.0,0.0,0.0,0.0,0,0,0,0,1,8.532618045806885,,,,,,,,,,0,,,,
1779121920.2989113,8.552510023117065,-1,preflight_wait,0.5226366519927979,0.0,0.0,0.0,0.0,0.0,0.0,0.0,0,0,0,0,1,8.552658319473267,,,,,,,,,,0,,,,
1779121920.318982,8.572580575942993,-1,preflight_wait,0.5427334308624268,0.0,0.0,0.0,0.0,0.0,0.0,0.0,0,0,0,0,1,8.572733879089355,,,,,,,,,,0,,,,
1779121920.338831,8.592429637908936,-1,preflight_wait,0.562584638595581,0.0,0.0,0.0,0.0,0.0,0.0,0.0,0,0,0,0,1,8.592584133148193,,,,,,,,,,0,,,,
1779121920.3588247,8.612423419952393,-1,preflight_wait,0.5825731754302979,0.0,0.0,0.0,0.0,0.0,0.0,0.0,0,0,0,0,1,8.61257815361023,,,,,,,,,,0,,,,
1779121920.3788176,8.632416248321533,-1,preflight_wait,0.6025669574737549,0.0,0.0,0.0,0.0,0.0,0.0,0.0,0,0,0,0,1,8.632573127746582,,,,,,,,,,0,,,,
1779121920.3997803,8.653378963470459,-1,preflight_wait,0.623528242111206,0.0,0.0,0.0,0.0,0.0,0.0,0.0,0,0,0,0,1,8.65353536605835,,,,,,,,,,0,,,,
1779121920.4188328,8.672431468963623,-1,preflight_wait,0.6425776481628418,0.0,0.0,0.0,0.0,0.0,0.0,0.0,0,0,0,0,1,8.672589302062988,,,,,,,,,,0,,,,
1779121920.4388237,8.69242238998413,-1,preflight_wait,0.662560224533081,0.0,0.0,0.0,0.0,0.0,0.0,0.0,0,0,0,0,1,8.692574262619019,,,,,,,,,,0,,,,
1779121920.4587917,8.712390422821045,-1,preflight_wait,0.6824960708618164,0.0,0.0,0.0,0.0,0.0,0.0,0.0,0,0,0,0,1,8.712527513504028,,,,,,,,,,0,,,,
1779121920.478783,8.732381582260132,-1,preflight_wait,0.702477216720581,0.0,0.0,0.0,0.0,0.0,0.0,0.0,0,0,0,0,1,8.732516765594482,,,,,,,,,,0,,,,
1779121920.498771,8.75236964225769,-1,preflight_wait,0.7224588394165039,0.0,0.0,0.0,0.0,0.0,0.0,0.0,0,0,0,0,1,8.752501487731934,,,,,,,,,,0,,,,
1779121920.5190098,8.772608518600464,-1,preflight_wait,0.7426927089691162,0.0,0.0,0.0,0.0,0.0,0.0,0.0,0,0,0,0,1,8.772738218307495,,,,,,,,,,0,,,,
1779121920.539,8.792598724365234,-1,preflight_wait,0.7626817226409912,0.0,0.0,0.0,0.0,0.0,0.0,0.0,0,0,0,0,1,8.792727708816528,,,,,,,,,,0,,,,
1779121920.558997,8.81259560585022,-1,preflight_wait,0.7826790809631348,0.0,0.0,0.0,0.0,0.0,0.0,0.0,0,0,0,0,1,8.812724828720093,,,,,,,,,,0,,,,
1779121920.5789375,8.832536220550537,-1,preflight_wait,0.8026230335235596,0.0,0.0,0.0,0.0,0.0,0.0,0.0,0,0,0,0,1,8.832666873931885,,,,,,,,,,0,,,,
1779121920.5988815,8.852480173110962,-1,preflight_wait,0.8225808143615723,0.0,0.0,0.0,0.0,0.0,0.0,0.0,0,0,0,0,1,8.852616786956787,,,,,,,,,,0,,,,
1779121920.6188452,8.872443914413452,-1,preflight_wait,0.8426070213317871,0.0,0.0,0.0,0.0,0.0,0.0,0.0,0,0,0,0,1,8.872601985931396,,,,,,,,,,0,,,,
1779121920.6390927,8.892691373825073,-1,preflight_wait,0.86281418800354,0.0,0.0,0.0,0.0,0.0,0.0,0.0,0,0,0,0,1,8.892836809158325,,,,,,,,,,0,,,,
1779121920.659137,8.9127357006073,-1,preflight_wait,0.8828575611114502,0.0,0.0,0.0,0.0,0.0,0.0,0.0,0,0,0,0,1,8.912880897521973,,,,,,,,,,0,,,,
1779121920.6788657,8.932464361190796,-1,preflight_wait,0.9025866985321045,0.0,0.0,0.0,0.0,0.0,0.0,0.0,0,0,0,0,1,8.932609796524048,,,,,,,,,,0,,,,
1779121920.6988614,8.952460050582886,-1,preflight_wait,0.9225842952728271,0.0,0.0,0.0,0.0,0.0,0.0,0.0,0,0,0,0,1,8.952606201171875,,,,,,,,,,0,,,,
1779121920.718819,8.97241759300232,-1,preflight_wait,0.9425547122955322,0.0,0.0,0.0,0.0,0.0,0.0,0.0,0,0,0,0,1,8.972567558288574,,,,,,,,,,0,,,,
1779121920.7390697,8.992668390274048,-1,preflight_wait,0.9627902507781982,0.0,0.0,0.0,0.0,0.0,0.0,0.0,0,0,0,0,1,8.9928138256073,,,,,,,,,,0,,,,
1779121920.7588818,9.01248049736023,-1,preflight_wait,0.9826083183288574,0.0,0.0,0.0,0.0,0.0,0.0,0.0,0,0,0,0,1,9.012626647949219,,,,,,,,,,0,,,,
1779121920.7788756,9.032474279403687,-1,preflight_wait,1.0025908946990967,0.0,0.0,0.0,0.0,0.0,0.0,0.0,0,0,0,0,1,9.032615423202515,,,,,,,,,,0,,,,
1779121920.7988768,9.052475452423096,-1,preflight_wait,1.0225951671600342,0.0,0.0,0.0,0.0,0.0,0.0,0.0,0,0,0,0,1,9.052618503570557,,,,,,,,,,0,,,,
1779121920.8188875,9.072486162185669,-1,preflight_wait,1.0426263809204102,0.0,0.0,0.0,0.0,0.0,0.0,0.0,0,0,0,0,1,9.07263994216919,,,,,,,,,,0,,,,
1779121920.838835,9.09243369102478,-1,preflight_wait,1.062554121017456,0.0,0.0,0.0,0.0,0.0,0.0,0.0,0,0,0,0,1,9.092577934265137,,,,,,,,,,0,,,,
1779121920.8589246,9.112523317337036,-1,preflight_wait,1.0826776027679443,0.0,0.0,0.0,0.0,0.0,0.0,0.0,0,0,0,0,1,9.112681150436401,,,,,,,,,,0,,,,
1779121920.8788042,9.132402896881104,-1,preflight_wait,1.102522373199463,0.0,0.0,0.0,0.0,0.0,0.0,0.0,0,0,0,0,1,9.132546186447144,,,,,,,,,,0,,,,
1779121920.8988233,9.152421951293945,-1,preflight_wait,1.122570276260376,0.0,0.0,0.0,0.0,0.0,0.0,0.0,0,0,0,0,1,9.152575969696045,,,,,,,,,,0,,,,
1779121920.9197512,9.173349857330322,-1,preflight_wait,1.1435022354125977,0.0,0.0,0.0,0.0,0.0,0.0,0.0,0,0,0,0,1,9.173506736755371,,,,,,,,,,0,,,,
1779121920.938762,9.192360639572144,-1,preflight_wait,1.1624679565429688,0.0,0.0,0.0,0.0,0.0,0.0,0.0,0,0,0,0,1,9.192499876022339,,,,,,,,,,0,,,,
1779121920.9587793,9.212378025054932,-1,preflight_wait,1.18247389793396,0.0,0.0,0.0,0.0,0.0,0.0,0.0,0,0,0,0,1,9.212512731552124,,,,,,,,,,0,,,,
1779121920.9787767,9.232375383377075,-1,preflight_wait,1.202467441558838,0.0,0.0,0.0,0.0,0.0,0.0,0.0,0,0,0,0,1,9.232507467269897,,,,,,,,,,0,,,,
1779121920.9987724,9.252371072769165,-1,preflight_wait,1.2224664688110352,0.0,0.0,0.0,0.0,0.0,0.0,0.0,0,0,0,0,1,9.2525053024292,,,,,,,,,,0,,,,
1779121921.018775,9.272373676300049,-1,preflight_wait,1.242466688156128,0.0,0.0,0.0,0.0,0.0,0.0,0.0,0,0,0,0,1,9.272506713867188,,,,,,,,,,0,,,,
1779121921.0387654,9.292364120483398,-1,preflight_wait,1.2624495029449463,0.0,0.0,0.0,0.0,0.0,0.0,0.0,0,0,0,0,1,9.292494535446167,,,,,,,,,,0,,,,
1779121921.058766,9.31236457824707,-1,preflight_wait,1.2824547290802002,0.0,0.0,0.0,0.0,0.0,0.0,0.0,0,0,0,0,1,9.312495708465576,,,,,,,,,,0,,,,
1779121921.078775,9.33237361907959,-1,preflight_wait,1.3024659156799316,0.0,0.0,0.0,0.0,0.0,0.0,0.0,0,0,0,0,1,9.332505941390991,,,,,,,,,,0,,,,
1779121921.0989864,9.352585077285767,-1,preflight_wait,1.3226723670959473,0.0,0.0,0.0,0.0,0.0,0.0,0.0,0,0,0,0,1,9.352715492248535,,,,,,,,,,0,,,,
1779121921.1188138,9.37241244316101,-1,preflight_wait,1.342498779296875,0.0,0.0,0.0,0.0,0.0,0.0,0.0,0,0,0,0,1,9.372543334960938,,,,,,,,,,0,,,,
1779121921.1387277,9.392326354980469,-1,preflight_wait,1.3624176979064941,0.0,0.0,0.0,0.0,0.0,0.0,0.0,0,0,0,0,1,9.392456769943237,,,,,,,,,,0,,,,
1779121921.1588926,9.41249132156372,-1,preflight_wait,1.3825798034667969,0.0,0.0,0.0,0.0,0.0,0.0,0.0,0,0,0,0,1,9.41262173652649,,,,,,,,,,0,,,,
1779121921.1787977,9.432396411895752,-1,preflight_wait,1.4025154113769531,0.0,0.0,0.0,0.0,0.0,0.0,0.0,0,0,0,0,1,9.432538270950317,,,,,,,,,,0,,,,
1779121921.1988819,9.452480554580688,-1,preflight_wait,1.4225919246673584,0.0,0.0,0.0,0.0,0.0,0.0,0.0,0,0,0,0,1,9.452621936798096,,,,,,,,,,0,,,,
1779121921.2188036,9.472402334213257,-1,preflight_wait,1.442512035369873,0.0,0.0,0.0,0.0,0.0,0.0,0.0,0,0,0,0,1,9.47254228591919,,,,,,,,,,0,,,,
1779121921.2387872,9.492385864257812,-1,preflight_wait,1.4625287055969238,0.0,0.0,0.0,0.0,0.0,0.0,0.0,0,0,0,0,1,9.492538452148438,,,,,,,,,,0,,,,
1779121921.2587843,9.512382984161377,-1,preflight_wait,1.4825353622436523,0.0,0.0,0.0,0.0,0.0,0.0,0.0,0,0,0,0,1,9.512537240982056,,,,,,,,,,0,,,,
1779121921.278851,9.532449722290039,-1,preflight_wait,1.5025830268859863,0.0,0.0,0.0,0.0,0.0,0.0,0.0,0,0,0,0,1,9.532599687576294,,,,,,,,,,0,,,,
1779121921.2988884,9.552487134933472,-1,preflight_wait,1.5226225852966309,0.0,0.0,0.0,0.0,0.0,0.0,0.0,0,0,0,0,1,9.552636623382568,,,,,,,,,,0,,,,
1779121921.318818,9.57241678237915,-1,preflight_wait,1.5425488948822021,0.0,0.0,0.0,0.0,0.0,0.0,0.0,0,0,0,0,1,9.57256555557251,,,,,,,,,,0,,,,
1779121921.3388243,9.59242296218872,-1,preflight_wait,1.5625510215759277,0.0,0.0,0.0,0.0,0.0,0.0,0.0,0,0,0,0,1,9.592570304870605,,,,,,,,,,0,,,,
1779121921.3594217,9.613020420074463,-1,preflight_wait,1.5831725597381592,0.0,0.0,0.0,0.0,0.0,0.0,0.0,0,0,0,0,1,9.613178968429565,,,,,,,,,,0,,,,
1779121921.3788495,9.632448196411133,-1,preflight_wait,1.6025779247283936,0.0,0.0,0.0,0.0,0.0,0.0,0.0,0,0,0,0,1,9.632596731185913,,,,,,,,,,0,,,,
1779121921.3997588,9.65335750579834,-1,preflight_wait,1.623504638671875,0.0,0.0,0.0,0.0,0.0,0.0,0.0,0,0,0,0,1,9.653513431549072,,,,,,,,,,0,,,,
1779121921.418846,9.672444581985474,-1,preflight_wait,1.6425960063934326,0.0,0.0,0.0,0.0,0.0,0.0,0.0,0,0,0,0,1,9.672603130340576,,,,,,,,,,0,,,,
1779121921.4387982,9.692396879196167,-1,preflight_wait,1.6625044345855713,0.0,0.0,0.0,0.0,0.0,0.0,0.0,0,0,0,0,1,9.692535400390625,,,,,,,,,,0,,,,
1779121921.4587786,9.712377309799194,-1,preflight_wait,1.6824712753295898,0.0,0.0,0.0,0.0,0.0,0.0,0.0,0,0,0,0,1,9.712510108947754,,,,,,,,,,0,,,,
1779121921.478776,9.732374668121338,-1,preflight_wait,1.7024648189544678,0.0,0.0,0.0,0.0,0.0,0.0,0.0,0,0,0,0,1,9.73250675201416,,,,,,,,,,0,,,,
1779121921.4987788,9.7523775100708,-1,preflight_wait,1.7224762439727783,0.0,0.0,0.0,0.0,0.0,0.0,0.0,0,0,0,0,1,9.752511024475098,,,,,,,,,,0,,,,
1779121921.5187664,9.772365093231201,-1,preflight_wait,1.742448329925537,0.0,0.0,0.0,0.0,0.0,0.0,0.0,0,0,0,0,1,9.772494554519653,,,,,,,,,,0,,,,
1779121921.5389917,9.792590379714966,-1,preflight_wait,1.7626729011535645,0.0,0.0,0.0,0.0,0.0,0.0,0.0,0,0,0,0,1,9.792718648910522,,,,,,,,,,0,,,,
1779121921.5589836,9.81258225440979,-1,preflight_wait,1.7826659679412842,0.0,0.0,0.0,0.0,0.0,0.0,0.0,0,0,0,0,1,9.812711238861084,,,,,,,,,,0,,,,
1779121921.5789425,9.832541227340698,-1,preflight_wait,1.802626132965088,0.0,0.0,0.0,0.0,0.0,0.0,0.0,0,0,0,0,1,9.83267092704773,,,,,,,,,,0,,,,
1779121921.5989032,9.85250186920166,-1,preflight_wait,1.8225889205932617,0.0,0.0,0.0,0.0,0.0,0.0,0.0,0,0,0,0,1,9.852631092071533,,,,,,,,,,0,,,,
1779121921.6187847,9.87238335609436,-1,preflight_wait,1.8425142765045166,0.0,0.0,0.0,0.0,0.0,0.0,0.0,0,0,0,0,1,9.872520923614502,,,,,,,,,,0,,,,
1779121921.6388474,9.892446041107178,-1,preflight_wait,1.8625640869140625,0.0,0.0,0.0,0.0,0.0,0.0,0.0,0,0,0,0,1,9.892588376998901,,,,,,,,,,0,,,,
1779121921.6588464,9.912445068359375,-1,preflight_wait,1.8825631141662598,0.0,0.0,0.0,0.0,0.0,0.0,0.0,0,0,0,0,1,9.912587881088257,,,,,,,,,,0,,,,
1779121921.6788425,9.932441234588623,-1,preflight_wait,1.9025681018829346,0.0,0.0,0.0,0.0,0.0,0.0,0.0,0,0,0,0,1,9.932587385177612,,,,,,,,,,0,,,,
1779121921.698867,9.952465772628784,-1,preflight_wait,1.9225969314575195,0.0,0.0,0.0,0.0,0.0,0.0,0.0,0,0,0,0,1,9.95261526107788,,,,,,,,,,0,,,,
1779121921.7189038,9.97250247001648,-1,preflight_wait,1.9426543712615967,0.0,0.0,0.0,0.0,0.0,0.0,0.0,0,0,0,0,1,9.972659349441528,,,,,,,,,,0,,,,
1779121921.738851,9.992449760437012,-1,preflight_wait,1.9625799655914307,0.0,0.0,0.0,0.0,0.0,0.0,0.0,0,0,0,0,1,9.992598533630371,,,,,,,,,,0,,,,
1779121921.7588773,10.012475967407227,-1,preflight_wait,1.9826061725616455,0.0,0.0,0.0,0.0,0.0,0.0,0.0,0,0,0,0,1,10.012624502182007,,,,,,,,,,0,,,,
1779121921.778867,10.032465696334839,-1,preflight_wait,2.0025978088378906,0.0,0.0,0.0,0.0,0.0,0.0,0.0,0,0,0,0,1,10.032615184783936,,,,,,,,,,0,,,,
1779121921.7988753,10.052474021911621,-1,preflight_wait,2.02260684967041,0.0,0.0,0.0,0.0,0.0,0.0,0.0,0,0,0,0,1,10.052623510360718,,,,,,,,,,0,,,,
1779121921.818887,10.07248568534851,-1,preflight_wait,2.0426158905029297,0.0,0.0,0.0,0.0,0.0,0.0,0.0,0,0,0,0,1,10.07263445854187,,,,,,,,,,0,,,,
1779121921.8388925,10.092491149902344,-1,preflight_wait,2.0626227855682373,0.0,0.0,0.0,0.0,0.0,0.0,0.0,0,0,0,0,1,10.092641353607178,,,,,,,,,,0,,,,
1779121921.858861,10.112459659576416,-1,preflight_wait,2.082587242126465,0.0,0.0,0.0,0.0,0.0,0.0,0.0,0,0,0,0,1,10.112606287002563,,,,,,,,,,0,,,,
1779121921.8788147,10.132413387298584,-1,preflight_wait,2.1025495529174805,0.0,0.0,0.0,0.0,0.0,0.0,0.0,0,0,0,0,1,10.132562160491943,,,,,,,,,,0,,,,
1779121921.8988063,10.152405023574829,-1,preflight_wait,2.122527599334717,0.0,0.0,0.0,0.0,0.0,0.0,0.0,0,0,0,0,1,10.152550220489502,,,,,,,,,,0,,,,
1779121921.9188077,10.172406435012817,-1,preflight_wait,2.1425395011901855,0.0,0.0,0.0,0.0,0.0,0.0,0.0,0,0,0,0,1,10.172553062438965,,,,,,,,,,0,,,,
1779121921.9388316,10.192430257797241,-1,preflight_wait,2.162584066390991,0.0,0.0,0.0,0.0,0.0,0.0,0.0,0,0,0,0,1,10.19258999824524,,,,,,,,,,0,,,,
1779121921.958782,10.212380647659302,-1,preflight_wait,2.1824817657470703,0.0,0.0,0.0,0.0,0.0,0.0,0.0,0,0,0,0,1,10.21251654624939,,,,,,,,,,0,,,,
1779121921.97885,10.23244857788086,-1,preflight_wait,2.2025516033172607,0.0,0.0,0.0,0.0,0.0,0.0,0.0,0,0,0,0,1,10.232586145401001,,,,,,,,,,0,,,,
1779121921.998854,10.252452611923218,-1,preflight_wait,2.2225570678710938,0.0,0.0,0.0,0.0,0.0,0.0,0.0,0,0,0,0,1,10.252591371536255,,,,,,,,,,0,,,,
1779121922.018802,10.272400617599487,-1,preflight_wait,2.2425148487091064,0.0,0.0,0.0,0.0,0.0,0.0,0.0,0,0,0,0,1,10.272542476654053,,,,,,,,,,0,,,,
1779121922.038826,10.29242467880249,-1,preflight_wait,2.262573719024658,0.0,0.0,0.0,0.0,0.0,0.0,0.0,0,0,0,0,1,10.292579889297485,,,,,,,,,,0,,,,
1779121922.058844,10.312442779541016,-1,preflight_wait,2.2826013565063477,0.0,0.0,0.0,0.0,0.0,0.0,0.0,0,0,0,0,1,10.312603950500488,,,,,,,,,,0,,,,
1779121922.078852,10.33245062828064,-1,preflight_wait,2.3025758266448975,0.0,0.0,0.0,0.0,0.0,0.0,0.0,0,0,0,0,1,10.332595586776733,,,,,,,,,,0,,,,
1779121922.098866,10.35246467590332,-1,preflight_wait,2.3225929737091064,0.0,0.0,0.0,0.0,0.0,0.0,0.0,0,0,0,0,1,10.352611541748047,,,,,,,,,,0,,,,
1779121922.1188319,10.372430562973022,-1,preflight_wait,2.342578649520874,0.0,0.0,0.0,0.0,0.0,0.0,0.0,0,0,0,0,1,10.372584581375122,,,,,,,,,,0,,,,
1779121922.1389964,10.392595052719116,-1,preflight_wait,2.3627431392669678,0.0,0.0,0.0,0.0,0.0,0.0,0.0,0,0,0,0,1,10.392749309539795,,,,,,,,,,0,,,,
1779121922.1588433,10.412441968917847,-1,preflight_wait,2.382572650909424,0.0,0.0,0.0,0.0,0.0,0.0,0.0,0,0,0,0,1,10.412590980529785,,,,,,,,,,0,,,,
1779121922.1788073,10.432405948638916,-1,preflight_wait,2.402527332305908,0.0,0.0,0.0,0.0,0.0,0.0,0.0,0,0,0,0,1,10.432551145553589,,,,,,,,,,0,,,,
1779121922.1987798,10.452378511428833,-1,preflight_wait,2.422471284866333,0.0,0.0,0.0,0.0,0.0,0.0,0.0,0,0,0,0,1,10.452511072158813,,,,,,,,,,0,,,,
1779121922.2187715,10.472370147705078,-1,preflight_wait,2.4424643516540527,0.0,0.0,0.0,0.0,0.0,0.0,0.0,0,0,0,0,1,10.472505331039429,,,,,,,,,,0,,,,
1779121922.2389925,10.492591142654419,-1,preflight_wait,2.4626739025115967,0.0,0.0,0.0,0.0,0.0,0.0,0.0,0,0,0,0,1,10.492719888687134,,,,,,,,,,0,,,,
1779121922.2589893,10.512588024139404,-1,preflight_wait,2.4826712608337402,0.0,0.0,0.0,0.0,0.0,0.0,0.0,0,0,0,0,1,10.512717247009277,,,,,,,,,,0,,,,
1779121922.278901,10.53249979019165,-1,preflight_wait,2.502589702606201,0.0,0.0,0.0,0.0,0.0,0.0,0.0,0,0,0,0,1,10.532631158828735,,,,,,,,,,0,,,,
1779121922.2988749,10.552473545074463,-1,preflight_wait,2.522571563720703,0.0,0.0,0.0,0.0,0.0,0.0,0.0,0,0,0,0,1,10.552608966827393,,,,,,,,,,0,,,,
1779121922.3188188,10.572417497634888,-1,preflight_wait,2.542539119720459,0.0,0.0,0.0,0.0,0.0,0.0,0.0,0,0,0,0,1,10.572561979293823,,,,,,,,,,0,,,,
1779121922.338828,10.592426776885986,-1,preflight_wait,2.562574625015259,0.0,0.0,0.0,0.0,0.0,0.0,0.0,0,0,0,0,1,10.59257960319519,,,,,,,,,,0,,,,
1779121922.3588896,10.612488269805908,-1,preflight_wait,2.582634449005127,0.0,0.0,0.0,0.0,0.0,0.0,0.0,0,0,0,0,1,10.612641096115112,,,,,,,,,,0,,,,
1779121922.3788157,10.6324143409729,-1,preflight_wait,2.602552652359009,0.0,0.0,0.0,0.0,0.0,0.0,0.0,0,0,0,0,1,10.63256549835205,,,,,,,,,,0,,,,
1779121922.398801,10.652399778366089,-1,preflight_wait,2.622523784637451,0.0,0.0,0.0,0.0,0.0,0.0,0.0,0,0,0,0,1,10.652543306350708,,,,,,,,,,0,,,,
1779121922.4188116,10.672410249710083,-1,preflight_wait,2.6425466537475586,0.0,0.0,0.0,0.0,0.0,0.0,0.0,0,0,0,0,1,10.672559022903442,,,,,,,,,,0,,,,
1779121922.439017,10.692615747451782,-1,preflight_wait,2.6627492904663086,0.0,0.0,0.0,0.0,0.0,0.0,0.0,0,0,0,0,1,10.692764043807983,,,,,,,,,,0,,,,
1779121922.4587789,10.712377548217773,-1,preflight_wait,2.6824758052825928,0.0,0.0,0.0,0.0,0.0,0.0,0.0,0,0,0,0,1,10.712512016296387,,,,,,,,,,0,,,,
1779121922.4787583,10.732357025146484,-1,preflight_wait,2.7024428844451904,0.0,0.0,0.0,0.0,0.0,0.0,0.0,0,0,0,0,1,10.732486724853516,,,,,,,,,,0,,,,
1779121922.4987664,10.752365112304688,-1,preflight_wait,2.7224481105804443,0.0,0.0,0.0,0.0,0.0,0.0,0.0,0,0,0,0,1,10.752494096755981,,,,,,,,,,0,,,,
1779121922.5187647,10.772363424301147,-1,preflight_wait,2.7424468994140625,0.0,0.0,0.0,0.0,0.0,0.0,0.0,0,0,0,0,1,10.77249264717102,,,,,,,,,,0,,,,
1779121922.5389435,10.792542219161987,-1,preflight_wait,2.762624502182007,0.0,0.0,0.0,0.0,0.0,0.0,0.0,0,0,0,0,1,10.792670011520386,,,,,,,,,,0,,,,
1779121922.5588875,10.812486171722412,-1,preflight_wait,2.7825732231140137,0.0,0.0,0.0,0.0,0.0,0.0,0.0,0,0,0,0,1,10.812615871429443,,,,,,,,,,0,,,,
1779121922.5788505,10.832449197769165,-1,preflight_wait,2.802544593811035,0.0,0.0,0.0,0.0,0.0,0.0,0.0,0,0,0,0,1,10.832582712173462,,,,,,,,,,0,,,,
1779121922.5988555,10.85245418548584,-1,preflight_wait,2.82257342338562,0.0,0.0,0.0,0.0,0.0,0.0,0.0,0,0,0,0,1,10.852597713470459,,,,,,,,,,0,,,,
1779121922.618842,10.872440576553345,-1,preflight_wait,2.842562675476074,0.0,0.0,0.0,0.0,0.0,0.0,0.0,0,0,0,0,1,10.872587442398071,,,,,,,,,,0,,,,
1779121922.63887,10.892468690872192,-1,preflight_wait,2.8626062870025635,0.0,0.0,0.0,0.0,0.0,0.0,0.0,0,0,0,0,1,10.892618656158447,,,,,,,,,,0,,,,
1779121922.6588578,10.912456512451172,-1,preflight_wait,2.8825771808624268,0.0,0.0,0.0,0.0,0.0,0.0,0.0,0,0,0,0,1,10.912600994110107,,,,,,,,,,0,,,,
1779121922.6791651,10.932763814926147,-1,preflight_wait,2.902886390686035,0.0,0.0,0.0,0.0,0.0,0.0,0.0,0,0,0,0,1,10.932909488677979,,,,,,,,,,0,,,,
1779121922.699087,10.952685594558716,-1,preflight_wait,2.9228084087371826,0.0,0.0,0.0,0.0,0.0,0.0,0.0,0,0,0,0,1,10.952830791473389,,,,,,,,,,0,,,,
1779121922.7188373,10.97243595123291,-1,preflight_wait,2.942596435546875,0.0,0.0,0.0,0.0,0.0,0.0,0.0,0,0,0,0,1,10.972593545913696,,,,,,,,,,0,,,,
1779121922.7388844,10.992483139038086,-1,preflight_wait,2.962613105773926,0.0,0.0,0.0,0.0,0.0,0.0,0.0,0,0,0,0,1,10.992630958557129,,,,,,,,,,0,,,,
1779121922.7588744,11.012473106384277,-1,preflight_wait,2.9826064109802246,0.0,0.0,0.0,0.0,0.0,0.0,0.0,0,0,0,0,1,11.012624740600586,,,,,,,,,,0,,,,
1779121922.7788782,11.032476902008057,-1,preflight_wait,3.0026004314422607,0.0,0.0,0.0,0.0,0.0,0.0,0.0,0,0,0,0,1,11.032622814178467,,,,,,,,,,0,,,,
1779121922.7988584,11.052457094192505,-1,preflight_wait,3.0225937366485596,0.0,0.0,0.0,0.0,0.0,0.0,0.0,0,0,0,0,1,11.052610158920288,,,,,,,,,,0,,,,
1779121922.8188365,11.072435140609741,-1,preflight_wait,3.042587995529175,0.0,0.0,0.0,0.0,0.0,0.0,0.0,0,0,0,0,1,11.072591543197632,,,,,,,,,,0,,,,
1779121922.8390646,11.092663288116455,-1,preflight_wait,3.062793254852295,0.0,0.0,0.0,0.0,0.0,0.0,0.0,0,0,0,0,1,11.092811584472656,,,,,,,,,,0,,,,
1779121922.8588715,11.112470149993896,-1,preflight_wait,3.082601547241211,0.0,0.0,0.0,0.0,0.0,0.0,0.0,0,0,0,0,1,11.112619161605835,,,,,,,,,,0,,,,
1779121922.8788433,11.132441997528076,-1,preflight_wait,3.1025948524475098,0.0,0.0,0.0,0.0,0.0,0.0,0.0,0,0,0,0,1,11.132598400115967,,,,,,,,,,0,,,,
1779121922.8988483,11.152446985244751,-1,preflight_wait,3.122573137283325,0.0,0.0,0.0,0.0,0.0,0.0,0.0,0,0,0,0,1,11.152592897415161,,,,,,,,,,0,,,,
1779121922.918796,11.172394752502441,-1,preflight_wait,3.142512083053589,0.0,0.0,0.0,0.0,0.0,0.0,0.0,0,0,0,0,1,11.172537803649902,,,,,,,,,,0,,,,
1779121922.9387684,11.19236707687378,-1,preflight_wait,3.1624515056610107,0.0,0.0,0.0,0.0,0.0,0.0,0.0,0,0,0,0,1,11.192496299743652,,,,,,,,,,0,,,,
1779121922.958731,11.212329626083374,-1,preflight_wait,3.1824212074279785,0.0,0.0,0.0,0.0,0.0,0.0,0.0,0,0,0,0,1,11.212461233139038,,,,,,,,,,0,,,,
1779121922.9788396,11.232438325881958,-1,preflight_wait,3.202554941177368,0.0,0.0,0.0,0.0,0.0,0.0,0.0,0,0,0,0,1,11.232580184936523,,,,,,,,,,0,,,,
1779121922.9988549,11.252453565597534,-1,preflight_wait,3.222567319869995,0.0,0.0,0.0,0.0,0.0,0.0,0.0,0,0,0,0,1,11.252594947814941,,,,,,,,,,0,,,,
1779121923.0188274,11.272426128387451,-1,preflight_wait,3.2425482273101807,0.0,0.0,0.0,0.0,0.0,0.0,0.0,0,0,0,0,1,11.272572040557861,,,,,,,,,,0,,,,
1779121923.0388434,11.292442083358765,-1,preflight_wait,3.2625646591186523,0.0,0.0,0.0,0.0,0.0,0.0,0.0,0,0,0,0,1,11.292587995529175,,,,,,,,,,0,,,,
1779121923.0588543,11.312453031539917,-1,preflight_wait,3.282574415206909,0.0,0.0,0.0,0.0,0.0,0.0,0.0,0,0,0,0,1,11.312597751617432,,,,,,,,,,0,,,,
1779121923.0788972,11.332495927810669,-1,preflight_wait,3.3026187419891357,0.0,0.0,0.0,0.0,0.0,0.0,0.0,0,0,0,0,1,11.332641839981079,,,,,,,,,,0,,,,
1779121923.0988932,11.352491855621338,-1,preflight_wait,3.322615623474121,0.0,0.0,0.0,0.0,0.0,0.0,0.0,0,0,0,0,1,11.352637767791748,,,,,,,,,,0,,,,
1779121923.1187963,11.372395038604736,-1,preflight_wait,3.342569589614868,0.0,0.0,0.0,0.0,0.0,0.0,0.0,0,0,0,0,1,11.372548580169678,,,,,,,,,,0,,,,
1779121923.1388164,11.392415046691895,-1,preflight_wait,3.3625595569610596,0.0,0.0,0.0,0.0,0.0,0.0,0.0,0,0,0,0,1,11.392566204071045,,,,,,,,,,0,,,,
1779121923.1588464,11.412445068359375,-1,preflight_wait,3.3825671672821045,0.0,0.0,0.0,0.0,0.0,0.0,0.0,0,0,0,0,1,11.412590265274048,,,,,,,,,,0,,,,
1779121923.1788616,11.432460308074951,-1,preflight_wait,3.402582883834839,0.0,0.0,0.0,0.0,0.0,0.0,0.0,0,0,0,0,1,11.432605743408203,,,,,,,,,,0,,,,
1779121923.1988907,11.452489376068115,-1,preflight_wait,3.422611713409424,0.0,0.0,0.0,0.0,0.0,0.0,0.0,0,0,0,0,1,11.452635288238525,,,,,,,,,,0,,,,
1779121923.2188246,11.472423315048218,-1,preflight_wait,3.4425508975982666,0.0,0.0,0.0,0.0,0.0,0.0,0.0,0,0,0,0,1,11.472571849822998,,,,,,,,,,0,,,,
1779121923.2388477,11.492446422576904,-1,preflight_wait,3.4626030921936035,0.0,0.0,0.0,0.0,0.0,0.0,0.0,0,0,0,0,1,11.49259638786316,,,,,,,,,,0,,,,
1779121923.2588499,11.51244854927063,-1,preflight_wait,3.4825751781463623,0.0,0.0,0.0,0.0,0.0,0.0,0.0,0,0,0,0,1,11.512593746185303,,,,,,,,,,0,,,,
1779121923.27885,11.532448768615723,-1,preflight_wait,3.502565622329712,0.0,0.0,0.0,0.0,0.0,0.0,0.0,0,0,0,0,1,11.532590389251709,,,,,,,,,,0,,,,
1779121923.2988656,11.552464246749878,-1,preflight_wait,3.5225870609283447,0.0,0.0,0.0,0.0,0.0,0.0,0.0,0,0,0,0,1,11.55260968208313,,,,,,,,,,0,,,,
1779121923.3188834,11.572482109069824,-1,preflight_wait,3.5426077842712402,0.0,0.0,0.0,0.0,0.0,0.0,0.0,0,0,0,0,1,11.572628498077393,,,,,,,,,,0,,,,
1779121923.3388655,11.592464208602905,-1,preflight_wait,3.562617540359497,0.0,0.0,0.0,0.0,0.0,0.0,0.0,0,0,0,0,1,11.59261965751648,,,,,,,,,,0,,,,
1779121923.3588428,11.612441539764404,-1,preflight_wait,3.5825681686401367,0.0,0.0,0.0,0.0,0.0,0.0,0.0,0,0,0,0,1,11.612587451934814,,,,,,,,,,0,,,,
1779121923.3788562,11.632454872131348,-1,preflight_wait,3.602583408355713,0.0,0.0,0.0,0.0,0.0,0.0,0.0,0,0,0,0,1,11.63260269165039,,,,,,,,,,0,,,,
1779121923.3988488,11.65244746208191,-1,preflight_wait,3.6226089000701904,0.0,0.0,0.0,0.0,0.0,0.0,0.0,0,0,0,0,1,11.652605772018433,,,,,,,,,,0,,,,
1779121923.4187765,11.672375202178955,-1,preflight_wait,3.64247727394104,0.0,0.0,0.0,0.0,0.0,0.0,0.0,0,0,0,0,1,11.672510862350464,,,,,,,,,,0,,,,
1779121923.4387672,11.692365884780884,-1,preflight_wait,3.662456512451172,0.0,0.0,0.0,0.0,0.0,0.0,0.0,0,0,0,0,1,11.692496299743652,,,,,,,,,,0,,,,
1779121923.4587677,11.712366342544556,-1,preflight_wait,3.682453155517578,0.0,0.0,0.0,0.0,0.0,0.0,0.0,0,0,0,0,1,11.712496042251587,,,,,,,,,,0,,,,
1779121923.4787645,11.732363224029541,-1,preflight_wait,3.702451705932617,0.0,0.0,0.0,0.0,0.0,0.0,0.0,0,0,0,0,1,11.73249340057373,,,,,,,,,,0,,,,
1779121923.4989865,11.752585172653198,-1,preflight_wait,3.722667932510376,0.0,0.0,0.0,0.0,0.0,0.0,0.0,0,0,0,0,1,11.752713918685913,,,,,,,,,,0,,,,
1779121923.5187707,11.772369384765625,-1,preflight_wait,3.742455244064331,0.0,0.0,0.0,0.0,0.0,0.0,0.0,0,0,0,0,1,11.772499799728394,,,,,,,,,,0,,,,
1779121923.5389266,11.792525291442871,-1,preflight_wait,3.7626116275787354,0.0,0.0,0.0,0.0,0.0,0.0,0.0,0,0,0,0,1,11.79265546798706,,,,,,,,,,0,,,,
1779121923.558877,11.812475681304932,-1,preflight_wait,3.7825686931610107,0.0,0.0,0.0,0.0,0.0,0.0,0.0,0,0,0,0,1,11.812609195709229,,,,,,,,,,0,,,,
1779121923.5791156,11.832714319229126,-1,preflight_wait,3.8028361797332764,0.0,0.0,0.0,0.0,0.0,0.0,0.0,0,0,0,0,1,11.83285927772522,,,,,,,,,,0,,,,
1779121923.5988712,11.85246992111206,-1,preflight_wait,3.822593927383423,0.0,0.0,0.0,0.0,0.0,0.0,0.0,0,0,0,0,1,11.852616786956787,,,,,,,,,,0,,,,
1779121923.6188388,11.872437477111816,-1,preflight_wait,3.8426122665405273,0.0,0.0,0.0,0.0,0.0,0.0,0.0,0,0,0,0,1,11.872599124908447,,,,,,,,,,0,,,,
1779121923.6388836,11.892482280731201,-1,preflight_wait,3.8626129627227783,0.0,0.0,0.0,0.0,0.0,0.0,0.0,0,0,0,0,1,11.892630577087402,,,,,,,,,,0,,,,
1779121923.6588724,11.912471055984497,-1,preflight_wait,3.882601499557495,0.0,0.0,0.0,0.0,0.0,0.0,0.0,0,0,0,0,1,11.912619352340698,,,,,,,,,,0,,,,
1779121923.6788404,11.932439088821411,-1,preflight_wait,3.9025657176971436,0.0,0.0,0.0,0.0,0.0,0.0,0.0,0,0,0,0,1,11.932584524154663,,,,,,,,,,0,,,,
1779121923.6988173,11.952415943145752,-1,preflight_wait,3.9225783348083496,0.0,0.0,0.0,0.0,0.0,0.0,0.0,0,0,0,0,1,11.952566385269165,,,,,,,,,,0,,,,
1779121923.718797,11.972395658493042,-1,preflight_wait,3.9425323009490967,0.0,0.0,0.0,0.0,0.0,0.0,0.0,0,0,0,0,1,11.972543478012085,,,,,,,,,,0,,,,
1779121923.738849,11.9924476146698,-1,preflight_wait,3.9625680446624756,0.0,0.0,0.0,0.0,0.0,0.0,0.0,0,0,0,0,1,11.992593050003052,,,,,,,,,,0,,,,
1779121923.7588608,12.012459516525269,-1,preflight_wait,3.982581615447998,0.0,0.0,0.0,0.0,0.0,0.0,0.0,0,0,0,0,1,12.012604236602783,,,,,,,,,,0,,,,
1779121923.7788806,12.032479286193848,-1,preflight_wait,4.002610206604004,0.0,0.0,0.0,0.0,0.0,0.0,0.0,0,0,0,0,1,12.03262710571289,,,,,,,,,,0,,,,
1779121923.7988715,12.052470207214355,-1,preflight_wait,4.022602558135986,0.0,0.0,0.0,0.0,0.0,0.0,0.0,0,0,0,0,1,12.052618980407715,,,,,,,,,,0,,,,
1779121923.8188403,12.072438955307007,-1,preflight_wait,4.0425944328308105,0.0,0.0,0.0,0.0,0.0,0.0,0.0,0,0,0,0,1,12.072596788406372,,,,,,,,,,0,,,,
1779121923.838883,12.09248161315918,-1,preflight_wait,4.06260871887207,0.0,0.0,0.0,0.0,0.0,0.0,0.0,0,0,0,0,1,12.09262752532959,,,,,,,,,,0,,,,
1779121923.8588595,12.112458229064941,-1,preflight_wait,4.082584619522095,0.0,0.0,0.0,0.0,0.0,0.0,0.0,0,0,0,0,1,12.112604141235352,,,,,,,,,,0,,,,
1779121923.8788693,12.132467985153198,-1,preflight_wait,4.102595806121826,0.0,0.0,0.0,0.0,0.0,0.0,0.0,0,0,0,0,1,12.132614374160767,,,,,,,,,,0,,,,
1779121923.8991675,12.152766227722168,-1,preflight_wait,4.122913122177124,0.0,0.0,0.0,0.0,0.0,0.0,0.0,0,0,0,0,1,12.152919292449951,,,,,,,,,,0,,,,
1779121923.9188187,12.172417402267456,-1,preflight_wait,4.142561912536621,0.0,0.0,0.0,0.0,0.0,0.0,0.0,0,0,0,0,1,12.172568082809448,,,,,,,,,,0,,,,
1779121923.938808,12.19240665435791,-1,preflight_wait,4.162527561187744,0.0,0.0,0.0,0.0,0.0,0.0,0.0,0,0,0,0,1,12.192551136016846,,,,,,,,,,0,,,,
1779121923.9587975,12.212396144866943,-1,preflight_wait,4.182531356811523,0.0,0.0,0.0,0.0,0.0,0.0,0.0,0,0,0,0,1,12.212566137313843,,,,,,,,,,0,,,,
1779121923.9787657,12.232364416122437,-1,preflight_wait,4.202454090118408,0.0,0.0,0.0,0.0,0.0,0.0,0.0,0,0,0,0,1,12.23249626159668,,,,,,,,,,0,,,,
1779121923.9989135,12.252512216567993,-1,preflight_wait,4.222608327865601,0.0,0.0,0.0,0.0,0.0,0.0,0.0,0,0,0,0,1,12.252647399902344,,,,,,,,,,0,,,,
1779121924.0188084,12.272407054901123,-1,preflight_wait,4.242528438568115,0.0,0.0,0.0,0.0,0.0,0.0,0.0,0,0,0,0,1,12.272552013397217,,,,,,,,,,0,,,,
1779121924.0388684,12.29246711730957,-1,preflight_wait,4.262603998184204,0.0,0.0,0.0,0.0,0.0,0.0,0.0,0,0,0,0,1,12.29262089729309,,,,,,,,,,0,,,,
1779121924.0588856,12.31248426437378,-1,preflight_wait,4.282603979110718,0.0,0.0,0.0,0.0,0.0,0.0,0.0,0,0,0,0,1,12.312628269195557,,,,,,,,,,0,,,,
1779121924.0789082,12.332506895065308,-1,preflight_wait,4.302631139755249,0.0,0.0,0.0,0.0,0.0,0.0,0.0,0,0,0,0,1,12.332653522491455,,,,,,,,,,0,,,,
1779121924.0988371,12.352435827255249,-1,preflight_wait,4.3225603103637695,0.0,0.0,0.0,0.0,0.0,0.0,0.0,0,0,0,0,1,12.352582454681396,,,,,,,,,,0,,,,
1779121924.1188114,12.37241005897522,-1,preflight_wait,4.342531681060791,0.0,0.0,0.0,0.0,0.0,0.0,0.0,0,0,0,0,1,12.372555017471313,,,,,,,,,,0,,,,
1779121924.138829,12.392427682876587,-1,preflight_wait,4.362573146820068,0.0,0.0,0.0,0.0,0.0,0.0,0.0,0,0,0,0,1,12.39258098602295,,,,,,,,,,0,,,,
1779121924.1588476,12.41244626045227,-1,preflight_wait,4.3825671672821045,0.0,0.0,0.0,0.0,0.0,0.0,0.0,0,0,0,0,1,12.412591218948364,,,,,,,,,,0,,,,
1779121924.1788654,12.432464122772217,-1,preflight_wait,4.4025819301605225,0.0,0.0,0.0,0.0,0.0,0.0,0.0,0,0,0,0,1,12.43260645866394,,,,,,,,,,0,,,,
1779121924.1988723,12.452471017837524,-1,preflight_wait,4.422602415084839,0.0,0.0,0.0,0.0,0.0,0.0,0.0,0,0,0,0,1,12.452619791030884,,,,,,,,,,0,,,,
1779121924.2188234,12.472422122955322,-1,preflight_wait,4.442552328109741,0.0,0.0,0.0,0.0,0.0,0.0,0.0,0,0,0,0,1,12.472570896148682,,,,,,,,,,0,,,,
1779121924.238865,12.4924635887146,-1,preflight_wait,4.462594509124756,0.0,0.0,0.0,0.0,0.0,0.0,0.0,0,0,0,0,1,12.492612361907959,,,,,,,,,,0,,,,
1779121924.258808,12.512406587600708,-1,preflight_wait,4.482534408569336,0.0,0.0,0.0,0.0,0.0,0.0,0.0,0,0,0,0,1,12.512553215026855,,,,,,,,,,0,,,,
1779121924.2787802,12.532378911972046,-1,preflight_wait,4.502511739730835,0.0,0.0,0.0,0.0,0.0,0.0,0.0,0,0,0,0,1,12.532527923583984,,,,,,,,,,0,,,,
1779121924.2988427,12.552441358566284,-1,preflight_wait,4.522593021392822,0.0,0.0,0.0,0.0,0.0,0.0,0.0,0,0,0,0,1,12.552597522735596,,,,,,,,,,0,,,,
1779121924.3187869,12.572385549545288,-1,preflight_wait,4.542531967163086,0.0,0.0,0.0,0.0,0.0,0.0,0.0,0,0,0,0,1,12.572537899017334,,,,,,,,,,0,,,,
1779121924.33884,12.592438697814941,-1,preflight_wait,4.5626490116119385,0.0,0.0,0.0,0.0,0.0,0.0,0.0,0,0,0,0,1,12.592644691467285,,,,,,,,,,0,,,,
1779121924.3589041,12.612502813339233,-1,preflight_wait,4.582632303237915,0.0,0.0,0.0,0.0,0.0,0.0,0.0,0,0,0,0,1,12.612651586532593,,,,,,,,,,0,,,,
1779121924.3788285,12.632427215576172,-1,preflight_wait,4.60257887840271,0.0,0.0,0.0,0.0,0.0,0.0,0.0,0,0,0,0,1,12.632583856582642,,,,,,,,,,0,,,,
1779121924.398813,12.652411699295044,-1,preflight_wait,4.622544765472412,0.0,0.0,0.0,0.0,0.0,0.0,0.0,0,0,0,0,1,12.65255880355835,,,,,,,,,,0,,,,
1779121924.4188004,12.672399044036865,-1,preflight_wait,4.642529249191284,0.0,0.0,0.0,0.0,0.0,0.0,0.0,0,0,0,0,1,12.672544479370117,,,,,,,,,,0,,,,
1779121924.4389591,12.69255781173706,-1,preflight_wait,4.662699937820435,0.0,0.0,0.0,0.0,0.0,0.0,0.0,0,0,0,0,1,12.692708253860474,,,,,,,,,,0,,,,
1779121924.4588068,12.712405443191528,-1,preflight_wait,4.6825079917907715,0.0,0.0,0.0,0.0,0.0,0.0,0.0,0,0,0,0,1,12.712541103363037,,,,,,,,,,0,,,,
1779121924.4787729,12.73237156867981,-1,preflight_wait,4.70246696472168,0.0,0.0,0.0,0.0,0.0,0.0,0.0,0,0,0,0,1,12.732506275177002,,,,,,,,,,0,,,,
1779121924.4989893,12.752588033676147,-1,preflight_wait,4.72267484664917,0.0,0.0,0.0,0.0,0.0,0.0,0.0,0,0,0,0,1,12.75272011756897,,,,,,,,,,0,,,,
1779121924.5187688,12.772367477416992,-1,preflight_wait,4.742453336715698,0.0,0.0,0.0,0.0,0.0,0.0,0.0,0,0,0,0,1,12.772497415542603,,,,,,,,,,0,,,,
1779121924.5389955,12.792594194412231,-1,preflight_wait,4.762677431106567,0.0,0.0,0.0,0.0,0.0,0.0,0.0,0,0,0,0,1,12.792723417282104,,,,,,,,,,0,,,,
1779121924.5589378,12.812536478042603,-1,preflight_wait,4.782624006271362,0.0,0.0,0.0,0.0,0.0,0.0,0.0,0,0,0,0,1,12.81266736984253,,,,,,,,,,0,,,,
1779121924.5788941,12.83249282836914,-1,preflight_wait,4.802586317062378,0.0,0.0,0.0,0.0,0.0,0.0,0.0,0,0,0,0,1,12.832626342773438,,,,,,,,,,0,,,,
1779121924.5989192,12.85251784324646,-1,preflight_wait,4.822641611099243,0.0,0.0,0.0,0.0,0.0,0.0,0.0,0,0,0,0,1,12.852664232254028,,,,,,,,,,0,,,,
1779121924.618834,12.872432708740234,-1,preflight_wait,4.842599630355835,0.0,0.0,0.0,0.0,0.0,0.0,0.0,0,0,0,0,1,12.872599601745605,,,,,,,,,,0,,,,
1779121924.6388886,12.892487287521362,-1,preflight_wait,4.862616539001465,0.0,0.0,0.0,0.0,0.0,0.0,0.0,0,0,0,0,1,12.892635583877563,,,,,,,,,,0,,,,
1779121924.6590917,12.91269040107727,-1,preflight_wait,4.882821083068848,0.0,0.0,0.0,0.0,0.0,0.0,0.0,0,0,0,0,1,12.912839412689209,,,,,,,,,,0,,,,
1779121924.6788752,12.93247389793396,-1,preflight_wait,4.902602910995483,0.0,0.0,0.0,0.0,0.0,0.0,0.0,0,0,0,0,1,12.932620525360107,,,,,,,,,,0,,,,
1779121924.6989086,12.952507257461548,-1,preflight_wait,4.922635316848755,0.0,0.0,0.0,0.0,0.0,0.0,0.0,0,0,0,0,1,12.952654123306274,,,,,,,,,,0,,,,
1779121924.7188256,12.972424268722534,-1,preflight_wait,4.9425859451293945,0.0,0.0,0.0,0.0,0.0,0.0,0.0,0,0,0,0,1,12.972584247589111,,,,,,,,,,0,,,,
1779121924.738913,12.992511749267578,-1,preflight_wait,4.962672233581543,0.0,0.0,0.0,0.0,0.0,0.0,0.0,0,0,0,0,1,12.99267053604126,,,,,,,,,,0,,,,
1779121924.7588863,13.012485027313232,-1,preflight_wait,4.982617378234863,0.0,0.0,0.0,0.0,0.0,0.0,0.0,0,0,0,0,1,13.012634515762329,,,,,,,,,,0,,,,
1779121924.7789128,13.032511472702026,-1,preflight_wait,5.002644777297974,0.0,0.0,0.0,0.0,0.0,0.0,0.0,0,0,0,0,1,13.032662153244019,,,,,,,,,,0,,,,
1779121924.798823,13.052421808242798,-1,preflight_wait,5.0225608348846436,0.0,0.0,0.0,0.0,0.0,0.0,0.0,0,0,0,0,1,13.05257272720337,,,,,,,,,,0,,,,
1779121924.8188126,13.072411298751831,-1,preflight_wait,5.042579412460327,0.0,0.0,0.0,0.0,0.0,0.0,0.0,0,0,0,0,1,13.072574615478516,,,,,,,,,,0,,,,
1779121924.838902,13.092500686645508,-1,preflight_wait,5.062631845474243,0.0,0.0,0.0,0.0,0.0,0.0,0.0,0,0,0,0,1,13.092649698257446,,,,,,,,,,0,,,,
1779121924.858873,13.112471580505371,-1,preflight_wait,5.082599878311157,0.0,0.0,0.0,0.0,0.0,0.0,0.0,0,0,0,0,1,13.11261773109436,,,,,,,,,,0,,,,
1779121924.8788223,13.132421016693115,-1,preflight_wait,5.102557420730591,0.0,0.0,0.0,0.0,0.0,0.0,0.0,0,0,0,0,1,13.13257098197937,,,,,,,,,,0,,,,
1779121924.8988163,13.152415037155151,-1,preflight_wait,5.122548580169678,0.0,0.0,0.0,0.0,0.0,0.0,0.0,0,0,0,0,1,13.15256381034851,,,,,,,,,,0,,,,
1779121924.9188085,13.172407150268555,-1,preflight_wait,5.142535209655762,0.0,0.0,0.0,0.0,0.0,0.0,0.0,0,0,0,0,1,13.172552585601807,,,,,,,,,,0,,,,
1779121924.938872,13.192470788955688,-1,preflight_wait,5.162593841552734,0.0,0.0,0.0,0.0,0.0,0.0,0.0,0,0,0,0,1,13.192616939544678,,,,,,,,,,0,,,,
1779121924.9587996,13.212398290634155,-1,preflight_wait,5.182492017745972,0.0,0.0,0.0,0.0,0.0,0.0,0.0,0,0,0,0,1,13.212531328201294,,,,,,,,,,0,,,,
1779121924.9788775,13.232476234436035,-1,preflight_wait,5.202571153640747,0.0,0.0,0.0,0.0,0.0,0.0,0.0,0,0,0,0,1,13.232609987258911,,,,,,,,,,0,,,,
1779121924.9988987,13.252497434616089,-1,preflight_wait,5.222609519958496,0.0,0.0,0.0,0.0,0.0,0.0,0.0,0,0,0,0,1,13.252638816833496,,,,,,,,,,0,,,,
1779121925.0188055,13.272404193878174,-1,preflight_wait,5.242533922195435,0.0,0.0,0.0,0.0,0.0,0.0,0.0,0,0,0,0,1,13.272553443908691,,,,,,,,,,0,,,,
1779121925.0388787,13.292477369308472,-1,preflight_wait,5.262606382369995,0.0,0.0,0.0,0.0,0.0,0.0,0.0,0,0,0,0,1,13.292624950408936,,,,,,,,,,0,,,,
1779121925.0588956,13.312494277954102,-1,preflight_wait,5.2826220989227295,0.0,0.0,0.0,0.0,0.0,0.0,0.0,0,0,0,0,1,13.312640905380249,,,,,,,,,,0,,,,
1779121925.0789003,13.332499027252197,-1,preflight_wait,5.302626848220825,0.0,0.0,0.0,0.0,0.0,0.0,0.0,0,0,0,0,1,13.332644939422607,,,,,,,,,,0,,,,
1779121925.0991566,13.352755308151245,-1,preflight_wait,5.322885751724243,0.0,0.0,0.0,0.0,0.0,0.0,0.0,0,0,0,0,1,13.352904319763184,,,,,,,,,,0,,,,
1779121925.1188517,13.372450351715088,-1,preflight_wait,5.342619180679321,0.0,0.0,0.0,0.0,0.0,0.0,0.0,0,0,0,0,1,13.372613191604614,,,,,,,,,,0,,,,
1779121925.1387858,13.39238452911377,-1,preflight_wait,5.3625099658966064,0.0,0.0,0.0,0.0,0.0,0.0,0.0,0,0,0,0,1,13.392529964447021,,,,,,,,,,0,,,,
1779121925.1588774,13.412476062774658,-1,preflight_wait,5.382619380950928,0.0,0.0,0.0,0.0,0.0,0.0,0.0,0,0,0,0,1,13.41262674331665,,,,,,,,,,0,,,,
1779121925.1789143,13.432512998580933,-1,preflight_wait,5.402647495269775,0.0,0.0,0.0,0.0,0.0,0.0,0.0,0,0,0,0,1,13.432664632797241,,,,,,,,,,0,,,,
1779121925.19891,13.452508687973022,-1,preflight_wait,5.422640800476074,0.0,0.0,0.0,0.0,0.0,0.0,0.0,0,0,0,0,1,13.452658414840698,,,,,,,,,,0,,,,
1779121925.2187924,13.472391128540039,-1,preflight_wait,5.442542552947998,0.0,0.0,0.0,0.0,0.0,0.0,0.0,0,0,0,0,1,13.472546815872192,,,,,,,,,,0,,,,
1779121925.2388377,13.492436408996582,-1,preflight_wait,5.462566137313843,0.0,0.0,0.0,0.0,0.0,0.0,0.0,0,0,0,0,1,13.492584943771362,,,,,,,,,,0,,,,
1779121925.258875,13.512473583221436,-1,preflight_wait,5.482604265213013,0.0,0.0,0.0,0.0,0.0,0.0,0.0,0,0,0,0,1,13.512622117996216,,,,,,,,,,0,,,,
1779121925.2788968,13.532495498657227,-1,preflight_wait,5.50262713432312,0.0,0.0,0.0,0.0,0.0,0.0,0.0,0,0,0,0,1,13.532644748687744,,,,,,,,,,0,,,,
1779121925.298896,13.552494764328003,-1,preflight_wait,5.522626638412476,0.0,0.0,0.0,0.0,0.0,0.0,0.0,0,0,0,0,1,13.55264401435852,,,,,,,,,,0,,,,
1779121925.318791,13.572389602661133,-1,preflight_wait,5.542555809020996,0.0,0.0,0.0,0.0,0.0,0.0,0.0,0,0,0,0,1,13.572558641433716,,,,,,,,,,0,,,,
1779121925.3388655,13.592464208602905,-1,preflight_wait,5.562615633010864,0.0,0.0,0.0,0.0,0.0,0.0,0.0,0,0,0,0,1,13.592620611190796,,,,,,,,,,0,,,,
1779121925.3588984,13.612497091293335,-1,preflight_wait,5.582626104354858,0.0,0.0,0.0,0.0,0.0,0.0,0.0,0,0,0,0,1,13.612644672393799,,,,,,,,,,0,,,,
1779121925.3788307,13.632429361343384,-1,preflight_wait,5.602574110031128,0.0,0.0,0.0,0.0,0.0,0.0,0.0,0,0,0,0,1,13.63258147239685,,,,,,,,,,0,,,,
1779121925.3997455,13.65334415435791,-1,preflight_wait,5.623474836349487,0.0,0.0,0.0,0.0,0.0,0.0,0.0,0,0,0,0,1,13.653491258621216,,,,,,,,,,0,,,,
1779121925.4188192,13.672417879104614,-1,preflight_wait,5.642561912536621,0.0,0.0,0.0,0.0,0.0,0.0,0.0,0,0,0,0,1,13.672570705413818,,,,,,,,,,0,,,,
1779121925.4388113,13.692409992218018,-1,preflight_wait,5.662544250488281,0.0,0.0,0.0,0.0,0.0,0.0,0.0,0,0,0,0,1,13.692559242248535,,,,,,,,,,0,,,,
1779121925.4587862,13.712384939193726,-1,preflight_wait,5.682493686676025,0.0,0.0,0.0,0.0,0.0,0.0,0.0,0,0,0,0,1,13.712522983551025,,,,,,,,,,0,,,,
1779121925.4787762,13.732374906539917,-1,preflight_wait,5.702470541000366,0.0,0.0,0.0,0.0,0.0,0.0,0.0,0,0,0,0,1,13.732508897781372,,,,,,,,,,0,,,,
1779121925.498719,13.752317667007446,-1,preflight_wait,5.722402334213257,0.0,0.0,0.0,0.0,0.0,0.0,0.0,0,0,0,0,1,13.752447843551636,,,,,,,,,,0,,,,
1779121925.5187383,13.772336959838867,-1,preflight_wait,5.7424304485321045,0.0,0.0,0.0,0.0,0.0,0.0,0.0,0,0,0,0,1,13.772469997406006,,,,,,,,,,0,,,,
1779121925.53899,13.792588710784912,-1,preflight_wait,5.762671709060669,0.0,0.0,0.0,0.0,0.0,0.0,0.0,0,0,0,0,1,13.792718172073364,,,,,,,,,,0,,,,
1779121925.558955,13.812553644180298,-1,preflight_wait,5.782638788223267,0.0,0.0,0.0,0.0,0.0,0.0,0.0,0,0,0,0,1,13.812683343887329,,,,,,,,,,0,,,,
1779121925.578906,13.832504749298096,-1,preflight_wait,5.802595138549805,0.0,0.0,0.0,0.0,0.0,0.0,0.0,0,0,0,0,1,13.832636833190918,,,,,,,,,,0,,,,
1779121925.5988927,13.85249137878418,-1,preflight_wait,5.822598457336426,0.0,0.0,0.0,0.0,0.0,0.0,0.0,0,0,0,0,1,13.852630853652954,,,,,,,,,,0,,,,
1779121925.6188319,13.872430562973022,-1,preflight_wait,5.842593431472778,0.0,0.0,0.0,0.0,0.0,0.0,0.0,0,0,0,0,1,13.872592687606812,,,,,,,,,,0,,,,
1779121925.6390686,13.892667293548584,-1,preflight_wait,5.862800598144531,0.0,0.0,0.0,0.0,0.0,0.0,0.0,0,0,0,0,1,13.892817974090576,,,,,,,,,,0,,,,
1779121925.6590917,13.91269040107727,-1,preflight_wait,5.882821083068848,0.0,0.0,0.0,0.0,0.0,0.0,0.0,0,0,0,0,1,13.912839651107788,,,,,,,,,,0,,,,
1779121925.6788008,13.93239951133728,-1,preflight_wait,5.902530908584595,0.0,0.0,0.0,0.0,0.0,0.0,0.0,0,0,0,0,1,13.932550191879272,,,,,,,,,,0,,,,
1779121925.6989052,13.95250391960144,-1,preflight_wait,5.922639608383179,0.0,0.0,0.0,0.0,0.0,0.0,0.0,0,0,0,0,1,13.952655553817749,,,,,,,,,,0,,,,
1779121925.7187893,13.97238802909851,-1,preflight_wait,5.942536115646362,0.0,0.0,0.0,0.0,0.0,0.0,0.0,0,0,0,0,1,13.972542524337769,,,,,,,,,,0,,,,
1779121925.7388759,13.992474555969238,-1,preflight_wait,5.962604522705078,0.0,0.0,0.0,0.0,0.0,0.0,0.0,0,0,0,0,1,13.992623090744019,,,,,,,,,,0,,,,
1779121925.758848,14.012446641921997,-1,preflight_wait,5.98260235786438,0.0,0.0,0.0,0.0,0.0,0.0,0.0,0,0,0,0,1,14.01259994506836,,,,,,,,,,0,,,,
1779121925.7788212,14.032419919967651,-1,preflight_wait,6.002551794052124,0.0,0.0,0.0,0.0,0.0,0.0,0.0,0,0,0,0,1,14.032569408416748,,,,,,,,,,0,,,,
1779121925.798886,14.05248475074768,-1,preflight_wait,6.022612810134888,0.0,0.0,0.0,0.0,0.0,0.0,0.0,0,0,0,0,1,14.052631616592407,,,,,,,,,,0,,,,
1779121925.8188434,14.072442054748535,-1,preflight_wait,6.042593717575073,0.0,0.0,0.0,0.0,0.0,0.0,0.0,0,0,0,0,1,14.072598218917847,,,,,,,,,,0,,,,
1779121925.8388786,14.092477321624756,-1,preflight_wait,6.062606573104858,0.0,0.0,0.0,0.0,0.0,0.0,0.0,0,0,0,0,1,14.09262490272522,,,,,,,,,,0,,,,
1779121925.8588765,14.112475156784058,-1,preflight_wait,6.0826029777526855,0.0,0.0,0.0,0.0,0.0,0.0,0.0,0,0,0,0,1,14.112621784210205,,,,,,,,,,0,,,,
1779121925.8788512,14.132449865341187,-1,preflight_wait,6.102591037750244,0.0,0.0,0.0,0.0,0.0,0.0,0.0,0,0,0,0,1,14.132599353790283,,,,,,,,,,0,,,,
1779121925.8988214,14.152420043945312,-1,preflight_wait,6.122541427612305,0.0,0.0,0.0,0.0,0.0,0.0,0.0,0,0,0,0,1,14.152565002441406,,,,,,,,,,0,,,,
1779121925.918786,14.17238473892212,-1,preflight_wait,6.142522811889648,0.0,0.0,0.0,0.0,0.0,0.0,0.0,0,0,0,0,1,14.172534227371216,,,,,,,,,,0,,,,
1779121925.9388163,14.192414999008179,-1,preflight_wait,6.1625354290008545,0.0,0.0,0.0,0.0,0.0,0.0,0.0,0,0,0,0,1,14.192558765411377,,,,,,,,,,0,,,,
1779121925.958825,14.21242380142212,-1,preflight_wait,6.1825268268585205,0.0,0.0,0.0,0.0,0.0,0.0,0.0,0,0,0,0,1,14.21256136894226,,,,,,,,,,0,,,,
1779121925.9788709,14.23246955871582,-1,preflight_wait,6.202572584152222,0.0,0.0,0.0,0.0,0.0,0.0,0.0,0,0,0,0,1,14.232606887817383,,,,,,,,,,0,,,,
1779121925.9988935,14.252492189407349,-1,preflight_wait,6.222597122192383,0.0,0.0,0.0,0.0,0.0,0.0,0.0,0,0,0,0,1,14.252630472183228,,,,,,,,,,0,,,,
1779121926.0187721,14.2723708152771,-1,preflight_wait,6.242485284805298,0.0,0.0,0.0,0.0,0.0,0.0,0.0,0,0,0,0,1,14.272512912750244,,,,,,,,,,0,,,,
1779121926.0387948,14.292393445968628,-1,preflight_wait,6.262508869171143,0.0,0.0,0.0,0.0,0.0,0.0,0.0,0,0,0,0,1,14.29253602027893,,,,,,,,,,0,,,,
1779121926.058719,14.312317609786987,-1,preflight_wait,6.282413482666016,0.0,0.0,0.0,0.0,0.0,0.0,0.0,0,0,0,0,1,14.312451124191284,,,,,,,,,,0,,,,
1779121926.0787182,14.332316875457764,-1,preflight_wait,6.302408695220947,0.0,0.0,0.0,0.0,0.0,0.0,0.0,0,0,0,0,1,14.332449197769165,,,,,,,,,,0,,,,
1779121926.0987191,14.352317810058594,-1,preflight_wait,6.322411298751831,0.0,0.0,0.0,0.0,0.0,0.0,0.0,0,0,0,0,1,14.352451801300049,,,,,,,,,,0,,,,
1779121926.1187303,14.372328996658325,-1,preflight_wait,6.3424201011657715,0.0,0.0,0.0,0.0,0.0,0.0,0.0,0,0,0,0,1,14.372461557388306,,,,,,,,,,0,,,,
1779121926.138719,14.392317771911621,-1,preflight_wait,6.362408876419067,0.0,0.0,0.0,0.0,0.0,0.0,0.0,0,0,0,0,1,14.392449617385864,,,,,,,,,,0,,,,
1779121926.1587627,14.41236138343811,-1,preflight_wait,6.38245701789856,0.0,0.0,0.0,0.0,0.0,0.0,0.0,0,0,0,0,1,14.412494897842407,,,,,,,,,,0,,,,
1779121926.178723,14.432321786880493,-1,preflight_wait,6.4024131298065186,0.0,0.0,0.0,0.0,0.0,0.0,0.0,0,0,0,0,1,14.432453393936157,,,,,,,,,,0,,,,
1779121926.1987438,14.452342510223389,-1,preflight_wait,6.422436237335205,0.0,0.0,0.0,0.0,0.0,0.0,0.0,0,0,0,0,1,14.452475786209106,,,,,,,,,,0,,,,
1779121926.2187572,14.472355842590332,-1,preflight_wait,6.4424402713775635,0.0,0.0,0.0,0.0,0.0,0.0,0.0,0,0,0,0,1,14.4724862575531,,,,,,,,,,0,,,,
1779121926.2387202,14.492318868637085,-1,preflight_wait,6.462403297424316,0.0,0.0,0.0,0.0,0.0,0.0,0.0,0,0,0,0,1,14.492448091506958,,,,,,,,,,0,,,,
1779121926.2589557,14.512554407119751,-1,preflight_wait,6.482637166976929,0.0,0.0,0.0,0.0,0.0,0.0,0.0,0,0,0,0,1,14.512683153152466,,,,,,,,,,0,,,,
1779121926.278971,14.532569646835327,-1,preflight_wait,6.502651214599609,0.0,0.0,0.0,0.0,0.0,0.0,0.0,0,0,0,0,1,14.532696962356567,,,,,,,,,,0,,,,
1779121926.2989042,14.552502870559692,-1,preflight_wait,6.522593975067139,0.0,0.0,0.0,0.0,0.0,0.0,0.0,0,0,0,0,1,14.552635908126831,,,,,,,,,,0,,,,
1779121926.3187878,14.572386503219604,-1,preflight_wait,6.542527675628662,0.0,0.0,0.0,0.0,0.0,0.0,0.0,0,0,0,0,1,14.572537660598755,,,,,,,,,,0,,,,
1779121926.3388,14.592398643493652,-1,preflight_wait,6.5625293254852295,0.0,0.0,0.0,0.0,0.0,0.0,0.0,0,0,0,0,1,14.592548847198486,,,,,,,,,,0,,,,
1779121926.3588657,14.612464427947998,-1,preflight_wait,6.582591533660889,0.0,0.0,0.0,0.0,0.0,0.0,0.0,0,0,0,0,1,14.612610578536987,,,,,,,,,,0,,,,
1779121926.3788555,14.63245415687561,-1,preflight_wait,6.602586984634399,0.0,0.0,0.0,0.0,0.0,0.0,0.0,0,0,0,0,1,14.632604837417603,,,,,,,,,,0,,,,
1779121926.3999634,14.653562068939209,-1,preflight_wait,6.623716831207275,0.0,0.0,0.0,0.0,0.0,0.0,0.0,0,0,0,0,1,14.653720617294312,,,,,,,,,,0,,,,
1779121926.4188178,14.67241644859314,-1,preflight_wait,6.64255952835083,0.0,0.0,0.0,0.0,0.0,0.0,0.0,0,0,0,0,1,14.672568321228027,,,,,,,,,,0,,,,
1779121926.4390967,14.692695379257202,-1,preflight_wait,6.662798166275024,0.0,0.0,0.0,0.0,0.0,0.0,0.0,0,0,0,0,1,14.692831993103027,,,,,,,,,,0,,,,
1779121926.4593518,14.712950468063354,-1,preflight_wait,6.683044195175171,0.0,0.0,0.0,0.0,0.0,0.0,0.0,0,0,0,0,1,14.71308422088623,,,,,,,,,,0,,,,
1779121926.4787922,14.732390880584717,-1,preflight_wait,6.702491044998169,0.0,0.0,0.0,0.0,0.0,0.0,0.0,0,0,0,0,1,14.732530117034912,,,,,,,,,,0,,,,
1779121926.4987185,14.752317190170288,-1,preflight_wait,6.7224016189575195,0.0,0.0,0.0,0.0,0.0,0.0,0.0,0,0,0,0,1,14.752447366714478,,,,,,,,,,0,,,,
1779121926.5187817,14.772380352020264,-1,preflight_wait,6.742467880249023,0.0,0.0,0.0,0.0,0.0,0.0,0.0,0,0,0,0,1,14.77251148223877,,,,,,,,,,0,,,,
1779121926.538978,14.792576789855957,-1,preflight_wait,6.762660980224609,0.0,0.0,0.0,0.0,0.0,0.0,0.0,0,0,0,0,1,14.792706489562988,,,,,,,,,,0,,,,
1779121926.5588238,14.812422513961792,-1,preflight_wait,6.782569408416748,0.0,0.0,0.0,0.0,0.0,0.0,0.0,0,0,0,0,1,14.812574863433838,,,,,,,,,,0,,,,
1779121926.5787735,14.832372188568115,-1,preflight_wait,6.802510976791382,0.0,0.0,0.0,0.0,0.0,0.0,0.0,0,0,0,0,1,14.832521677017212,,,,,,,,,,0,,,,
1779121926.5987728,14.852371454238892,-1,preflight_wait,6.822511196136475,0.0,0.0,0.0,0.0,0.0,0.0,0.0,0,0,0,0,1,14.852520942687988,,,,,,,,,,0,,,,
1779121926.6188216,14.872420310974121,-1,preflight_wait,6.842541933059692,0.0,0.0,0.0,0.0,0.0,0.0,0.0,0,0,0,0,1,14.872564792633057,,,,,,,,,,0,,,,
1779121926.638829,14.892427682876587,-1,preflight_wait,6.862549304962158,0.0,0.0,0.0,0.0,0.0,0.0,0.0,0,0,0,0,1,14.89257264137268,,,,,,,,,,0,,,,
1779121926.6587372,14.912335872650146,-1,preflight_wait,6.882436990737915,0.0,0.0,0.0,0.0,0.0,0.0,0.0,0,0,0,0,1,14.912472248077393,,,,,,,,,,0,,,,
1779121926.6787276,14.932326316833496,-1,preflight_wait,6.902417182922363,0.0,0.0,0.0,0.0,0.0,0.0,0.0,0,0,0,0,1,14.932459592819214,,,,,,,,,,0,,,,
1779121926.6987238,14.952322483062744,-1,preflight_wait,6.922415733337402,0.0,0.0,0.0,0.0,0.0,0.0,0.0,0,0,0,0,1,14.952455759048462,,,,,,,,,,0,,,,
1779121926.71873,14.972328662872314,-1,preflight_wait,6.94242000579834,0.0,0.0,0.0,0.0,0.0,0.0,0.0,0,0,0,0,1,14.972461223602295,,,,,,,,,,0,,,,
1779121926.7387648,14.992363452911377,-1,preflight_wait,6.962447166442871,0.0,0.0,0.0,0.0,0.0,0.0,0.0,0,0,0,0,1,14.992492914199829,,,,,,,,,,0,,,,
1779121926.759018,15.012616634368896,-1,preflight_wait,6.982699632644653,0.0,0.0,0.0,0.0,0.0,0.0,0.0,0,0,0,0,1,15.01274585723877,,,,,,,,,,0,,,,
1779121926.7789774,15.032576084136963,-1,preflight_wait,7.002659797668457,0.0,0.0,0.0,0.0,0.0,0.0,0.0,0,0,0,0,1,15.032705068588257,,,,,,,,,,0,,,,
1779121926.7989056,15.052504301071167,-1,preflight_wait,7.022594213485718,0.0,0.0,0.0,0.0,0.0,0.0,0.0,0,0,0,0,1,15.05263614654541,,,,,,,,,,0,,,,
1779121926.81879,15.072388648986816,-1,preflight_wait,7.042513370513916,0.0,0.0,0.0,0.0,0.0,0.0,0.0,0,0,0,0,1,15.072532892227173,,,,,,,,,,0,,,,
1779121926.8388307,15.092429399490356,-1,preflight_wait,7.062558889389038,0.0,0.0,0.0,0.0,0.0,0.0,0.0,0,0,0,0,1,15.092577695846558,,,,,,,,,,0,,,,
1779121926.858882,15.112480640411377,-1,preflight_wait,7.082606554031372,0.0,0.0,0.0,0.0,0.0,0.0,0.0,0,0,0,0,1,15.112626552581787,,,,,,,,,,0,,,,
1779121926.8788896,15.132488250732422,-1,preflight_wait,7.102620601654053,0.0,0.0,0.0,0.0,0.0,0.0,0.0,0,0,0,0,1,15.132638454437256,,,,,,,,,,0,,,,
1779121926.8988218,15.15242052078247,-1,preflight_wait,7.122568607330322,0.0,0.0,0.0,0.0,0.0,0.0,0.0,0,0,0,0,1,15.152573585510254,,,,,,,,,,0,,,,
1779121926.9188514,15.172450065612793,-1,preflight_wait,7.1425981521606445,0.0,0.0,0.0,0.0,0.0,0.0,0.0,0,0,0,0,1,15.172603368759155,,,,,,,,,,0,,,,
1779121926.9387794,15.192378044128418,-1,preflight_wait,7.162480115890503,0.0,0.0,0.0,0.0,0.0,0.0,0.0,0,0,0,0,1,15.192514657974243,,,,,,,,,,0,,,,
1779121926.95878,15.212378740310669,-1,preflight_wait,7.182523727416992,0.0,0.0,0.0,0.0,0.0,0.0,0.0,0,0,0,0,1,15.212536811828613,,,,,,,,,,0,,,,
1779121926.978949,15.232547760009766,-1,preflight_wait,7.20263147354126,0.0,0.0,0.0,0.0,0.0,0.0,0.0,0,0,0,0,1,15.23267650604248,,,,,,,,,,0,,,,
1779121926.9987502,15.252348899841309,-1,preflight_wait,7.222443580627441,0.0,0.0,0.0,0.0,0.0,0.0,0.0,0,0,0,0,1,15.252481460571289,,,,,,,,,,0,,,,
1779121927.0187752,15.272373914718628,-1,preflight_wait,7.2425150871276855,0.0,0.0,0.0,0.0,0.0,0.0,0.0,0,0,0,0,1,15.272525548934937,,,,,,,,,,0,,,,
1779121927.0388403,15.292438983917236,-1,preflight_wait,7.262590646743774,0.0,0.0,0.0,0.0,0.0,0.0,0.0,0,0,0,0,1,15.292595863342285,,,,,,,,,,0,,,,
1779121927.0589058,15.312504529953003,-1,preflight_wait,7.282634496688843,0.0,0.0,0.0,0.0,0.0,0.0,0.0,0,0,0,0,1,15.312652349472046,,,,,,,,,,0,,,,
1779121927.0788722,15.332470893859863,-1,preflight_wait,7.302601337432861,0.0,0.0,0.0,0.0,0.0,0.0,0.0,0,0,0,0,1,15.332619190216064,,,,,,,,,,0,,,,
1779121927.098888,15.352486610412598,-1,preflight_wait,7.322618246078491,0.0,0.0,0.0,0.0,0.0,0.0,0.0,0,0,0,0,1,15.352636337280273,,,,,,,,,,0,,,,
1779121927.1188452,15.372443914413452,-1,preflight_wait,7.34260368347168,0.0,0.0,0.0,0.0,0.0,0.0,0.0,0,0,0,0,1,15.372601747512817,,,,,,,,,,0,,,,
1779121927.1388385,15.392437219619751,-1,preflight_wait,7.362567901611328,0.0,0.0,0.0,0.0,0.0,0.0,0.0,0,0,0,0,1,15.392587184906006,,,,,,,,,,0,,,,
1779121927.1587987,15.412397384643555,-1,preflight_wait,7.3825507164001465,0.0,0.0,0.0,0.0,0.0,0.0,0.0,0,0,0,0,1,15.412554740905762,,,,,,,,,,0,,,,
1779121927.1787684,15.432367086410522,-1,preflight_wait,7.402456045150757,0.0,0.0,0.0,0.0,0.0,0.0,0.0,0,0,0,0,1,15.43249773979187,,,,,,,,,,0,,,,
1779121927.1987212,15.452319860458374,-1,preflight_wait,7.422403812408447,0.0,0.0,0.0,0.0,0.0,0.0,0.0,0,0,0,0,1,15.452449321746826,,,,,,,,,,0,,,,
1779121927.218722,15.472320795059204,-1,preflight_wait,7.4424049854278564,0.0,0.0,0.0,0.0,0.0,0.0,0.0,0,0,0,0,1,15.472450494766235,,,,,,,,,,0,,,,
1779121927.2389634,15.492562055587769,-1,preflight_wait,7.462647199630737,0.0,0.0,0.0,0.0,0.0,0.0,0.0,0,0,0,0,1,15.49269151687622,,,,,,,,,,0,,,,
1779121927.2588952,15.51249384880066,-1,preflight_wait,7.482585906982422,0.0,0.0,0.0,0.0,0.0,0.0,0.0,0,0,0,0,1,15.51262617111206,,,,,,,,,,0,,,,
1779121927.2788868,15.532485485076904,-1,preflight_wait,7.502610683441162,0.0,0.0,0.0,0.0,0.0,0.0,0.0,0,0,0,0,1,15.532632112503052,,,,,,,,,,0,,,,
1779121927.2989013,15.552500009536743,-1,preflight_wait,7.522632837295532,0.0,0.0,0.0,0.0,0.0,0.0,0.0,0,0,0,0,1,15.552648782730103,,,,,,,,,,0,,,,
1779121927.3188014,15.572400093078613,-1,preflight_wait,7.542550325393677,0.0,0.0,0.0,0.0,0.0,0.0,0.0,0,0,0,0,1,15.57255506515503,,,,,,,,,,0,,,,
1779121927.3388848,15.592483520507812,-1,preflight_wait,7.562640428543091,0.0,0.0,0.0,0.0,0.0,0.0,0.0,0,0,0,0,1,15.59263825416565,,,,,,,,,,0,,,,
1779121927.3588939,15.612492561340332,-1,preflight_wait,7.5826194286346436,0.0,0.0,0.0,0.0,0.0,0.0,0.0,0,0,0,0,1,15.6126389503479,,,,,,,,,,0,,,,
1779121927.378825,15.632423639297485,-1,preflight_wait,7.602551698684692,0.0,0.0,0.0,0.0,0.0,0.0,0.0,0,0,0,0,1,15.632570743560791,,,,,,,,,,0,,,,
1779121927.3988004,15.652399063110352,-1,preflight_wait,7.622531414031982,0.0,0.0,0.0,0.0,0.0,0.0,0.0,0,0,0,0,1,15.652546405792236,,,,,,,,,,0,,,,
1779121927.4197683,15.673367023468018,-1,preflight_wait,7.643509149551392,0.0,0.0,0.0,0.0,0.0,0.0,0.0,0,0,0,0,1,15.673518419265747,,,,,,,,,,0,,,,
1779121927.4387982,15.692396879196167,-1,preflight_wait,7.662513017654419,0.0,0.0,0.0,0.0,0.0,0.0,0.0,0,0,0,0,1,15.69253921508789,,,,,,,,,,0,,,,
1779121927.458729,15.712327718734741,-1,preflight_wait,7.682426929473877,0.0,0.0,0.0,0.0,0.0,0.0,0.0,0,0,0,0,1,15.712464332580566,,,,,,,,,,0,,,,
1779121927.4787214,15.732320070266724,-1,preflight_wait,7.702409267425537,0.0,0.0,0.0,0.0,0.0,0.0,0.0,0,0,0,0,1,15.732451677322388,,,,,,,,,,0,,,,
1779121927.4990396,15.752638339996338,-1,preflight_wait,7.722720623016357,0.0,0.0,0.0,0.0,0.0,0.0,0.0,0,0,0,0,1,15.752766370773315,,,,,,,,,,0,,,,
1779121927.519726,15.773324728012085,-1,preflight_wait,7.74341607093811,0.0,0.0,0.0,0.0,0.0,0.0,0.0,0,0,0,0,1,15.773457288742065,,,,,,,,,,0,,,,
1779121927.5389884,15.792587041854858,-1,preflight_wait,7.762670516967773,0.0,0.0,0.0,0.0,0.0,0.0,0.0,0,0,0,0,1,15.792716026306152,,,,,,,,,,0,,,,
1779121927.558997,15.81259560585022,-1,preflight_wait,7.782679557800293,0.0,0.0,0.0,0.0,0.0,0.0,0.0,0,0,0,0,1,15.812725305557251,,,,,,,,,,0,,,,
1779121927.5789275,15.832526206970215,-1,preflight_wait,7.802612781524658,0.0,0.0,0.0,0.0,0.0,0.0,0.0,0,0,0,0,1,15.832656621932983,,,,,,,,,,0,,,,
1779121927.599119,15.852717638015747,-1,preflight_wait,7.822812557220459,0.0,0.0,0.0,0.0,0.0,0.0,0.0,0,0,0,0,1,15.85285210609436,,,,,,,,,,0,,,,
1779121927.6188083,15.872406959533691,-1,preflight_wait,7.842538595199585,0.0,0.0,0.0,0.0,0.0,0.0,0.0,0,0,0,0,1,15.872552633285522,,,,,,,,,,0,,,,
1779121927.6388986,15.892497301101685,-1,preflight_wait,7.862630128860474,0.0,0.0,0.0,0.0,0.0,0.0,0.0,0,0,0,0,1,15.89264726638794,,,,,,,,,,0,,,,
1779121927.658832,15.912430763244629,-1,preflight_wait,7.882583379745483,0.0,0.0,0.0,0.0,0.0,0.0,0.0,0,0,0,0,1,15.91258978843689,,,,,,,,,,0,,,,
1779121927.6788292,15.932427883148193,-1,preflight_wait,7.9025654792785645,0.0,0.0,0.0,0.0,0.0,0.0,0.0,0,0,0,0,1,15.932583093643188,,,,,,,,,,0,,,,
1779121927.6988943,15.952492952346802,-1,preflight_wait,7.922626972198486,0.0,0.0,0.0,0.0,0.0,0.0,0.0,0,0,0,0,1,15.952642679214478,,,,,,,,,,0,,,,
1779121927.718792,15.97239065170288,-1,preflight_wait,7.94252610206604,0.0,0.0,0.0,0.0,0.0,0.0,0.0,0,0,0,0,1,15.972544431686401,,,,,,,,,,0,,,,
1779121927.738916,15.992514610290527,-1,preflight_wait,7.962643623352051,0.0,0.0,0.0,0.0,0.0,0.0,0.0,0,0,0,0,1,15.99266242980957,,,,,,,,,,0,,,,
1779121927.758899,16.012497663497925,-1,preflight_wait,7.982624053955078,0.0,0.0,0.0,0.0,0.0,0.0,0.0,0,0,0,0,1,16.012644290924072,,,,,,,,,,0,,,,
1779121927.778872,16.032470703125,-1,preflight_wait,8.002596855163574,0.0,0.0,0.0,0.0,0.0,0.0,0.0,0,0,0,0,1,16.03261661529541,,,,,,,,,,0,,,,
1779121927.7988977,16.052496433258057,-1,preflight_wait,8.022626399993896,0.0,0.0,0.0,0.0,0.0,0.0,0.0,0,0,0,0,1,16.052643537521362,,,,,,,,,,0,,,,
1779121927.818831,16.072429656982422,-1,preflight_wait,8.042579412460327,0.0,0.0,0.0,0.0,0.0,0.0,0.0,0,0,0,0,1,16.072587490081787,,,,,,,,,,0,,,,
1779121927.8388925,16.092491149902344,-1,preflight_wait,8.06265926361084,0.0,0.0,0.0,0.0,0.0,0.0,0.0,0,0,0,0,1,16.092653512954712,,,,,,,,,,0,,,,
1779121927.8588202,16.11241888999939,-1,preflight_wait,8.082587480545044,0.0,0.0,0.0,0.0,0.0,0.0,0.0,0,0,0,0,1,16.112579584121704,,,,,,,,,,0,,,,
1779121927.878854,16.132452726364136,-1,preflight_wait,8.10262393951416,0.0,0.0,0.0,0.0,0.0,0.0,0.0,0,0,0,0,1,16.13261318206787,,,,,,,,,,0,,,,
1779121927.8991811,16.152779817581177,-1,preflight_wait,8.122965335845947,0.0,0.0,0.0,0.0,0.0,0.0,0.0,0,0,0,0,1,16.152947902679443,,,,,,,,,,0,,,,
