wall_time_s,elapsed_s,phase_index,phase_name,phase_elapsed_s,roll_norm,pitch_norm,yaw_norm,thrust_norm,roll_deg,pitch_deg,yawrate_deg_s,thrust_raw,thrust_axis_seen,button_5,button_9,event_count,last_event_age_s,mocap_x,mocap_y,mocap_z,height_above_floor,mocap_qx,mocap_qy,mocap_qz,mocap_qw,mocap_age_s,mocap_frame_count,mocap_vx_m_s,mocap_vy_m_s,mocap_vz_m_s,horizontal_distance_from_start_m
1778865581.509253,8.024165868759155,-1,preflight_wait,0.0007138252258300781,0.0,0.0,0.0,0.0,0.0,0.0,0.0,0,0,0,0,1,8.02432918548584,,,,,,,,,,0,,,,
1778865581.5293214,8.044234275817871,-1,preflight_wait,0.0207822322845459,0.0,0.0,0.0,0.0,0.0,0.0,0.0,0,0,0,0,1,8.044397592544556,,,,,,,,,,0,,,,
1778865581.5493274,8.064240217208862,-1,preflight_wait,0.04078245162963867,0.0,0.0,0.0,0.0,0.0,0.0,0.0,0,0,0,0,1,8.06440019607544,,,,,,,,,,0,,,,
1778865581.5693247,8.084237575531006,-1,preflight_wait,0.06078624725341797,0.0,0.0,0.0,0.0,0.0,0.0,0.0,0,0,0,0,1,8.084400415420532,,,,,,,,,,0,,,,
1778865581.5893235,8.104236364364624,-1,preflight_wait,0.08078360557556152,0.0,0.0,0.0,0.0,0.0,0.0,0.0,0,0,0,0,1,8.104398012161255,,,,,,,,,,0,,,,
1778865581.609362,8.124274730682373,-1,preflight_wait,0.10081863403320312,0.0,0.0,0.0,0.0,0.0,0.0,0.0,0,0,0,0,1,8.124435663223267,,,,,,,,,,0,,,,
1778865581.629327,8.144239902496338,-1,preflight_wait,0.1207878589630127,0.0,0.0,0.0,0.0,0.0,0.0,0.0,0,0,0,0,1,8.14440131187439,,,,,,,,,,0,,,,
1778865581.6493287,8.164241552352905,-1,preflight_wait,0.1407926082611084,0.0,0.0,0.0,0.0,0.0,0.0,0.0,0,0,0,0,1,8.164405107498169,,,,,,,,,,0,,,,
1778865581.669318,8.18423080444336,-1,preflight_wait,0.16077184677124023,0.0,0.0,0.0,0.0,0.0,0.0,0.0,0,0,0,0,1,8.1843900680542,,,,,,,,,,0,,,,
1778865581.6893287,8.204241514205933,-1,preflight_wait,0.18078970909118652,0.0,0.0,0.0,0.0,0.0,0.0,0.0,0,0,0,0,1,8.20440411567688,,,,,,,,,,0,,,,
1778865581.709377,8.224289894104004,-1,preflight_wait,0.2008957862854004,0.0,0.0,0.0,0.0,0.0,0.0,0.0,0,0,0,0,1,8.224472761154175,,,,,,,,,,0,,,,
1778865581.7293284,8.24424123764038,-1,preflight_wait,0.2207944393157959,0.0,0.0,0.0,0.0,0.0,0.0,0.0,0,0,0,0,1,8.244405031204224,,,,,,,,,,0,,,,
1778865581.7493224,8.264235258102417,-1,preflight_wait,0.2407832145690918,0.0,0.0,0.0,0.0,0.0,0.0,0.0,0,0,0,0,1,8.264397859573364,,,,,,,,,,0,,,,
1778865581.7693884,8.284301280975342,-1,preflight_wait,0.26093053817749023,0.0,0.0,0.0,0.0,0.0,0.0,0.0,0,0,0,0,1,8.284490823745728,,,,,,,,,,0,,,,
1778865581.7894034,8.304316282272339,-1,preflight_wait,0.2809293270111084,0.0,0.0,0.0,0.0,0.0,0.0,0.0,0,0,0,0,1,8.304502964019775,,,,,,,,,,0,,,,
1778865581.809367,8.32427978515625,-1,preflight_wait,0.3008294105529785,0.0,0.0,0.0,0.0,0.0,0.0,0.0,0,0,0,0,1,8.324442386627197,,,,,,,,,,0,,,,
1778865581.8293579,8.344270706176758,-1,preflight_wait,0.320817232131958,0.0,0.0,0.0,0.0,0.0,0.0,0.0,0,0,0,0,1,8.344432353973389,,,,,,,,,,0,,,,
1778865581.8493242,8.364237070083618,-1,preflight_wait,0.34078288078308105,0.0,0.0,0.0,0.0,0.0,0.0,0.0,0,0,0,0,1,8.364397525787354,,,,,,,,,,0,,,,
1778865581.8693175,8.384230375289917,-1,preflight_wait,0.36077284812927246,0.0,0.0,0.0,0.0,0.0,0.0,0.0,0,0,0,0,1,8.384390115737915,,,,,,,,,,0,,,,
1778865581.889425,8.404337882995605,-1,preflight_wait,0.3808884620666504,0.0,0.0,0.0,0.0,0.0,0.0,0.0,0,0,0,0,1,8.404500961303711,,,,,,,,,,0,,,,
1778865581.909373,8.424285888671875,-1,preflight_wait,0.4008522033691406,0.0,0.0,0.0,0.0,0.0,0.0,0.0,0,0,0,0,1,8.42445993423462,,,,,,,,,,0,,,,
1778865581.929328,8.444240808486938,-1,preflight_wait,0.420790433883667,0.0,0.0,0.0,0.0,0.0,0.0,0.0,0,0,0,0,1,8.444403886795044,,,,,,,,,,0,,,,
1778865581.949333,8.464245796203613,-1,preflight_wait,0.44080305099487305,0.0,0.0,0.0,0.0,0.0,0.0,0.0,0,0,0,0,1,8.464412212371826,,,,,,,,,,0,,,,
1778865581.969355,8.484267950057983,-1,preflight_wait,0.4608132839202881,0.0,0.0,0.0,0.0,0.0,0.0,0.0,0,0,0,0,1,8.484429121017456,,,,,,,,,,0,,,,
1778865581.9893634,8.504276275634766,-1,preflight_wait,0.4808194637298584,0.0,0.0,0.0,0.0,0.0,0.0,0.0,0,0,0,0,1,8.504436492919922,,,,,,,,,,0,,,,
1778865582.0094056,8.52431845664978,-1,preflight_wait,0.5009386539459229,0.0,0.0,0.0,0.0,0.0,0.0,0.0,0,0,0,0,1,8.524508237838745,,,,,,,,,,0,,,,
1778865582.0294416,8.544354438781738,-1,preflight_wait,0.5209558010101318,0.0,0.0,0.0,0.0,0.0,0.0,0.0,0,0,0,0,1,8.544538736343384,,,,,,,,,,0,,,,
1778865582.0494468,8.564359664916992,-1,preflight_wait,0.540959358215332,0.0,0.0,0.0,0.0,0.0,0.0,0.0,0,0,0,0,1,8.564542770385742,,,,,,,,,,0,,,,
1778865582.0693774,8.584290266036987,-1,preflight_wait,0.5609056949615479,0.0,0.0,0.0,0.0,0.0,0.0,0.0,0,0,0,0,1,8.584477424621582,,,,,,,,,,0,,,,
1778865582.0893533,8.604266166687012,-1,preflight_wait,0.5808367729187012,0.0,0.0,0.0,0.0,0.0,0.0,0.0,0,0,0,0,1,8.60443902015686,,,,,,,,,,0,,,,
1778865582.1093404,8.624253273010254,-1,preflight_wait,0.6008107662200928,0.0,0.0,0.0,0.0,0.0,0.0,0.0,0,0,0,0,1,8.624420642852783,,,,,,,,,,0,,,,
1778865582.1293263,8.6442391872406,-1,preflight_wait,0.6207852363586426,0.0,0.0,0.0,0.0,0.0,0.0,0.0,0,0,0,0,1,8.644401788711548,,,,,,,,,,0,,,,
1778865582.1493278,8.664240598678589,-1,preflight_wait,0.6407890319824219,0.0,0.0,0.0,0.0,0.0,0.0,0.0,0,0,0,0,1,8.664403200149536,,,,,,,,,,0,,,,
1778865582.169361,8.684273958206177,-1,preflight_wait,0.6608188152313232,0.0,0.0,0.0,0.0,0.0,0.0,0.0,0,0,0,0,1,8.684434175491333,,,,,,,,,,0,,,,
1778865582.1893249,8.704237699508667,-1,preflight_wait,0.6807818412780762,0.0,0.0,0.0,0.0,0.0,0.0,0.0,0,0,0,0,1,8.70439887046814,,,,,,,,,,0,,,,
1778865582.2093208,8.724233627319336,-1,preflight_wait,0.7007753849029541,0.0,0.0,0.0,0.0,0.0,0.0,0.0,0,0,0,0,1,8.724392890930176,,,,,,,,,,0,,,,
1778865582.22934,8.744252920150757,-1,preflight_wait,0.720818281173706,0.0,0.0,0.0,0.0,0.0,0.0,0.0,0,0,0,0,1,8.744422674179077,,,,,,,,,,0,,,,
1778865582.2493567,8.764269590377808,-1,preflight_wait,0.7408156394958496,0.0,0.0,0.0,0.0,0.0,0.0,0.0,0,0,0,0,1,8.764431953430176,,,,,,,,,,0,,,,
1778865582.269449,8.784361839294434,-1,preflight_wait,0.7610011100769043,0.0,0.0,0.0,0.0,0.0,0.0,0.0,0,0,0,0,1,8.784556150436401,,,,,,,,,,0,,,,
1778865582.2897778,8.804690599441528,-1,preflight_wait,0.7813246250152588,0.0,0.0,0.0,0.0,0.0,0.0,0.0,0,0,0,0,1,8.80488896369934,,,,,,,,,,0,,,,
1778865582.3093436,8.824256420135498,-1,preflight_wait,0.8008236885070801,0.0,0.0,0.0,0.0,0.0,0.0,0.0,0,0,0,0,1,8.824429988861084,,,,,,,,,,0,,,,
1778865582.3293307,8.84424352645874,-1,preflight_wait,0.8207952976226807,0.0,0.0,0.0,0.0,0.0,0.0,0.0,0,0,0,0,1,8.844406366348267,,,,,,,,,,0,,,,
1778865582.3493907,8.864303588867188,-1,preflight_wait,0.8408708572387695,0.0,0.0,0.0,0.0,0.0,0.0,0.0,0,0,0,0,1,8.864479064941406,,,,,,,,,,0,,,,
1778865582.3693237,8.884236574172974,-1,preflight_wait,0.8607847690582275,0.0,0.0,0.0,0.0,0.0,0.0,0.0,0,0,0,0,1,8.884398698806763,,,,,,,,,,0,,,,
1778865582.3893435,8.904256343841553,-1,preflight_wait,0.8808038234710693,0.0,0.0,0.0,0.0,0.0,0.0,0.0,0,0,0,0,1,8.904418468475342,,,,,,,,,,0,,,,
1778865582.4093564,8.924269199371338,-1,preflight_wait,0.9008114337921143,0.0,0.0,0.0,0.0,0.0,0.0,0.0,0,0,0,0,1,8.924429416656494,,,,,,,,,,0,,,,
1778865582.4293294,8.944242238998413,-1,preflight_wait,0.9207892417907715,0.0,0.0,0.0,0.0,0.0,0.0,0.0,0,0,0,0,1,8.944404363632202,,,,,,,,,,0,,,,
1778865582.4493566,8.964269399642944,-1,preflight_wait,0.940814733505249,0.0,0.0,0.0,0.0,0.0,0.0,0.0,0,0,0,0,1,8.964431285858154,,,,,,,,,,0,,,,
1778865582.4693189,8.98423171043396,-1,preflight_wait,0.9607748985290527,0.0,0.0,0.0,0.0,0.0,0.0,0.0,0,0,0,0,1,8.984391212463379,,,,,,,,,,0,,,,
1778865582.4893205,9.004233360290527,-1,preflight_wait,0.9807803630828857,0.0,0.0,0.0,0.0,0.0,0.0,0.0,0,0,0,0,1,9.00439453125,,,,,,,,,,0,,,,
1778865582.5095134,9.024426221847534,-1,preflight_wait,1.0010449886322021,0.0,0.0,0.0,0.0,0.0,0.0,0.0,0,0,0,0,1,9.024615049362183,,,,,,,,,,0,,,,
1778865582.5298436,9.044756412506104,-1,preflight_wait,1.0213713645935059,0.0,0.0,0.0,0.0,0.0,0.0,0.0,0,0,0,0,1,9.044941425323486,,,,,,,,,,0,,,,
1778865582.549402,9.064314842224121,-1,preflight_wait,1.0409579277038574,0.0,0.0,0.0,0.0,0.0,0.0,0.0,0,0,0,0,1,9.064513206481934,,,,,,,,,,0,,,,
1778865582.5694106,9.084323406219482,-1,preflight_wait,1.0609564781188965,0.0,0.0,0.0,0.0,0.0,0.0,0.0,0,0,0,0,1,9.084518432617188,,,,,,,,,,0,,,,
1778865582.5893521,9.104264974594116,-1,preflight_wait,1.0808382034301758,0.0,0.0,0.0,0.0,0.0,0.0,0.0,0,0,0,0,1,9.10443639755249,,,,,,,,,,0,,,,
1778865582.6093283,9.12424111366272,-1,preflight_wait,1.1007969379425049,0.0,0.0,0.0,0.0,0.0,0.0,0.0,0,0,0,0,1,9.1244056224823,,,,,,,,,,0,,,,
1778865582.6293235,9.144236326217651,-1,preflight_wait,1.1207869052886963,0.0,0.0,0.0,0.0,0.0,0.0,0.0,0,0,0,0,1,9.144399642944336,,,,,,,,,,0,,,,
1778865582.649416,9.164328813552856,-1,preflight_wait,1.1408872604370117,0.0,0.0,0.0,0.0,0.0,0.0,0.0,0,0,0,0,1,9.164497375488281,,,,,,,,,,0,,,,
1778865582.669323,9.18423581123352,-1,preflight_wait,1.1607816219329834,0.0,0.0,0.0,0.0,0.0,0.0,0.0,0,0,0,0,1,9.184397220611572,,,,,,,,,,0,,,,
1778865582.689346,9.204258918762207,-1,preflight_wait,1.1808061599731445,0.0,0.0,0.0,0.0,0.0,0.0,0.0,0,0,0,0,1,9.204420566558838,,,,,,,,,,0,,,,
1778865582.709365,9.22427773475647,-1,preflight_wait,1.2008285522460938,0.0,0.0,0.0,0.0,0.0,0.0,0.0,0,0,0,0,1,9.224441766738892,,,,,,,,,,0,,,,
1778865582.7293289,9.244241714477539,-1,preflight_wait,1.2207884788513184,0.0,0.0,0.0,0.0,0.0,0.0,0.0,0,0,0,0,1,9.24440312385559,,,,,,,,,,0,,,,
1778865582.7493837,9.264296531677246,-1,preflight_wait,1.240846872329712,0.0,0.0,0.0,0.0,0.0,0.0,0.0,0,0,0,0,1,9.264461040496826,,,,,,,,,,0,,,,
1778865582.7693267,9.284239530563354,-1,preflight_wait,1.2607879638671875,0.0,0.0,0.0,0.0,0.0,0.0,0.0,0,0,0,0,1,9.284402132034302,,,,,,,,,,0,,,,
1778865582.789321,9.30423378944397,-1,preflight_wait,1.2807767391204834,0.0,0.0,0.0,0.0,0.0,0.0,0.0,0,0,0,0,1,9.304394006729126,,,,,,,,,,0,,,,
1778865582.8093345,9.324247360229492,-1,preflight_wait,1.3007991313934326,0.0,0.0,0.0,0.0,0.0,0.0,0.0,0,0,0,0,1,9.324411630630493,,,,,,,,,,0,,,,
1778865582.8293297,9.344242572784424,-1,preflight_wait,1.320801019668579,0.0,0.0,0.0,0.0,0.0,0.0,0.0,0,0,0,0,1,9.344407558441162,,,,,,,,,,0,,,,
1778865582.849338,9.364250898361206,-1,preflight_wait,1.3408288955688477,0.0,0.0,0.0,0.0,0.0,0.0,0.0,0,0,0,0,1,9.364431381225586,,,,,,,,,,0,,,,
1778865582.8693209,9.384233713150024,-1,preflight_wait,1.360785961151123,0.0,0.0,0.0,0.0,0.0,0.0,0.0,0,0,0,0,1,9.384395360946655,,,,,,,,,,0,,,,
1778865582.8893542,9.404267072677612,-1,preflight_wait,1.3808269500732422,0.0,0.0,0.0,0.0,0.0,0.0,0.0,0,0,0,0,1,9.40443730354309,,,,,,,,,,0,,,,
1778865582.9093275,9.424240350723267,-1,preflight_wait,1.4007880687713623,0.0,0.0,0.0,0.0,0.0,0.0,0.0,0,0,0,0,1,9.424401998519897,,,,,,,,,,0,,,,
1778865582.9293244,9.444237232208252,-1,preflight_wait,1.420785903930664,0.0,0.0,0.0,0.0,0.0,0.0,0.0,0,0,0,0,1,9.4443998336792,,,,,,,,,,0,,,,
1778865582.9493308,9.464243650436401,-1,preflight_wait,1.4407908916473389,0.0,0.0,0.0,0.0,0.0,0.0,0.0,0,0,0,0,1,9.46440577507019,,,,,,,,,,0,,,,
1778865582.969336,9.484248876571655,-1,preflight_wait,1.4607977867126465,0.0,0.0,0.0,0.0,0.0,0.0,0.0,0,0,0,0,1,9.484411239624023,,,,,,,,,,0,,,,
1778865582.9893222,9.504235029220581,-1,preflight_wait,1.4807829856872559,0.0,0.0,0.0,0.0,0.0,0.0,0.0,0,0,0,0,1,9.504396438598633,,,,,,,,,,0,,,,
1778865583.0093608,9.52427363395691,-1,preflight_wait,1.5008165836334229,0.0,0.0,0.0,0.0,0.0,0.0,0.0,0,0,0,0,1,9.524434328079224,,,,,,,,,,0,,,,
1778865583.0293233,9.544236183166504,-1,preflight_wait,1.5207860469818115,0.0,0.0,0.0,0.0,0.0,0.0,0.0,0,0,0,0,1,9.544398069381714,,,,,,,,,,0,,,,
1778865583.049321,9.564233779907227,-1,preflight_wait,1.5407836437225342,0.0,0.0,0.0,0.0,0.0,0.0,0.0,0,0,0,0,1,9.564397096633911,,,,,,,,,,0,,,,
1778865583.0693183,9.58423113822937,-1,preflight_wait,1.5607738494873047,0.0,0.0,0.0,0.0,0.0,0.0,0.0,0,0,0,0,1,9.584390878677368,,,,,,,,,,0,,,,
1778865583.0893261,9.604238986968994,-1,preflight_wait,1.5807890892028809,0.0,0.0,0.0,0.0,0.0,0.0,0.0,0,0,0,0,1,9.604402303695679,,,,,,,,,,0,,,,
1778865583.1093185,9.624231338500977,-1,preflight_wait,1.6007723808288574,0.0,0.0,0.0,0.0,0.0,0.0,0.0,0,0,0,0,1,9.624390125274658,,,,,,,,,,0,,,,
1778865583.1293576,9.644270420074463,-1,preflight_wait,1.620863437652588,0.0,0.0,0.0,0.0,0.0,0.0,0.0,0,0,0,0,1,9.6444571018219,,,,,,,,,,0,,,,
1778865583.1493225,9.664235353469849,-1,preflight_wait,1.6407809257507324,0.0,0.0,0.0,0.0,0.0,0.0,0.0,0,0,0,0,1,9.6643967628479,,,,,,,,,,0,,,,
1778865583.1693513,9.684264183044434,-1,preflight_wait,1.6608080863952637,0.0,0.0,0.0,0.0,0.0,0.0,0.0,0,0,0,0,1,9.684425115585327,,,,,,,,,,0,,,,
1778865583.1893237,9.704236507415771,-1,preflight_wait,1.6807832717895508,0.0,0.0,0.0,0.0,0.0,0.0,0.0,0,0,0,0,1,9.704397439956665,,,,,,,,,,0,,,,
1778865583.2093556,9.724268436431885,-1,preflight_wait,1.7008121013641357,0.0,0.0,0.0,0.0,0.0,0.0,0.0,0,0,0,0,1,9.7244291305542,,,,,,,,,,0,,,,
1778865583.2293253,9.744238138198853,-1,preflight_wait,1.7207865715026855,0.0,0.0,0.0,0.0,0.0,0.0,0.0,0,0,0,0,1,9.744400262832642,,,,,,,,,,0,,,,
1778865583.2493267,9.76423954963684,-1,preflight_wait,1.740788221359253,0.0,0.0,0.0,0.0,0.0,0.0,0.0,0,0,0,0,1,9.764402866363525,,,,,,,,,,0,,,,
1778865583.2693195,9.784232378005981,-1,preflight_wait,1.7607741355895996,0.0,0.0,0.0,0.0,0.0,0.0,0.0,0,0,0,0,1,9.784391641616821,,,,,,,,,,0,,,,
1778865583.289368,9.804280757904053,-1,preflight_wait,1.780825138092041,0.0,0.0,0.0,0.0,0.0,0.0,0.0,0,0,0,0,1,9.804441690444946,,,,,,,,,,0,,,,
1778865583.309319,9.82423186302185,-1,preflight_wait,1.8007729053497314,0.0,0.0,0.0,0.0,0.0,0.0,0.0,0,0,0,0,1,9.824390888214111,,,,,,,,,,0,,,,
1778865583.3293352,9.844248056411743,-1,preflight_wait,1.8208129405975342,0.0,0.0,0.0,0.0,0.0,0.0,0.0,0,0,0,0,1,9.844417572021484,,,,,,,,,,0,,,,
1778865583.3493204,9.864233255386353,-1,preflight_wait,1.8407783508300781,0.0,0.0,0.0,0.0,0.0,0.0,0.0,0,0,0,0,1,9.864393949508667,,,,,,,,,,0,,,,
1778865583.3693154,9.884228229522705,-1,preflight_wait,1.860769271850586,0.0,0.0,0.0,0.0,0.0,0.0,0.0,0,0,0,0,1,9.884387731552124,,,,,,,,,,0,,,,
1778865583.3893323,9.904245138168335,-1,preflight_wait,1.8807954788208008,0.0,0.0,0.0,0.0,0.0,0.0,0.0,0,0,0,0,1,9.90440821647644,,,,,,,,,,0,,,,
1778865583.4093919,9.924304723739624,-1,preflight_wait,1.9009361267089844,0.0,0.0,0.0,0.0,0.0,0.0,0.0,0,0,0,0,1,9.924500465393066,,,,,,,,,,0,,,,
1778865583.4294019,9.94431471824646,-1,preflight_wait,1.9209339618682861,0.0,0.0,0.0,0.0,0.0,0.0,0.0,0,0,0,0,1,9.944504976272583,,,,,,,,,,0,,,,
1778865583.4493616,9.964274406433105,-1,preflight_wait,1.9408469200134277,0.0,0.0,0.0,0.0,0.0,0.0,0.0,0,0,0,0,1,9.964445352554321,,,,,,,,,,0,,,,
1778865583.4693239,9.984236717224121,-1,preflight_wait,1.960799217224121,0.0,0.0,0.0,0.0,0.0,0.0,0.0,0,0,0,0,1,9.984407424926758,,,,,,,,,,0,,,,
1778865583.4893315,10.004244327545166,-1,preflight_wait,1.9807968139648438,0.0,0.0,0.0,0.0,0.0,0.0,0.0,0,0,0,0,1,10.004408359527588,,,,,,,,,,0,,,,
1778865583.509362,10.024274826049805,-1,preflight_wait,2.0008223056793213,0.0,0.0,0.0,0.0,0.0,0.0,0.0,0,0,0,0,1,10.024436950683594,,,,,,,,,,0,,,,
1778865583.5293274,10.044240236282349,-1,preflight_wait,2.0207934379577637,0.0,0.0,0.0,0.0,0.0,0.0,0.0,0,0,0,0,1,10.044405221939087,,,,,,,,,,0,,,,
1778865583.54932,10.06423282623291,-1,preflight_wait,2.040775775909424,0.0,0.0,0.0,0.0,0.0,0.0,0.0,0,0,0,0,1,10.064393520355225,,,,,,,,,,0,,,,
1778865583.5693295,10.084242343902588,-1,preflight_wait,2.0607869625091553,0.0,0.0,0.0,0.0,0.0,0.0,0.0,0,0,0,0,1,10.08440375328064,,,,,,,,,,0,,,,
1778865583.5893202,10.104233026504517,-1,preflight_wait,2.080775260925293,0.0,0.0,0.0,0.0,0.0,0.0,0.0,0,0,0,0,1,10.104392528533936,,,,,,,,,,0,,,,
1778865583.6093245,10.124237298965454,-1,preflight_wait,2.100787401199341,0.0,0.0,0.0,0.0,0.0,0.0,0.0,0,0,0,0,1,10.124399900436401,,,,,,,,,,0,,,,
1778865583.6293268,10.144239664077759,-1,preflight_wait,2.120793342590332,0.0,0.0,0.0,0.0,0.0,0.0,0.0,0,0,0,0,1,10.144404649734497,,,,,,,,,,0,,,,
1778865583.6493227,10.164235591888428,-1,preflight_wait,2.140782117843628,0.0,0.0,0.0,0.0,0.0,0.0,0.0,0,0,0,0,1,10.164397716522217,,,,,,,,,,0,,,,
1778865583.6693497,10.18426251411438,-1,preflight_wait,2.160808801651001,0.0,0.0,0.0,0.0,0.0,0.0,0.0,0,0,0,0,1,10.18442416191101,,,,,,,,,,0,,,,
1778865583.6893268,10.2042396068573,-1,preflight_wait,2.1808011531829834,0.0,0.0,0.0,0.0,0.0,0.0,0.0,0,0,0,0,1,10.204415321350098,,,,,,,,,,0,,,,
1778865583.7093623,10.2242751121521,-1,preflight_wait,2.2008166313171387,0.0,0.0,0.0,0.0,0.0,0.0,0.0,0,0,0,0,1,10.224434614181519,,,,,,,,,,0,,,,
1778865583.729329,10.244241952896118,-1,preflight_wait,2.2208001613616943,0.0,0.0,0.0,0.0,0.0,0.0,0.0,0,0,0,0,1,10.244406938552856,,,,,,,,,,0,,,,
1778865583.7493308,10.264243602752686,-1,preflight_wait,2.2407965660095215,0.0,0.0,0.0,0.0,0.0,0.0,0.0,0,0,0,0,1,10.264408111572266,,,,,,,,,,0,,,,
1778865583.769323,10.284235954284668,-1,preflight_wait,2.2607834339141846,0.0,0.0,0.0,0.0,0.0,0.0,0.0,0,0,0,0,1,10.284398078918457,,,,,,,,,,0,,,,
1778865583.7893193,10.304232120513916,-1,preflight_wait,2.280775785446167,0.0,0.0,0.0,0.0,0.0,0.0,0.0,0,0,0,0,1,10.304392576217651,,,,,,,,,,0,,,,
1778865583.8093574,10.324270248413086,-1,preflight_wait,2.300814151763916,0.0,0.0,0.0,0.0,0.0,0.0,0.0,0,0,0,0,1,10.324430704116821,,,,,,,,,,0,,,,
1778865583.8293262,10.344238996505737,-1,preflight_wait,2.3207855224609375,0.0,0.0,0.0,0.0,0.0,0.0,0.0,0,0,0,0,1,10.34440016746521,,,,,,,,,,0,,,,
1778865583.8493307,10.364243507385254,-1,preflight_wait,2.3407955169677734,0.0,0.0,0.0,0.0,0.0,0.0,0.0,0,0,0,0,1,10.364407300949097,,,,,,,,,,0,,,,
1778865583.8693216,10.384234428405762,-1,preflight_wait,2.36077618598938,0.0,0.0,0.0,0.0,0.0,0.0,0.0,0,0,0,0,1,10.38439416885376,,,,,,,,,,0,,,,
1778865583.8897188,10.404631614685059,-1,preflight_wait,2.381183385848999,0.0,0.0,0.0,0.0,0.0,0.0,0.0,0,0,0,0,1,10.404796838760376,,,,,,,,,,0,,,,
1778865583.909327,10.424239873886108,-1,preflight_wait,2.400787115097046,0.0,0.0,0.0,0.0,0.0,0.0,0.0,0,0,0,0,1,10.42440152168274,,,,,,,,,,0,,,,
1778865583.9293277,10.44424057006836,-1,preflight_wait,2.420788526535034,0.0,0.0,0.0,0.0,0.0,0.0,0.0,0,0,0,0,1,10.444402933120728,,,,,,,,,,0,,,,
1778865583.9493337,10.46424651145935,-1,preflight_wait,2.440810203552246,0.0,0.0,0.0,0.0,0.0,0.0,0.0,0,0,0,0,1,10.464415311813354,,,,,,,,,,0,,,,
1778865583.9693224,10.484235286712646,-1,preflight_wait,2.4607982635498047,0.0,0.0,0.0,0.0,0.0,0.0,0.0,0,0,0,0,1,10.484398365020752,,,,,,,,,,0,,,,
1778865583.9893212,10.504234075546265,-1,preflight_wait,2.4807817935943604,0.0,0.0,0.0,0.0,0.0,0.0,0.0,0,0,0,0,1,10.504395961761475,,,,,,,,,,0,,,,
1778865584.0093427,10.524255514144897,-1,preflight_wait,2.500797986984253,0.0,0.0,0.0,0.0,0.0,0.0,0.0,0,0,0,0,1,10.524415254592896,,,,,,,,,,0,,,,
1778865584.0293581,10.544270992279053,-1,preflight_wait,2.5208137035369873,0.0,0.0,0.0,0.0,0.0,0.0,0.0,0,0,0,0,1,10.54443097114563,,,,,,,,,,0,,,,
1778865584.0493507,10.564263582229614,-1,preflight_wait,2.5408108234405518,0.0,0.0,0.0,0.0,0.0,0.0,0.0,0,0,0,0,1,10.56442666053772,,,,,,,,,,0,,,,
1778865584.0695844,10.584497213363647,-1,preflight_wait,2.5610392093658447,0.0,0.0,0.0,0.0,0.0,0.0,0.0,0,0,0,0,1,10.584657192230225,,,,,,,,,,0,,,,
1778865584.0893602,10.604273080825806,-1,preflight_wait,2.580815553665161,0.0,0.0,0.0,0.0,0.0,0.0,0.0,0,0,0,0,1,10.604433059692383,,,,,,,,,,0,,,,
1778865584.10932,10.624232769012451,-1,preflight_wait,2.6007773876190186,0.0,0.0,0.0,0.0,0.0,0.0,0.0,0,0,0,0,1,10.62439250946045,,,,,,,,,,0,,,,
1778865584.1293163,10.644229173660278,-1,preflight_wait,2.6207730770111084,0.0,0.0,0.0,0.0,0.0,0.0,0.0,0,0,0,0,1,10.644389390945435,,,,,,,,,,0,,,,
1778865584.1493697,10.66428256034851,-1,preflight_wait,2.640838146209717,0.0,0.0,0.0,0.0,0.0,0.0,0.0,0,0,0,0,1,10.664449691772461,,,,,,,,,,0,,,,
1778865584.1693504,10.684263229370117,-1,preflight_wait,2.6608221530914307,0.0,0.0,0.0,0.0,0.0,0.0,0.0,0,0,0,0,1,10.684427499771118,,,,,,,,,,0,,,,
1778865584.1893191,10.704231977462769,-1,preflight_wait,2.6807749271392822,0.0,0.0,0.0,0.0,0.0,0.0,0.0,0,0,0,0,1,10.704392433166504,,,,,,,,,,0,,,,
1778865584.2093544,10.72426724433899,-1,preflight_wait,2.7008094787597656,0.0,0.0,0.0,0.0,0.0,0.0,0.0,0,0,0,0,1,10.724426984786987,,,,,,,,,,0,,,,
1778865584.229323,10.744235754013062,-1,preflight_wait,2.720782995223999,0.0,0.0,0.0,0.0,0.0,0.0,0.0,0,0,0,0,1,10.744397401809692,,,,,,,,,,0,,,,
1778865584.2493527,10.764265537261963,-1,preflight_wait,2.740809440612793,0.0,0.0,0.0,0.0,0.0,0.0,0.0,0,0,0,0,1,10.764425992965698,,,,,,,,,,0,,,,
1778865584.2693162,10.784229040145874,-1,preflight_wait,2.7607736587524414,0.0,0.0,0.0,0.0,0.0,0.0,0.0,0,0,0,0,1,10.78438949584961,,,,,,,,,,0,,,,
1778865584.289299,10.804211854934692,-1,preflight_wait,2.780754566192627,0.0,0.0,0.0,0.0,0.0,0.0,0.0,0,0,0,0,1,10.804372072219849,,,,,,,,,,0,,,,
1778865584.309588,10.824500799179077,-1,preflight_wait,2.8010518550872803,0.0,0.0,0.0,0.0,0.0,0.0,0.0,0,0,0,0,1,10.824663162231445,,,,,,,,,,0,,,,
1778865584.32933,10.844242811203003,-1,preflight_wait,2.820801019668579,0.0,0.0,0.0,0.0,0.0,0.0,0.0,0,0,0,0,1,10.844408988952637,,,,,,,,,,0,,,,
1778865584.3493233,10.864236116409302,-1,preflight_wait,2.8407821655273438,0.0,0.0,0.0,0.0,0.0,0.0,0.0,0,0,0,0,1,10.864397287368774,,,,,,,,,,0,,,,
1778865584.369437,10.884349822998047,-1,preflight_wait,2.860954999923706,0.0,0.0,0.0,0.0,0.0,0.0,0.0,0,0,0,0,1,10.884536027908325,,,,,,,,,,0,,,,
1778865584.389366,10.904278755187988,-1,preflight_wait,2.8808648586273193,0.0,0.0,0.0,0.0,0.0,0.0,0.0,0,0,0,0,1,10.904457092285156,,,,,,,,,,0,,,,
1778865584.409347,10.924259901046753,-1,preflight_wait,2.90081524848938,0.0,0.0,0.0,0.0,0.0,0.0,0.0,0,0,0,0,1,10.924424409866333,,,,,,,,,,0,,,,
1778865584.4294274,10.944340229034424,-1,preflight_wait,2.9208898544311523,0.0,0.0,0.0,0.0,0.0,0.0,0.0,0,0,0,0,1,10.944502115249634,,,,,,,,,,0,,,,
1778865584.4493413,10.964254140853882,-1,preflight_wait,2.940800666809082,0.0,0.0,0.0,0.0,0.0,0.0,0.0,0,0,0,0,1,10.964416265487671,,,,,,,,,,0,,,,
1778865584.469318,10.984230756759644,-1,preflight_wait,2.9607744216918945,0.0,0.0,0.0,0.0,0.0,0.0,0.0,0,0,0,0,1,10.98439073562622,,,,,,,,,,0,,,,
1778865584.4893236,11.004236459732056,-1,preflight_wait,2.9807844161987305,0.0,0.0,0.0,0.0,0.0,0.0,0.0,0,0,0,0,1,11.004398584365845,,,,,,,,,,0,,,,
1778865584.5093212,11.024234056472778,-1,preflight_wait,3.0007808208465576,0.0,0.0,0.0,0.0,0.0,0.0,0.0,0,0,0,0,1,11.024396181106567,,,,,,,,,,0,,,,
1778865584.5293317,11.044244527816772,-1,preflight_wait,3.0208077430725098,0.0,0.0,0.0,0.0,0.0,0.0,0.0,0,0,0,0,1,11.04441237449646,,,,,,,,,,0,,,,
1778865584.5493455,11.064258337020874,-1,preflight_wait,3.0408265590667725,0.0,0.0,0.0,0.0,0.0,0.0,0.0,0,0,0,0,1,11.064428806304932,,,,,,,,,,0,,,,
1778865584.5693166,11.084229469299316,-1,preflight_wait,3.0607762336730957,0.0,0.0,0.0,0.0,0.0,0.0,0.0,0,0,0,0,1,11.08439016342163,,,,,,,,,,0,,,,
1778865584.5894835,11.104396343231201,-1,preflight_wait,3.0810153484344482,0.0,0.0,0.0,0.0,0.0,0.0,0.0,0,0,0,0,1,11.104581117630005,,,,,,,,,,0,,,,
1778865584.6093965,11.124309301376343,-1,preflight_wait,3.1009392738342285,0.0,0.0,0.0,0.0,0.0,0.0,0.0,0,0,0,0,1,11.124504566192627,,,,,,,,,,0,,,,
1778865584.6293676,11.144280433654785,-1,preflight_wait,3.1208677291870117,0.0,0.0,0.0,0.0,0.0,0.0,0.0,0,0,0,0,1,11.144456148147583,,,,,,,,,,0,,,,
1778865584.6493917,11.164304494857788,-1,preflight_wait,3.1408743858337402,0.0,0.0,0.0,0.0,0.0,0.0,0.0,0,0,0,0,1,11.164475679397583,,,,,,,,,,0,,,,
1778865584.6693351,11.184247970581055,-1,preflight_wait,3.160804033279419,0.0,0.0,0.0,0.0,0.0,0.0,0.0,0,0,0,0,1,11.184412479400635,,,,,,,,,,0,,,,
1778865584.6893256,11.204238414764404,-1,preflight_wait,3.1807916164398193,0.0,0.0,0.0,0.0,0.0,0.0,0.0,0,0,0,0,1,11.204401969909668,,,,,,,,,,0,,,,
1778865584.7093518,11.22426462173462,-1,preflight_wait,3.200809955596924,0.0,0.0,0.0,0.0,0.0,0.0,0.0,0,0,0,0,1,11.22442626953125,,,,,,,,,,0,,,,
1778865584.729319,11.244231939315796,-1,preflight_wait,3.2207744121551514,0.0,0.0,0.0,0.0,0.0,0.0,0.0,0,0,0,0,1,11.244391918182373,,,,,,,,,,0,,,,
1778865584.749377,11.264289855957031,-1,preflight_wait,3.240846633911133,0.0,0.0,0.0,0.0,0.0,0.0,0.0,0,0,0,0,1,11.26445722579956,,,,,,,,,,0,,,,
1778865584.7693517,11.28426456451416,-1,preflight_wait,3.260807514190674,0.0,0.0,0.0,0.0,0.0,0.0,0.0,0,0,0,0,1,11.284425020217896,,,,,,,,,,0,,,,
1778865584.7893202,11.304233074188232,-1,preflight_wait,3.2807769775390625,0.0,0.0,0.0,0.0,0.0,0.0,0.0,0,0,0,0,1,11.304393291473389,,,,,,,,,,0,,,,
1778865584.8093255,11.324238300323486,-1,preflight_wait,3.3007869720458984,0.0,0.0,0.0,0.0,0.0,0.0,0.0,0,0,0,0,1,11.324400901794434,,,,,,,,,,0,,,,
1778865584.8293247,11.344237565994263,-1,preflight_wait,3.3207857608795166,0.0,0.0,0.0,0.0,0.0,0.0,0.0,0,0,0,0,1,11.34439992904663,,,,,,,,,,0,,,,
1778865584.8493116,11.364224433898926,-1,preflight_wait,3.3407959938049316,0.0,0.0,0.0,0.0,0.0,0.0,0.0,0,0,0,0,1,11.364388704299927,,,,,,,,,,0,,,,
1778865584.8693833,11.384296178817749,-1,preflight_wait,3.360936403274536,0.0,0.0,0.0,0.0,0.0,0.0,0.0,0,0,0,0,1,11.384485483169556,,,,,,,,,,0,,,,
1778865584.8897333,11.404646158218384,-1,preflight_wait,3.3812122344970703,0.0,0.0,0.0,0.0,0.0,0.0,0.0,0,0,0,0,1,11.404815196990967,,,,,,,,,,0,,,,
1778865584.9093325,11.424245357513428,-1,preflight_wait,3.400801658630371,0.0,0.0,0.0,0.0,0.0,0.0,0.0,0,0,0,0,1,11.424413204193115,,,,,,,,,,0,,,,
1778865584.9293213,11.444234132766724,-1,preflight_wait,3.4207816123962402,0.0,0.0,0.0,0.0,0.0,0.0,0.0,0,0,0,0,1,11.444396018981934,,,,,,,,,,0,,,,
1778865584.9496427,11.464555501937866,-1,preflight_wait,3.44112491607666,0.0,0.0,0.0,0.0,0.0,0.0,0.0,0,0,0,0,1,11.464730978012085,,,,,,,,,,0,,,,
1778865584.9693282,11.484241008758545,-1,preflight_wait,3.460789442062378,0.0,0.0,0.0,0.0,0.0,0.0,0.0,0,0,0,0,1,11.484403371810913,,,,,,,,,,0,,,,
1778865584.9893165,11.504229307174683,-1,preflight_wait,3.480769395828247,0.0,0.0,0.0,0.0,0.0,0.0,0.0,0,0,0,0,1,11.504387855529785,,,,,,,,,,0,,,,
1778865585.0093188,11.524231672286987,-1,preflight_wait,3.5007824897766113,0.0,0.0,0.0,0.0,0.0,0.0,0.0,0,0,0,0,1,11.524393320083618,,,,,,,,,,0,,,,
1778865585.0293229,11.544235706329346,-1,preflight_wait,3.5207769870758057,0.0,0.0,0.0,0.0,0.0,0.0,0.0,0,0,0,0,1,11.544394969940186,,,,,,,,,,0,,,,
1778865585.0493262,11.564239025115967,-1,preflight_wait,3.5408105850219727,0.0,0.0,0.0,0.0,0.0,0.0,0.0,0,0,0,0,1,11.564403772354126,,,,,,,,,,0,,,,
1778865585.06934,11.584252834320068,-1,preflight_wait,3.5608010292053223,0.0,0.0,0.0,0.0,0.0,0.0,0.0,0,0,0,0,1,11.584415674209595,,,,,,,,,,0,,,,
1778865585.0893235,11.604236364364624,-1,preflight_wait,3.580785036087036,0.0,0.0,0.0,0.0,0.0,0.0,0.0,0,0,0,0,1,11.604398727416992,,,,,,,,,,0,,,,
1778865585.1096022,11.624515056610107,-1,preflight_wait,3.6010594367980957,0.0,0.0,0.0,0.0,0.0,0.0,0.0,0,0,0,0,1,11.624675512313843,,,,,,,,,,0,,,,
1778865585.1293359,11.644248723983765,-1,preflight_wait,3.6207962036132812,0.0,0.0,0.0,0.0,0.0,0.0,0.0,0,0,0,0,1,11.644409656524658,,,,,,,,,,0,,,,
1778865585.149326,11.664238929748535,-1,preflight_wait,3.6407902240753174,0.0,0.0,0.0,0.0,0.0,0.0,0.0,0,0,0,0,1,11.66440224647522,,,,,,,,,,0,,,,
1778865585.169357,11.684269905090332,-1,preflight_wait,3.660815477371216,0.0,0.0,0.0,0.0,0.0,0.0,0.0,0,0,0,0,1,11.684431314468384,,,,,,,,,,0,,,,
1778865585.189327,11.704239845275879,-1,preflight_wait,3.680788516998291,0.0,0.0,0.0,0.0,0.0,0.0,0.0,0,0,0,0,1,11.704402208328247,,,,,,,,,,0,,,,
1778865585.209328,11.724240779876709,-1,preflight_wait,3.7007930278778076,0.0,0.0,0.0,0.0,0.0,0.0,0.0,0,0,0,0,1,11.724406003952026,,,,,,,,,,0,,,,
1778865585.2293777,11.744290590286255,-1,preflight_wait,3.720838785171509,0.0,0.0,0.0,0.0,0.0,0.0,0.0,0,0,0,0,1,11.744450807571411,,,,,,,,,,0,,,,
1778865585.249319,11.76423192024231,-1,preflight_wait,3.740778923034668,0.0,0.0,0.0,0.0,0.0,0.0,0.0,0,0,0,0,1,11.764395236968994,,,,,,,,,,0,,,,
1778865585.2693627,11.784275531768799,-1,preflight_wait,3.7608790397644043,0.0,0.0,0.0,0.0,0.0,0.0,0.0,0,0,0,0,1,11.784456253051758,,,,,,,,,,0,,,,
1778865585.289461,11.804373741149902,-1,preflight_wait,3.7809720039367676,0.0,0.0,0.0,0.0,0.0,0.0,0.0,0,0,0,0,1,11.804556608200073,,,,,,,,,,0,,,,
1778865585.3094053,11.824318170547485,-1,preflight_wait,3.8009426593780518,0.0,0.0,0.0,0.0,0.0,0.0,0.0,0,0,0,0,1,11.824513912200928,,,,,,,,,,0,,,,
1778865585.3294249,11.844337701797485,-1,preflight_wait,3.820986747741699,0.0,0.0,0.0,0.0,0.0,0.0,0.0,0,0,0,0,1,11.844544649124146,,,,,,,,,,0,,,,
1778865585.3494067,11.864319562911987,-1,preflight_wait,3.8409361839294434,0.0,0.0,0.0,0.0,0.0,0.0,0.0,0,0,0,0,1,11.864513397216797,,,,,,,,,,0,,,,
1778865585.3694086,11.884321451187134,-1,preflight_wait,3.8609442710876465,0.0,0.0,0.0,0.0,0.0,0.0,0.0,0,0,0,0,1,11.884506702423096,,,,,,,,,,0,,,,
1778865585.3893976,11.904310464859009,-1,preflight_wait,3.8809359073638916,0.0,0.0,0.0,0.0,0.0,0.0,0.0,0,0,0,0,1,11.90450382232666,,,,,,,,,,0,,,,
1778865585.4093552,11.924268007278442,-1,preflight_wait,3.9008307456970215,0.0,0.0,0.0,0.0,0.0,0.0,0.0,0,0,0,0,1,11.924436807632446,,,,,,,,,,0,,,,
1778865585.4293253,11.944238185882568,-1,preflight_wait,3.9207875728607178,0.0,0.0,0.0,0.0,0.0,0.0,0.0,0,0,0,0,1,11.944400310516357,,,,,,,,,,0,,,,
1778865585.4493608,11.964273691177368,-1,preflight_wait,3.94081974029541,0.0,0.0,0.0,0.0,0.0,0.0,0.0,0,0,0,0,1,11.964436054229736,,,,,,,,,,0,,,,
1778865585.4693577,11.984270572662354,-1,preflight_wait,3.96081280708313,0.0,0.0,0.0,0.0,0.0,0.0,0.0,0,0,0,0,1,11.984430313110352,,,,,,,,,,0,,,,
1778865585.4893315,12.004244327545166,-1,preflight_wait,3.980792284011841,0.0,0.0,0.0,0.0,0.0,0.0,0.0,0,0,0,0,1,12.004405736923218,,,,,,,,,,0,,,,
1778865585.5093486,12.024261474609375,-1,preflight_wait,4.000805854797363,0.0,0.0,0.0,0.0,0.0,0.0,0.0,0,0,0,0,1,12.024422883987427,,,,,,,,,,0,,,,
1778865585.5293202,12.044233083724976,-1,preflight_wait,4.020779848098755,0.0,0.0,0.0,0.0,0.0,0.0,0.0,0,0,0,0,1,12.044395685195923,,,,,,,,,,0,,,,
1778865585.5493588,12.064271688461304,-1,preflight_wait,4.040817737579346,0.0,0.0,0.0,0.0,0.0,0.0,0.0,0,0,0,0,1,12.064433813095093,,,,,,,,,,0,,,,
1778865585.5693643,12.084277153015137,-1,preflight_wait,4.060819864273071,0.0,0.0,0.0,0.0,0.0,0.0,0.0,0,0,0,0,1,12.084437608718872,,,,,,,,,,0,,,,
1778865585.5893292,12.104242086410522,-1,preflight_wait,4.080840587615967,0.0,0.0,0.0,0.0,0.0,0.0,0.0,0,0,0,0,1,12.104403734207153,,,,,,,,,,0,,,,
1778865585.6093204,12.12423324584961,-1,preflight_wait,4.100780963897705,0.0,0.0,0.0,0.0,0.0,0.0,0.0,0,0,0,0,1,12.124396324157715,,,,,,,,,,0,,,,
1778865585.6293192,12.144232034683228,-1,preflight_wait,4.120781183242798,0.0,0.0,0.0,0.0,0.0,0.0,0.0,0,0,0,0,1,12.144394397735596,,,,,,,,,,0,,,,
1778865585.649317,12.16422986984253,-1,preflight_wait,4.140774965286255,0.0,0.0,0.0,0.0,0.0,0.0,0.0,0,0,0,0,1,12.16439151763916,,,,,,,,,,0,,,,
1778865585.6693141,12.184226989746094,-1,preflight_wait,4.160770416259766,0.0,0.0,0.0,0.0,0.0,0.0,0.0,0,0,0,0,1,12.184386491775513,,,,,,,,,,0,,,,
1778865585.689316,12.20422887802124,-1,preflight_wait,4.180772304534912,0.0,0.0,0.0,0.0,0.0,0.0,0.0,0,0,0,0,1,12.204388856887817,,,,,,,,,,0,,,,
1778865585.7094643,12.224377155303955,-1,preflight_wait,4.200917959213257,0.0,0.0,0.0,0.0,0.0,0.0,0.0,0,0,0,0,1,12.224536657333374,,,,,,,,,,0,,,,
1778865585.7293193,12.244232177734375,-1,preflight_wait,4.220778703689575,0.0,0.0,0.0,0.0,0.0,0.0,0.0,0,0,0,0,1,12.24439287185669,,,,,,,,,,0,,,,
1778865585.74932,12.264232873916626,-1,preflight_wait,4.24077582359314,0.0,0.0,0.0,0.0,0.0,0.0,0.0,0,0,0,0,1,12.264392375946045,,,,,,,,,,0,,,,
1778865585.7693584,12.284271240234375,-1,preflight_wait,4.260815858840942,0.0,0.0,0.0,0.0,0.0,0.0,0.0,0,0,0,0,1,12.284432649612427,,,,,,,,,,0,,,,
1778865585.7893183,12.3042311668396,-1,preflight_wait,4.280775547027588,0.0,0.0,0.0,0.0,0.0,0.0,0.0,0,0,0,0,1,12.304391384124756,,,,,,,,,,0,,,,
1778865585.809353,12.324265956878662,-1,preflight_wait,4.3008105754852295,0.0,0.0,0.0,0.0,0.0,0.0,0.0,0,0,0,0,1,12.324427127838135,,,,,,,,,,0,,,,
1778865585.8293223,12.344235181808472,-1,preflight_wait,4.320781946182251,0.0,0.0,0.0,0.0,0.0,0.0,0.0,0,0,0,0,1,12.344396114349365,,,,,,,,,,0,,,,
1778865585.8493297,12.364242553710938,-1,preflight_wait,4.340792179107666,0.0,0.0,0.0,0.0,0.0,0.0,0.0,0,0,0,0,1,12.364405155181885,,,,,,,,,,0,,,,
1778865585.869357,12.384269952774048,-1,preflight_wait,4.360811471939087,0.0,0.0,0.0,0.0,0.0,0.0,0.0,0,0,0,0,1,12.384429216384888,,,,,,,,,,0,,,,
1778865585.8893185,12.404231309890747,-1,preflight_wait,4.380774259567261,0.0,0.0,0.0,0.0,0.0,0.0,0.0,0,0,0,0,1,12.404392004013062,,,,,,,,,,0,,,,
1778865585.909324,12.42423677444458,-1,preflight_wait,4.400784492492676,0.0,0.0,0.0,0.0,0.0,0.0,0.0,0,0,0,0,1,12.424398422241211,,,,,,,,,,0,,,,
1778865585.9293199,12.444232702255249,-1,preflight_wait,4.420780658721924,0.0,0.0,0.0,0.0,0.0,0.0,0.0,0,0,0,0,1,12.444395065307617,,,,,,,,,,0,,,,
1778865585.949356,12.464268922805786,-1,preflight_wait,4.440835475921631,0.0,0.0,0.0,0.0,0.0,0.0,0.0,0,0,0,0,1,12.464440822601318,,,,,,,,,,0,,,,
1778865585.9693196,12.484232425689697,-1,preflight_wait,4.460780143737793,0.0,0.0,0.0,0.0,0.0,0.0,0.0,0,0,0,0,1,12.484394073486328,,,,,,,,,,0,,,,
1778865585.9893177,12.504230499267578,-1,preflight_wait,4.480775594711304,0.0,0.0,0.0,0.0,0.0,0.0,0.0,0,0,0,0,1,12.504391193389893,,,,,,,,,,0,,,,
1778865586.0093217,12.524234533309937,-1,preflight_wait,4.500783681869507,0.0,0.0,0.0,0.0,0.0,0.0,0.0,0,0,0,0,1,12.524397134780884,,,,,,,,,,0,,,,
1778865586.0293217,12.54423451423645,-1,preflight_wait,4.5207839012146,0.0,0.0,0.0,0.0,0.0,0.0,0.0,0,0,0,0,1,12.54439663887024,,,,,,,,,,0,,,,
1778865586.0493262,12.564239025115967,-1,preflight_wait,4.540789842605591,0.0,0.0,0.0,0.0,0.0,0.0,0.0,0,0,0,0,1,12.564402341842651,,,,,,,,,,0,,,,
1778865586.0694358,12.584348678588867,-1,preflight_wait,4.560991525650024,0.0,0.0,0.0,0.0,0.0,0.0,0.0,0,0,0,0,1,12.584551811218262,,,,,,,,,,0,,,,
1778865586.08932,12.604232788085938,-1,preflight_wait,4.580777406692505,0.0,0.0,0.0,0.0,0.0,0.0,0.0,0,0,0,0,1,12.604394674301147,,,,,,,,,,0,,,,
1778865586.1095836,12.624496459960938,-1,preflight_wait,4.601038217544556,0.0,0.0,0.0,0.0,0.0,0.0,0.0,0,0,0,0,1,12.624655961990356,,,,,,,,,,0,,,,
1778865586.1293201,12.644232988357544,-1,preflight_wait,4.62077784538269,0.0,0.0,0.0,0.0,0.0,0.0,0.0,0,0,0,0,1,12.644395112991333,,,,,,,,,,0,,,,
1778865586.149318,12.664230823516846,-1,preflight_wait,4.640776872634888,0.0,0.0,0.0,0.0,0.0,0.0,0.0,0,0,0,0,1,12.664391994476318,,,,,,,,,,0,,,,
1778865586.1693234,12.684236288070679,-1,preflight_wait,4.660782337188721,0.0,0.0,0.0,0.0,0.0,0.0,0.0,0,0,0,0,1,12.684398412704468,,,,,,,,,,0,,,,
1778865586.1894076,12.704320430755615,-1,preflight_wait,4.680945634841919,0.0,0.0,0.0,0.0,0.0,0.0,0.0,0,0,0,0,1,12.704510927200317,,,,,,,,,,0,,,,
1778865586.2094588,12.724371671676636,-1,preflight_wait,4.700987339019775,0.0,0.0,0.0,0.0,0.0,0.0,0.0,0,0,0,0,1,12.724556922912598,,,,,,,,,,0,,,,
1778865586.229395,12.74430775642395,-1,preflight_wait,4.720930814743042,0.0,0.0,0.0,0.0,0.0,0.0,0.0,0,0,0,0,1,12.74449872970581,,,,,,,,,,0,,,,
1778865586.2494197,12.76433253288269,-1,preflight_wait,4.740957260131836,0.0,0.0,0.0,0.0,0.0,0.0,0.0,0,0,0,0,1,12.76452350616455,,,,,,,,,,0,,,,
1778865586.269396,12.784308910369873,-1,preflight_wait,4.760875225067139,0.0,0.0,0.0,0.0,0.0,0.0,0.0,0,0,0,0,1,12.784477949142456,,,,,,,,,,0,,,,
1778865586.2893288,12.80424165725708,-1,preflight_wait,4.780793190002441,0.0,0.0,0.0,0.0,0.0,0.0,0.0,0,0,0,0,1,12.804404497146606,,,,,,,,,,0,,,,
1778865586.3093572,12.824270009994507,-1,preflight_wait,4.800823450088501,0.0,0.0,0.0,0.0,0.0,0.0,0.0,0,0,0,0,1,12.824432611465454,,,,,,,,,,0,,,,
1778865586.3293467,12.84425950050354,-1,preflight_wait,4.820817232131958,0.0,0.0,0.0,0.0,0.0,0.0,0.0,0,0,0,0,1,12.844427347183228,,,,,,,,,,0,,,,
1778865586.3493223,12.864235162734985,-1,preflight_wait,4.840784549713135,0.0,0.0,0.0,0.0,0.0,0.0,0.0,0,0,0,0,1,12.864397525787354,,,,,,,,,,0,,,,
1778865586.3693192,12.88423204421997,-1,preflight_wait,4.86077880859375,0.0,0.0,0.0,0.0,0.0,0.0,0.0,0,0,0,0,1,12.884393453598022,,,,,,,,,,0,,,,
1778865586.3893313,12.904244184494019,-1,preflight_wait,4.880796670913696,0.0,0.0,0.0,0.0,0.0,0.0,0.0,0,0,0,0,1,12.904409170150757,,,,,,,,,,0,,,,
1778865586.4093254,12.924238204956055,-1,preflight_wait,4.900785446166992,0.0,0.0,0.0,0.0,0.0,0.0,0.0,0,0,0,0,1,12.924400091171265,,,,,,,,,,0,,,,
1778865586.4294555,12.944368362426758,-1,preflight_wait,4.920912742614746,0.0,0.0,0.0,0.0,0.0,0.0,0.0,0,0,0,0,1,12.944528818130493,,,,,,,,,,0,,,,
1778865586.44935,12.964262962341309,-1,preflight_wait,4.940807104110718,0.0,0.0,0.0,0.0,0.0,0.0,0.0,0,0,0,0,1,12.96442437171936,,,,,,,,,,0,,,,
1778865586.4693332,12.984246015548706,-1,preflight_wait,4.96079158782959,0.0,0.0,0.0,0.0,0.0,0.0,0.0,0,0,0,0,1,12.984405994415283,,,,,,,,,,0,,,,
1778865586.4893184,13.004231214523315,-1,preflight_wait,4.980776071548462,0.0,0.0,0.0,0.0,0.0,0.0,0.0,0,0,0,0,1,13.004393100738525,,,,,,,,,,0,,,,
1778865586.5093157,13.024228572845459,-1,preflight_wait,5.000770807266235,0.0,0.0,0.0,0.0,0.0,0.0,0.0,0,0,0,0,1,13.024388313293457,,,,,,,,,,0,,,,
1778865586.5293233,13.044236183166504,-1,preflight_wait,5.020783424377441,0.0,0.0,0.0,0.0,0.0,0.0,0.0,0,0,0,0,1,13.044398546218872,,,,,,,,,,0,,,,
1778865586.549322,13.064234733581543,-1,preflight_wait,5.040785789489746,0.0,0.0,0.0,0.0,0.0,0.0,0.0,0,0,0,0,1,13.06439733505249,,,,,,,,,,0,,,,
1778865586.5693362,13.084249019622803,-1,preflight_wait,5.060800313949585,0.0,0.0,0.0,0.0,0.0,0.0,0.0,0,0,0,0,1,13.084411382675171,,,,,,,,,,0,,,,
1778865586.5893464,13.104259252548218,-1,preflight_wait,5.080804347991943,0.0,0.0,0.0,0.0,0.0,0.0,0.0,0,0,0,0,1,13.104419469833374,,,,,,,,,,0,,,,
1778865586.6093204,13.12423324584961,-1,preflight_wait,5.100781679153442,0.0,0.0,0.0,0.0,0.0,0.0,0.0,0,0,0,0,1,13.124396324157715,,,,,,,,,,0,,,,
1778865586.629316,13.1442289352417,-1,preflight_wait,5.120772838592529,0.0,0.0,0.0,0.0,0.0,0.0,0.0,0,0,0,0,1,13.144389629364014,,,,,,,,,,0,,,,
1778865586.649323,13.164235830307007,-1,preflight_wait,5.1407859325408936,0.0,0.0,0.0,0.0,0.0,0.0,0.0,0,0,0,0,1,13.164398670196533,,,,,,,,,,0,,,,
1778865586.6695824,13.184495210647583,-1,preflight_wait,5.161039113998413,0.0,0.0,0.0,0.0,0.0,0.0,0.0,0,0,0,0,1,13.18465518951416,,,,,,,,,,0,,,,
1778865586.6893241,13.20423698425293,-1,preflight_wait,5.180785894393921,0.0,0.0,0.0,0.0,0.0,0.0,0.0,0,0,0,0,1,13.204399824142456,,,,,,,,,,0,,,,
1778865586.7093918,13.224304676055908,-1,preflight_wait,5.200847625732422,0.0,0.0,0.0,0.0,0.0,0.0,0.0,0,0,0,0,1,13.224464654922485,,,,,,,,,,0,,,,
1778865586.7293196,13.244232416152954,-1,preflight_wait,5.220781564712524,0.0,0.0,0.0,0.0,0.0,0.0,0.0,0,0,0,0,1,13.24439549446106,,,,,,,,,,0,,,,
1778865586.749318,13.264230728149414,-1,preflight_wait,5.240776777267456,0.0,0.0,0.0,0.0,0.0,0.0,0.0,0,0,0,0,1,13.264391660690308,,,,,,,,,,0,,,,
1778865586.7693632,13.284276008605957,-1,preflight_wait,5.260824203491211,0.0,0.0,0.0,0.0,0.0,0.0,0.0,0,0,0,0,1,13.284440040588379,,,,,,,,,,0,,,,
1778865586.7893186,13.304231405258179,-1,preflight_wait,5.280773639678955,0.0,0.0,0.0,0.0,0.0,0.0,0.0,0,0,0,0,1,13.304391384124756,,,,,,,,,,0,,,,
1778865586.8093772,13.324290037155151,-1,preflight_wait,5.300933361053467,0.0,0.0,0.0,0.0,0.0,0.0,0.0,0,0,0,0,1,13.32447862625122,,,,,,,,,,0,,,,
1778865586.829447,13.344359874725342,-1,preflight_wait,5.320977687835693,0.0,0.0,0.0,0.0,0.0,0.0,0.0,0,0,0,0,1,13.344542503356934,,,,,,,,,,0,,,,
1778865586.8493366,13.364249467849731,-1,preflight_wait,5.34080696105957,0.0,0.0,0.0,0.0,0.0,0.0,0.0,0,0,0,0,1,13.364414691925049,,,,,,,,,,0,,,,
1778865586.869356,13.384268760681152,-1,preflight_wait,5.360813140869141,0.0,0.0,0.0,0.0,0.0,0.0,0.0,0,0,0,0,1,13.384429454803467,,,,,,,,,,0,,,,
1778865586.8893552,13.404268026351929,-1,preflight_wait,5.380829811096191,0.0,0.0,0.0,0.0,0.0,0.0,0.0,0,0,0,0,1,13.404438495635986,,,,,,,,,,0,,,,
1778865586.909392,13.424304962158203,-1,preflight_wait,5.400854587554932,0.0,0.0,0.0,0.0,0.0,0.0,0.0,0,0,0,0,1,13.424467325210571,,,,,,,,,,0,,,,
1778865586.9293215,13.444234371185303,-1,preflight_wait,5.42078161239624,0.0,0.0,0.0,0.0,0.0,0.0,0.0,0,0,0,0,1,13.444396257400513,,,,,,,,,,0,,,,
1778865586.9493763,13.46428918838501,-1,preflight_wait,5.440839767456055,0.0,0.0,0.0,0.0,0.0,0.0,0.0,0,0,0,0,1,13.46445345878601,,,,,,,,,,0,,,,
1778865586.9694421,13.484354972839355,-1,preflight_wait,5.461000442504883,0.0,0.0,0.0,0.0,0.0,0.0,0.0,0,0,0,0,1,13.48456335067749,,,,,,,,,,0,,,,
1778865586.9893675,13.50428032875061,-1,preflight_wait,5.480860233306885,0.0,0.0,0.0,0.0,0.0,0.0,0.0,0,0,0,0,1,13.504453659057617,,,,,,,,,,0,,,,
1778865587.0094948,13.524407625198364,-1,preflight_wait,5.500978469848633,0.0,0.0,0.0,0.0,0.0,0.0,0.0,0,0,0,0,1,13.524580001831055,,,,,,,,,,0,,,,
1778865587.0293264,13.544239282608032,-1,preflight_wait,5.5207908153533936,0.0,0.0,0.0,0.0,0.0,0.0,0.0,0,0,0,0,1,13.544402599334717,,,,,,,,,,0,,,,
1778865587.0493221,13.564234972000122,-1,preflight_wait,5.540784120559692,0.0,0.0,0.0,0.0,0.0,0.0,0.0,0,0,0,0,1,13.56439757347107,,,,,,,,,,0,,,,
1778865587.069312,13.584224939346313,-1,preflight_wait,5.560765027999878,0.0,0.0,0.0,0.0,0.0,0.0,0.0,0,0,0,0,1,13.584383249282837,,,,,,,,,,0,,,,
1778865587.0893464,13.604259252548218,-1,preflight_wait,5.580802917480469,0.0,0.0,0.0,0.0,0.0,0.0,0.0,0,0,0,0,1,13.60442042350769,,,,,,,,,,0,,,,
1778865587.1093485,13.624261379241943,-1,preflight_wait,5.600809574127197,0.0,0.0,0.0,0.0,0.0,0.0,0.0,0,0,0,0,1,13.624422550201416,,,,,,,,,,0,,,,
1778865587.129421,13.644333839416504,-1,preflight_wait,5.620913028717041,0.0,0.0,0.0,0.0,0.0,0.0,0.0,0,0,0,0,1,13.64451789855957,,,,,,,,,,0,,,,
1778865587.1493163,13.664229154586792,-1,preflight_wait,5.640772104263306,0.0,0.0,0.0,0.0,0.0,0.0,0.0,0,0,0,0,1,13.664389371871948,,,,,,,,,,0,,,,
1778865587.1693492,13.684262037277222,-1,preflight_wait,5.660806179046631,0.0,0.0,0.0,0.0,0.0,0.0,0.0,0,0,0,0,1,13.684422731399536,,,,,,,,,,0,,,,
1778865587.189355,13.704267740249634,-1,preflight_wait,5.680809736251831,0.0,0.0,0.0,0.0,0.0,0.0,0.0,0,0,0,0,1,13.704427242279053,,,,,,,,,,0,,,,
1778865587.2093158,13.724228620529175,-1,preflight_wait,5.700774669647217,0.0,0.0,0.0,0.0,0.0,0.0,0.0,0,0,0,0,1,13.724388837814331,,,,,,,,,,0,,,,
1778865587.2293155,13.74422836303711,-1,preflight_wait,5.72077488899231,0.0,0.0,0.0,0.0,0.0,0.0,0.0,0,0,0,0,1,13.74439001083374,,,,,,,,,,0,,,,
1778865587.2493155,13.764228343963623,-1,preflight_wait,5.740771055221558,0.0,0.0,0.0,0.0,0.0,0.0,0.0,0,0,0,0,1,13.764388084411621,,,,,,,,,,0,,,,
1778865587.2693439,13.78425669670105,-1,preflight_wait,5.760797500610352,0.0,0.0,0.0,0.0,0.0,0.0,0.0,0,0,0,0,1,13.78441596031189,,,,,,,,,,0,,,,
1778865587.2893426,13.804255485534668,-1,preflight_wait,5.780797004699707,0.0,0.0,0.0,0.0,0.0,0.0,0.0,0,0,0,0,1,13.804414987564087,,,,,,,,,,0,,,,
1778865587.3093166,13.82422947883606,-1,preflight_wait,5.800772190093994,0.0,0.0,0.0,0.0,0.0,0.0,0.0,0,0,0,0,1,13.824390411376953,,,,,,,,,,0,,,,
1778865587.329325,13.844237804412842,-1,preflight_wait,5.820788621902466,0.0,0.0,0.0,0.0,0.0,0.0,0.0,0,0,0,0,1,13.844401359558105,,,,,,,,,,0,,,,
1778865587.3493178,13.864230632781982,-1,preflight_wait,5.840774297714233,0.0,0.0,0.0,0.0,0.0,0.0,0.0,0,0,0,0,1,13.864391088485718,,,,,,,,,,0,,,,
1778865587.3693516,13.884264469146729,-1,preflight_wait,5.860808610916138,0.0,0.0,0.0,0.0,0.0,0.0,0.0,0,0,0,0,1,13.884425401687622,,,,,,,,,,0,,,,
1778865587.3893192,13.904232025146484,-1,preflight_wait,5.880775690078735,0.0,0.0,0.0,0.0,0.0,0.0,0.0,0,0,0,0,1,13.904392719268799,,,,,,,,,,0,,,,
1778865587.4093156,13.924228429794312,-1,preflight_wait,5.90077543258667,0.0,0.0,0.0,0.0,0.0,0.0,0.0,0,0,0,0,1,13.924389839172363,,,,,,,,,,0,,,,
1778865587.4293175,13.944230318069458,-1,preflight_wait,5.920774936676025,0.0,0.0,0.0,0.0,0.0,0.0,0.0,0,0,0,0,1,13.944391012191772,,,,,,,,,,0,,,,
1778865587.4493308,13.964243650436401,-1,preflight_wait,5.940802097320557,0.0,0.0,0.0,0.0,0.0,0.0,0.0,0,0,0,0,1,13.964412689208984,,,,,,,,,,0,,,,
1778865587.469566,13.984478950500488,-1,preflight_wait,5.96102237701416,0.0,0.0,0.0,0.0,0.0,0.0,0.0,0,0,0,0,1,13.984638929367065,,,,,,,,,,0,,,,
1778865587.4893272,14.004240036010742,-1,preflight_wait,5.980792999267578,0.0,0.0,0.0,0.0,0.0,0.0,0.0,0,0,0,0,1,14.004404306411743,,,,,,,,,,0,,,,
1778865587.5095077,14.024420499801636,-1,preflight_wait,6.000969409942627,0.0,0.0,0.0,0.0,0.0,0.0,0.0,0,0,0,0,1,14.024583339691162,,,,,,,,,,0,,,,
1778865587.529352,14.044264793395996,-1,preflight_wait,6.020812273025513,0.0,0.0,0.0,0.0,0.0,0.0,0.0,0,0,0,0,1,14.044426918029785,,,,,,,,,,0,,,,
1778865587.5493345,14.064247369766235,-1,preflight_wait,6.040810823440552,0.0,0.0,0.0,0.0,0.0,0.0,0.0,0,0,0,0,1,14.06441879272461,,,,,,,,,,0,,,,
1778865587.569319,14.084231853485107,-1,preflight_wait,6.060779809951782,0.0,0.0,0.0,0.0,0.0,0.0,0.0,0,0,0,0,1,14.084394216537476,,,,,,,,,,0,,,,
1778865587.5893157,14.104228496551514,-1,preflight_wait,6.080772876739502,0.0,0.0,0.0,0.0,0.0,0.0,0.0,0,0,0,0,1,14.10438847541809,,,,,,,,,,0,,,,
1778865587.6093473,14.124260187149048,-1,preflight_wait,6.100804328918457,0.0,0.0,0.0,0.0,0.0,0.0,0.0,0,0,0,0,1,14.124421119689941,,,,,,,,,,0,,,,
1778865587.6293428,14.144255638122559,-1,preflight_wait,6.120806694030762,0.0,0.0,0.0,0.0,0.0,0.0,0.0,0,0,0,0,1,14.144418954849243,,,,,,,,,,0,,,,
1778865587.6493196,14.1642324924469,-1,preflight_wait,6.140775680541992,0.0,0.0,0.0,0.0,0.0,0.0,0.0,0,0,0,0,1,14.164393186569214,,,,,,,,,,0,,,,
1778865587.6693928,14.184305667877197,-1,preflight_wait,6.160847902297974,0.0,0.0,0.0,0.0,0.0,0.0,0.0,0,0,0,0,1,14.184464931488037,,,,,,,,,,0,,,,
1778865587.689316,14.20422887802124,-1,preflight_wait,6.180773735046387,0.0,0.0,0.0,0.0,0.0,0.0,0.0,0,0,0,0,1,14.204390287399292,,,,,,,,,,0,,,,
1778865587.7093148,14.224227666854858,-1,preflight_wait,6.200769901275635,0.0,0.0,0.0,0.0,0.0,0.0,0.0,0,0,0,0,1,14.224387168884277,,,,,,,,,,0,,,,
1778865587.7293208,14.24423360824585,-1,preflight_wait,6.220783233642578,0.0,0.0,0.0,0.0,0.0,0.0,0.0,0,0,0,0,1,14.244396686553955,,,,,,,,,,0,,,,
1778865587.7493422,14.264255046844482,-1,preflight_wait,6.240837097167969,0.0,0.0,0.0,0.0,0.0,0.0,0.0,0,0,0,0,1,14.264434337615967,,,,,,,,,,0,,,,
1778865587.7693167,14.284229516983032,-1,preflight_wait,6.26077675819397,0.0,0.0,0.0,0.0,0.0,0.0,0.0,0,0,0,0,1,14.284390926361084,,,,,,,,,,0,,,,
1778865587.7893178,14.304230690002441,-1,preflight_wait,6.280773639678955,0.0,0.0,0.0,0.0,0.0,0.0,0.0,0,0,0,0,1,14.304390668869019,,,,,,,,,,0,,,,
1778865587.8093224,14.324235200881958,-1,preflight_wait,6.300787687301636,0.0,0.0,0.0,0.0,0.0,0.0,0.0,0,0,0,0,1,14.3243989944458,,,,,,,,,,0,,,,
1778865587.829327,14.344239950180054,-1,preflight_wait,6.320791244506836,0.0,0.0,0.0,0.0,0.0,0.0,0.0,0,0,0,0,1,14.344402551651001,,,,,,,,,,0,,,,
1778865587.8493264,14.36423921585083,-1,preflight_wait,6.340793132781982,0.0,0.0,0.0,0.0,0.0,0.0,0.0,0,0,0,0,1,14.364404439926147,,,,,,,,,,0,,,,
1778865587.869313,14.384225845336914,-1,preflight_wait,6.360767602920532,0.0,0.0,0.0,0.0,0.0,0.0,0.0,0,0,0,0,1,14.384385585784912,,,,,,,,,,0,,,,
1778865587.889318,14.404230833053589,-1,preflight_wait,6.380778074264526,0.0,0.0,0.0,0.0,0.0,0.0,0.0,0,0,0,0,1,14.40439248085022,,,,,,,,,,0,,,,
1778865587.9093196,14.424232482910156,-1,preflight_wait,6.400780200958252,0.0,0.0,0.0,0.0,0.0,0.0,0.0,0,0,0,0,1,14.424394130706787,,,,,,,,,,0,,,,
1778865587.9293177,14.444230556488037,-1,preflight_wait,6.420780420303345,0.0,0.0,0.0,0.0,0.0,0.0,0.0,0,0,0,0,1,14.444393873214722,,,,,,,,,,0,,,,
1778865587.9493697,14.464282512664795,-1,preflight_wait,6.440836429595947,0.0,0.0,0.0,0.0,0.0,0.0,0.0,0,0,0,0,1,14.464447975158691,,,,,,,,,,0,,,,
1778865587.9693153,14.484228134155273,-1,preflight_wait,6.46077561378479,0.0,0.0,0.0,0.0,0.0,0.0,0.0,0,0,0,0,1,14.484389543533325,,,,,,,,,,0,,,,
1778865587.989318,14.504230737686157,-1,preflight_wait,6.4807727336883545,0.0,0.0,0.0,0.0,0.0,0.0,0.0,0,0,0,0,1,14.504390716552734,,,,,,,,,,0,,,,
1778865588.0093153,14.5242280960083,-1,preflight_wait,6.50077486038208,0.0,0.0,0.0,0.0,0.0,0.0,0.0,0,0,0,0,1,14.524389505386353,,,,,,,,,,0,,,,
1778865588.0293214,14.544234275817871,-1,preflight_wait,6.520784378051758,0.0,0.0,0.0,0.0,0.0,0.0,0.0,0,0,0,0,1,14.544397115707397,,,,,,,,,,0,,,,
1778865588.0493195,14.564232349395752,-1,preflight_wait,6.540780782699585,0.0,0.0,0.0,0.0,0.0,0.0,0.0,0,0,0,0,1,14.564394235610962,,,,,,,,,,0,,,,
1778865588.069311,14.584223747253418,-1,preflight_wait,6.560765027999878,0.0,0.0,0.0,0.0,0.0,0.0,0.0,0,0,0,0,1,14.584382772445679,,,,,,,,,,0,,,,
1778865588.0893145,14.604227304458618,-1,preflight_wait,6.580773591995239,0.0,0.0,0.0,0.0,0.0,0.0,0.0,0,0,0,0,1,14.604388236999512,,,,,,,,,,0,,,,
1778865588.109317,14.624229907989502,-1,preflight_wait,6.600775718688965,0.0,0.0,0.0,0.0,0.0,0.0,0.0,0,0,0,0,1,14.624390125274658,,,,,,,,,,0,,,,
1778865588.1293154,14.644228219985962,-1,preflight_wait,6.620774269104004,0.0,0.0,0.0,0.0,0.0,0.0,0.0,0,0,0,0,1,14.644389152526855,,,,,,,,,,0,,,,
1778865588.1493123,14.664225101470947,-1,preflight_wait,6.6407692432403564,0.0,0.0,0.0,0.0,0.0,0.0,0.0,0,0,0,0,1,14.664385795593262,,,,,,,,,,0,,,,
1778865588.169312,14.684224843978882,-1,preflight_wait,6.660771369934082,0.0,0.0,0.0,0.0,0.0,0.0,0.0,0,0,0,0,1,14.684386491775513,,,,,,,,,,0,,,,
1778865588.189346,14.704258918762207,-1,preflight_wait,6.680808067321777,0.0,0.0,0.0,0.0,0.0,0.0,0.0,0,0,0,0,1,14.704422235488892,,,,,,,,,,0,,,,
1778865588.2093565,14.724269390106201,-1,preflight_wait,6.70081353187561,0.0,0.0,0.0,0.0,0.0,0.0,0.0,0,0,0,0,1,14.724430322647095,,,,,,,,,,0,,,,
1778865588.2293205,14.74423336982727,-1,preflight_wait,6.720780849456787,0.0,0.0,0.0,0.0,0.0,0.0,0.0,0,0,0,0,1,14.744394779205322,,,,,,,,,,0,,,,
1778865588.2493677,14.764280557632446,-1,preflight_wait,6.740828275680542,0.0,0.0,0.0,0.0,0.0,0.0,0.0,0,0,0,0,1,14.764441967010498,,,,,,,,,,0,,,,
1778865588.2693162,14.784229040145874,-1,preflight_wait,6.760776996612549,0.0,0.0,0.0,0.0,0.0,0.0,0.0,0,0,0,0,1,14.784391164779663,,,,,,,,,,0,,,,
1778865588.2893198,14.804232597351074,-1,preflight_wait,6.780781507492065,0.0,0.0,0.0,0.0,0.0,0.0,0.0,0,0,0,0,1,14.804394960403442,,,,,,,,,,0,,,,
1778865588.3093238,14.824236631393433,-1,preflight_wait,6.800785303115845,0.0,0.0,0.0,0.0,0.0,0.0,0.0,0,0,0,0,1,14.82439923286438,,,,,,,,,,0,,,,
1778865588.3293204,14.844233274459839,-1,preflight_wait,6.820782899856567,0.0,0.0,0.0,0.0,0.0,0.0,0.0,0,0,0,0,1,14.844396352767944,,,,,,,,,,0,,,,
1778865588.3493173,14.864230155944824,-1,preflight_wait,6.840777158737183,0.0,0.0,0.0,0.0,0.0,0.0,0.0,0,0,0,0,1,14.864392042160034,,,,,,,,,,0,,,,
1778865588.3693514,14.88426423072815,-1,preflight_wait,6.860807657241821,0.0,0.0,0.0,0.0,0.0,0.0,0.0,0,0,0,0,1,14.884424448013306,,,,,,,,,,0,,,,
1778865588.3893194,14.904232263565063,-1,preflight_wait,6.8807806968688965,0.0,0.0,0.0,0.0,0.0,0.0,0.0,0,0,0,0,1,14.90439486503601,,,,,,,,,,0,,,,
1778865588.4093144,14.924227237701416,-1,preflight_wait,6.900768041610718,0.0,0.0,0.0,0.0,0.0,0.0,0.0,0,0,0,0,1,14.924386262893677,,,,,,,,,,0,,,,
1778865588.4293196,14.94423246383667,-1,preflight_wait,6.920785903930664,0.0,0.0,0.0,0.0,0.0,0.0,0.0,0,0,0,0,1,14.944396257400513,,,,,,,,,,0,,,,
1778865588.4493163,14.964229106903076,-1,preflight_wait,6.940781354904175,0.0,0.0,0.0,0.0,0.0,0.0,0.0,0,0,0,0,1,14.964397430419922,,,,,,,,,,0,,,,
1778865588.4693143,14.984227180480957,-1,preflight_wait,6.960769891738892,0.0,0.0,0.0,0.0,0.0,0.0,0.0,0,0,0,0,1,14.984386682510376,,,,,,,,,,0,,,,
1778865588.4893208,15.004233598709106,-1,preflight_wait,6.980783462524414,0.0,0.0,0.0,0.0,0.0,0.0,0.0,0,0,0,0,1,15.004396915435791,,,,,,,,,,0,,,,
1778865588.5093143,15.024227142333984,-1,preflight_wait,7.000769138336182,0.0,0.0,0.0,0.0,0.0,0.0,0.0,0,0,0,0,1,15.024386644363403,,,,,,,,,,0,,,,
1778865588.5293264,15.044239282608032,-1,preflight_wait,7.020801782608032,0.0,0.0,0.0,0.0,0.0,0.0,0.0,0,0,0,0,1,15.04440712928772,,,,,,,,,,0,,,,
1778865588.549335,15.064247846603394,-1,preflight_wait,7.040807723999023,0.0,0.0,0.0,0.0,0.0,0.0,0.0,0,0,0,0,1,15.064414978027344,,,,,,,,,,0,,,,
1778865588.5693443,15.084257125854492,-1,preflight_wait,7.060800075531006,0.0,0.0,0.0,0.0,0.0,0.0,0.0,0,0,0,0,1,15.08441710472107,,,,,,,,,,0,,,,
1778865588.5894141,15.104326963424683,-1,preflight_wait,7.080950975418091,0.0,0.0,0.0,0.0,0.0,0.0,0.0,0,0,0,0,1,15.10451889038086,,,,,,,,,,0,,,,
1778865588.6095,15.124412775039673,-1,preflight_wait,7.10106086730957,0.0,0.0,0.0,0.0,0.0,0.0,0.0,0,0,0,0,1,15.1246178150177,,,,,,,,,,0,,,,
1778865588.62941,15.144322872161865,-1,preflight_wait,7.120952844619751,0.0,0.0,0.0,0.0,0.0,0.0,0.0,0,0,0,0,1,15.14451789855957,,,,,,,,,,0,,,,
1778865588.6493657,15.164278507232666,-1,preflight_wait,7.140836477279663,0.0,0.0,0.0,0.0,0.0,0.0,0.0,0,0,0,0,1,15.164444923400879,,,,,,,,,,0,,,,
1778865588.6693733,15.184286117553711,-1,preflight_wait,7.160843849182129,0.0,0.0,0.0,0.0,0.0,0.0,0.0,0,0,0,0,1,15.184452056884766,,,,,,,,,,0,,,,
1778865588.6893249,15.204237699508667,-1,preflight_wait,7.1807920932769775,0.0,0.0,0.0,0.0,0.0,0.0,0.0,0,0,0,0,1,15.204402446746826,,,,,,,,,,0,,,,
1778865588.709347,15.224259853363037,-1,preflight_wait,7.2008020877838135,0.0,0.0,0.0,0.0,0.0,0.0,0.0,0,0,0,0,1,15.224420070648193,,,,,,,,,,0,,,,
1778865588.7293265,15.244239330291748,-1,preflight_wait,7.220790863037109,0.0,0.0,0.0,0.0,0.0,0.0,0.0,0,0,0,0,1,15.244404554367065,,,,,,,,,,0,,,,
1778865588.749332,15.264244794845581,-1,preflight_wait,7.2407920360565186,0.0,0.0,0.0,0.0,0.0,0.0,0.0,0,0,0,0,1,15.264406681060791,,,,,,,,,,0,,,,
1778865588.7693424,15.284255266189575,-1,preflight_wait,7.260796785354614,0.0,0.0,0.0,0.0,0.0,0.0,0.0,0,0,0,0,1,15.284414529800415,,,,,,,,,,0,,,,
1778865588.7893157,15.30422854423523,-1,preflight_wait,7.280772686004639,0.0,0.0,0.0,0.0,0.0,0.0,0.0,0,0,0,0,1,15.304388761520386,,,,,,,,,,0,,,,
1778865588.809353,15.324265956878662,-1,preflight_wait,7.300809383392334,0.0,0.0,0.0,0.0,0.0,0.0,0.0,0,0,0,0,1,15.324426651000977,,,,,,,,,,0,,,,
1778865588.829487,15.34439992904663,-1,preflight_wait,7.320949554443359,0.0,0.0,0.0,0.0,0.0,0.0,0.0,0,0,0,0,1,15.344562530517578,,,,,,,,,,0,,,,
1778865588.8493185,15.36423134803772,-1,preflight_wait,7.340773344039917,0.0,0.0,0.0,0.0,0.0,0.0,0.0,0,0,0,0,1,15.364391565322876,,,,,,,,,,0,,,,
1778865588.869316,15.384228944778442,-1,preflight_wait,7.360780239105225,0.0,0.0,0.0,0.0,0.0,0.0,0.0,0,0,0,0,1,15.38439154624939,,,,,,,,,,0,,,,
1778865588.8893187,15.404231548309326,-1,preflight_wait,7.380781412124634,0.0,0.0,0.0,0.0,0.0,0.0,0.0,0,0,0,0,1,15.404394149780273,,,,,,,,,,0,,,,
1778865588.9093256,15.424238443374634,-1,preflight_wait,7.400786399841309,0.0,0.0,0.0,0.0,0.0,0.0,0.0,0,0,0,0,1,15.424400806427002,,,,,,,,,,0,,,,
1778865588.9293165,15.444229364395142,-1,preflight_wait,7.420781135559082,0.0,0.0,0.0,0.0,0.0,0.0,0.0,0,0,0,0,1,15.444393396377563,,,,,,,,,,0,,,,
1778865588.9493387,15.464251518249512,-1,preflight_wait,7.440812587738037,0.0,0.0,0.0,0.0,0.0,0.0,0.0,0,0,0,0,1,15.464423179626465,,,,,,,,,,0,,,,
1778865588.9693105,15.484223365783691,-1,preflight_wait,7.460768222808838,0.0,0.0,0.0,0.0,0.0,0.0,0.0,0,0,0,0,1,15.484384536743164,,,,,,,,,,0,,,,
1778865588.9893274,15.504240274429321,-1,preflight_wait,7.480793476104736,0.0,0.0,0.0,0.0,0.0,0.0,0.0,0,0,0,0,1,15.50440502166748,,,,,,,,,,0,,,,
1778865589.0093565,15.524269342422485,-1,preflight_wait,7.500812768936157,0.0,0.0,0.0,0.0,0.0,0.0,0.0,0,0,0,0,1,15.5244300365448,,,,,,,,,,0,,,,
1778865589.0293336,15.544246435165405,-1,preflight_wait,7.520793914794922,0.0,0.0,0.0,0.0,0.0,0.0,0.0,0,0,0,0,1,15.544407844543457,,,,,,,,,,0,,,,
1778865589.0493174,15.56423020362854,-1,preflight_wait,7.540773868560791,0.0,0.0,0.0,0.0,0.0,0.0,0.0,0,0,0,0,1,15.564391136169434,,,,,,,,,,0,,,,
1778865589.0693128,15.58422565460205,-1,preflight_wait,7.560767889022827,0.0,0.0,0.0,0.0,0.0,0.0,0.0,0,0,0,0,1,15.58438515663147,,,,,,,,,,0,,,,
1778865589.089324,15.604236841201782,-1,preflight_wait,7.580786943435669,0.0,0.0,0.0,0.0,0.0,0.0,0.0,0,0,0,0,1,15.604399681091309,,,,,,,,,,0,,,,
1778865589.1093564,15.624269247055054,-1,preflight_wait,7.600810766220093,0.0,0.0,0.0,0.0,0.0,0.0,0.0,0,0,0,0,1,15.624428510665894,,,,,,,,,,0,,,,
1778865589.1293757,15.644288539886475,-1,preflight_wait,7.620850324630737,0.0,0.0,0.0,0.0,0.0,0.0,0.0,0,0,0,0,1,15.644459009170532,,,,,,,,,,0,,,,
1778865589.1493132,15.664226055145264,-1,preflight_wait,7.640768766403198,0.0,0.0,0.0,0.0,0.0,0.0,0.0,0,0,0,0,1,15.66438603401184,,,,,,,,,,0,,,,
1778865589.1693156,15.684228420257568,-1,preflight_wait,7.660777568817139,0.0,0.0,0.0,0.0,0.0,0.0,0.0,0,0,0,0,1,15.684390783309937,,,,,,,,,,0,,,,
1778865589.1893473,15.704260110855103,-1,preflight_wait,7.680802583694458,0.0,0.0,0.0,0.0,0.0,0.0,0.0,0,0,0,0,1,15.70442008972168,,,,,,,,,,0,,,,
1778865589.2093494,15.724262237548828,-1,preflight_wait,7.700806379318237,0.0,0.0,0.0,0.0,0.0,0.0,0.0,0,0,0,0,1,15.724423170089722,,,,,,,,,,0,,,,
1778865589.2293181,15.74423098564148,-1,preflight_wait,7.720782279968262,0.0,0.0,0.0,0.0,0.0,0.0,0.0,0,0,0,0,1,15.744395732879639,,,,,,,,,,0,,,,
1778865589.2493193,15.764232158660889,-1,preflight_wait,7.740781307220459,0.0,0.0,0.0,0.0,0.0,0.0,0.0,0,0,0,0,1,15.764394521713257,,,,,,,,,,0,,,,
1778865589.269566,15.784478902816772,-1,preflight_wait,7.76102876663208,0.0,0.0,0.0,0.0,0.0,0.0,0.0,0,0,0,0,1,15.784642696380615,,,,,,,,,,0,,,,
1778865589.2893186,15.804231405258179,-1,preflight_wait,7.780779838562012,0.0,0.0,0.0,0.0,0.0,0.0,0.0,0,0,0,0,1,15.804393768310547,,,,,,,,,,0,,,,
1778865589.3093586,15.824271440505981,-1,preflight_wait,7.8008153438568115,0.0,0.0,0.0,0.0,0.0,0.0,0.0,0,0,0,0,1,15.82443118095398,,,,,,,,,,0,,,,
1778865589.329351,15.844263792037964,-1,preflight_wait,7.820830583572388,0.0,0.0,0.0,0.0,0.0,0.0,0.0,0,0,0,0,1,15.844437837600708,,,,,,,,,,0,,,,
1778865589.3493176,15.864230394363403,-1,preflight_wait,7.840783596038818,0.0,0.0,0.0,0.0,0.0,0.0,0.0,0,0,0,0,1,15.864393949508667,,,,,,,,,,0,,,,
1778865589.3693547,15.884267568588257,-1,preflight_wait,7.860811471939087,0.0,0.0,0.0,0.0,0.0,0.0,0.0,0,0,0,0,1,15.884428977966309,,,,,,,,,,0,,,,
1778865589.3893168,15.904229640960693,-1,preflight_wait,7.880776405334473,0.0,0.0,0.0,0.0,0.0,0.0,0.0,0,0,0,0,1,15.904390096664429,,,,,,,,,,0,,,,
1778865589.4093711,15.924283981323242,-1,preflight_wait,7.900839567184448,0.0,0.0,0.0,0.0,0.0,0.0,0.0,0,0,0,0,1,15.924450874328613,,,,,,,,,,0,,,,
1778865589.4293315,15.944244384765625,-1,preflight_wait,7.920794486999512,0.0,0.0,0.0,0.0,0.0,0.0,0.0,0,0,0,0,1,15.944407939910889,,,,,,,,,,0,,,,
1778865589.4493186,15.964231491088867,-1,preflight_wait,7.940783739089966,0.0,0.0,0.0,0.0,0.0,0.0,0.0,0,0,0,0,1,15.96439528465271,,,,,,,,,,0,,,,
1778865589.4693942,15.984307050704956,-1,preflight_wait,7.960927486419678,0.0,0.0,0.0,0.0,0.0,0.0,0.0,0,0,0,0,1,15.984495162963867,,,,,,,,,,0,,,,
1778865589.4894495,16.00436234474182,-1,preflight_wait,7.981008768081665,0.0,0.0,0.0,0.0,0.0,0.0,0.0,0,0,0,0,1,16.004563331604004,,,,,,,,,,0,,,,
1778865589.5094054,16.0243182182312,-1,preflight_wait,8.000935792922974,0.0,0.0,0.0,0.0,0.0,0.0,0.0,0,0,0,0,1,16.02450728416443,,,,,,,,,,0,,,,
1778865589.5301034,16.045016288757324,-1,preflight_wait,8.021585464477539,0.0,0.0,0.0,0.0,0.0,0.0,0.0,0,0,0,0,1,16.045189142227173,,,,,,,,,,0,,,,
1778865589.5493238,16.064236640930176,-1,preflight_wait,8.040787696838379,0.0,0.0,0.0,0.0,0.0,0.0,0.0,0,0,0,0,1,16.064401149749756,,,,,,,,,,0,,,,
1778865589.569328,16.084240913391113,-1,preflight_wait,8.060792922973633,0.0,0.0,0.0,0.0,0.0,0.0,0.0,0,0,0,0,1,16.084404706954956,,,,,,,,,,0,,,,
1778865589.5893278,16.104240655899048,-1,preflight_wait,8.080796480178833,0.0,0.0,0.0,0.0,0.0,0.0,0.0,0,0,0,0,1,16.104406356811523,,,,,,,,,,0,,,,
1778865589.6093228,16.1242356300354,-1,preflight_wait,8.100800514221191,0.0,0.0,0.0,0.0,0.0,0.0,0.0,0,0,0,0,1,16.124399185180664,,,,,,,,,,0,,,,
1778865589.6293485,16.144261360168457,-1,preflight_wait,8.120829820632935,0.0,0.0,0.0,0.0,0.0,0.0,0.0,0,0,0,0,1,16.144429922103882,,,,,,,,,,0,,,,
