wall_time_s,elapsed_s,mode,thrust_raw,thrust_percent,roll_cmd_deg,pitch_cmd_deg,yawrate_cmd_deg_s,mocap_x,mocap_y,mocap_z,mocap_qx,mocap_qy,mocap_qz,mocap_qw,mocap_age_s,mocap_frame_count,drift_x_m,drift_y_m,horizontal_drift_m,velocity_x_m_s,velocity_y_m_s,horizontal_speed_m_s,battery_v,estimate_z
1779199113.9332952,0.00035953521728515625,guard-only,0,0.0,0.0,0.0,0.0,0.0131272,0.00019341707,0.03780096,-0.0034631830640137196,-0.00575118325650692,0.6176961660385132,0.7863881587982178,0.03245711326599121,72,0.0,0.0,0.0,0.0,0.0,0.0,4.053958892822266,103.3075180053711
1779199113.9954057,0.0624699592590332,guard-only,0,0.0,0.0,0.0,0.0,0.013139265,0.00018816162,0.037785027,-0.0036114410031586885,-0.005391320679336786,0.6174474954605103,0.7865853905677795,0.0010228157043457031,73,1.2064353e-05,-5.2554533e-06,1.3159346347334808e-05,3.8690647e-05,-1.6854356e-05,4.2202315460746027e-05,4.053958892822266,103.3075180053711
1779199114.0968738,0.16393804550170898,guard-only,0,0.0,0.0,0.0,0.0,0.013123287,0.00019715633,0.037791822,-0.0033449449110776186,-0.005741097964346409,0.6175923347473145,0.7864704132080078,0.010759115219116211,74,-3.9134175e-06,3.7392601e-06,5.412661241031344e-06,-2.5170311e-05,1.7618298e-05,3.072375351502869e-05,4.048680305480957,103.29278564453125
1779199114.1780095,0.24507379531860352,guard-only,0,0.0,0.0,0.0,0.0,0.01317603,0.00021062046,0.037764695,-0.0030566509813070297,-0.007307610008865595,0.6176669001579285,0.7863999009132385,0.008623123168945312,75,4.8829243e-05,1.720339e-05,5.177114617464992e-05,0.00017239481,6.083953e-05,0.00018281525790147878,4.048680305480957,103.31086730957031
1779199114.2798824,0.34694671630859375,guard-only,0,0.0,0.0,0.0,0.0,0.013143326,0.00018776208,0.03776922,-0.003552843350917101,-0.005106440745294094,0.6176153421401978,0.7864556908607483,0.00787973403930664,76,1.612585e-05,-5.6549907e-06,1.708865009786188e-05,2.5067602e-05,-2.4239082e-05,3.487001306110604e-05,4.048680305480957,103.3858871459961
1779199114.3812191,0.44828343391418457,guard-only,0,0.0,0.0,0.0,0.0,0.013133366,0.00020243414,0.037758913,-0.0035911218728870153,-0.005259009078145027,0.6177121996879578,0.7863785624504089,0.017148971557617188,77,6.1653554e-06,9.017065e-06,1.0923326806173955e-05,-1.490875e-05,3.0841242e-05,3.425570189701888e-05,4.048680305480957,103.39551544189453
1779199114.4425197,0.5095839500427246,guard-only,0,0.0,0.0,0.0,0.0,0.013151656,0.00021153968,0.0377447,-0.00387083413079381,-0.0037532660644501448,0.6176084876060486,0.7864673137664795,0.007112741470336914,78,2.44556e-05,1.8122606e-05,3.0438548025313683e-05,6.6481785e-05,5.9881368e-05,8.94740518582326e-05,4.048680305480957,103.37410736083984
1779199114.5456378,0.6127021312713623,guard-only,0,0.0,0.0,0.0,0.0,0.013100907,0.00021688174,0.03783093,-0.003444008994847536,-0.007924233563244343,0.617902934551239,0.7862069010734558,0.007675886154174805,79,-2.6293099e-05,2.3464672e-05,3.52408555777353e-05,-0.000101915815,5.7543883e-05,0.00011703902086974255,4.053958892822266,103.34687805175781
1779199114.6473064,0.7143707275390625,guard-only,0,0.0,0.0,0.0,0.0,0.013111456,0.00025214162,0.037778687,-0.003951638471335173,-0.0063116843812167645,0.6178518533706665,0.7862592935562134,0.016572952270507812,80,-1.5744008e-05,5.8724545e-05,6.079840307198646e-05,-3.722794e-05,0.00015430235,0.00015872975419661367,4.048680305480957,103.34011840820312
1779199114.7696364,0.8367006778717041,guard-only,0,0.0,0.0,0.0,0.0,0.0130845355,0.00025654212,0.03779328,-0.004003027454018593,-0.00606673676520586,0.6177551746368408,0.7863368988037109,0.004655361175537109,81,-4.266482e-05,6.3125044e-05,7.61909296951804e-05,-8.62189e-05,0.000117845346,0.0001460178889640931,4.048680305480957,103.33750915527344
1779199114.7911515,0.8582158088684082,guard-only,0,0.0,0.0,0.0,0.0,0.013146008,0.0002887519,0.037768226,-0.003359093563631177,-0.008553597144782543,0.6179569363594055,0.7861582636833191,0.005802631378173828,82,1.880806e-05,9.5334835e-05,9.717239047069671e-05,0.0008450862,0.00055691256,0.0010120880758235633,4.048680305480957,103.33750915527344
1779199114.8728576,0.9399218559265137,guard-only,0,0.0,0.0,0.0,0.0,0.013081442,0.0002532918,0.037762318,-0.00394145492464304,-0.0063376277685165405,0.6177303791046143,0.7863545417785645,0.004856586456298828,83,-4.5758672e-05,5.987473e-05,7.535807306905843e-05,0.00035720423,0.00026113022,0.00044247469408548076,4.048680305480957,103.32855987548828
1779199114.9573853,1.0244495868682861,guard-only,0,0.0,0.0,0.0,0.0,0.013102214,0.00024622772,0.037783816,-0.003570271423086524,-0.006812951527535915,0.6180419921875,0.7861075401306152,0.008084535598754883,84,-2.4986453e-05,5.2810647e-05,5.842334472136434e-05,0.00032669344,0.00015672436,0.0003623411801823946,4.048680305480957,103.30567932128906
1779199115.0806296,1.1476938724517822,guard-only,0,0.0,0.0,0.0,0.0,0.013096547,0.00027678534,0.037771642,-0.00412416597828269,-0.00539924344047904,0.6179237961769104,0.7862086296081543,0.004910469055175781,85,-3.065355e-05,8.336827e-05,8.882516068347018e-05,0.00021523696,0.00018222253,0.00028201418499943214,4.048680305480957,103.30308532714844
1779199115.1009562,1.168020486831665,guard-only,0,0.0,0.0,0.0,0.0,0.013142451,0.00021187402,0.03772084,-0.0037769281771034002,-0.003284080885350704,0.617759108543396,0.7863515019416809,0.0030117034912109375,86,1.5250407e-05,1.845695e-05,2.3942304824291475e-05,0.00077028124,-0.0007486226,0.0010741363734763933,4.048680305480957,103.29497528076172
1779199115.203465,1.2705292701721191,guard-only,0,0.0,0.0,0.0,0.0,0.013071164,0.00024169218,0.03775497,-0.0037497610319405794,-0.006071880925446749,0.6177199482917786,0.7863657474517822,0.013108015060424805,87,-5.6036748e-05,4.8275106e-05,7.396352234418251e-05,0.00030777632,-0.00042723664,0.0005265523843573384,4.048680305480957,103.35181427001953
1779199115.2859924,1.3530566692352295,guard-only,0,0.0,0.0,0.0,0.0,0.013145475,0.00022061914,0.03773478,-0.003840541932731867,-0.0031696513760834932,0.6180503368377686,0.7861227989196777,0.00275421142578125,88,1.8274412e-05,2.720207e-05,3.2770516341846795e-05,0.00045546345,-0.00036713012,0.0005850055449253287,4.048680305480957,103.35181427001953
1779199115.389192,1.45625638961792,guard-only,0,0.0,0.0,0.0,0.0,0.013137919,0.00023032725,0.037712257,-0.0038642026484012604,-0.0034703915007412434,0.6179710030555725,0.7861837148666382,0.003072500228881836,89,1.07185915e-05,3.6910176e-05,3.843500127315772e-05,0.00029679178,-0.00022868245,0.0003746745505227453,4.048680305480957,103.33981323242188
1779199115.4921474,1.5592117309570312,guard-only,0,0.0,0.0,0.0,0.0,0.013171804,0.0002699066,0.037748147,-0.004028822761029005,-0.004083836916834116,0.6178624033927917,0.7862653136253357,0.013968467712402344,90,4.4603832e-05,7.648952e-05,8.854461572834679e-05,0.00031817832,-3.109785e-05,0.00031969442277767634,4.048680305480957,103.3420639038086
1779199115.5740137,1.641077995300293,guard-only,1000,1.525902189669642,0.0,0.0,0.0,0.01320209,0.00025316933,0.03767148,-0.004376574885100126,-0.002184633631259203,0.6178507208824158,0.7862802147865295,0.012726068496704102,91,7.488951e-05,5.975226e-05,9.580590545798177e-05,0.000332048,-8.2185536e-05,0.0003420677276707938,4.048680305480957,103.32830047607422
1779199115.6559174,1.7229816913604736,guard-only,1000,1.525902189669642,0.0,0.0,0.0,0.0131747825,0.00025818404,0.037724197,-0.004503556527197361,-0.003101065056398511,0.6179807782173157,0.7861742377281189,0.0037200450897216797,92,4.75822e-05,6.4766966e-05,8.036681824268977e-05,0.00014232009,-4.0981453e-05,0.00014810296419617752,4.048680305480957,103.29434967041016
1779199115.7585819,1.825646162033081,guard-only,2000,3.051804379339284,0.0,0.0,0.0,0.013178095,0.00024040788,0.037714593,-0.004224910866469145,-0.003225199645385146,0.6177747249603271,0.7863371968269348,0.011951923370361328,93,5.0894916e-05,4.6990812e-05,6.927069196593983e-05,0.000110148125,-8.515954e-05,0.00013922915251759406,4.048680305480957,103.29295349121094
1779199115.8424082,1.9094724655151367,guard-only,2000,3.051804379339284,0.0,0.0,0.0,0.0131149655,0.00024931226,0.03772262,-0.0035281262826174498,-0.005095341708511114,0.6178501844406128,0.7862714529037476,0.0031349658966064453,94,-1.2234785e-05,5.5895187e-05,5.721854586060437e-05,-0.00012732469,-3.077728e-05,0.00013099166610824097,4.048680305480957,103.31464385986328
1779199115.9248242,1.9918885231018066,guard-only,2000,3.051804379339284,0.0,0.0,0.0,0.013201754,0.00028771907,0.03771306,-0.003947170916944742,-0.004410188645124435,0.6176832914352417,0.7864047884941101,0.010648250579833984,95,7.45533e-05,9.4302e-05,0.00012021257242406013,0.00025847572,0.00013228257,0.0002903590456522471,4.048680305480957,103.27948760986328
1779199116.0078332,2.074897527694702,guard-only,3000,4.577706569008926,0.0,0.0,0.0,0.013177735,0.00023392309,0.037738275,-0.004330972675234079,-0.002828149124979973,0.6181777715682983,0.7860212922096252,0.012249946594238281,96,5.0534494e-05,4.0506013e-05,6.476474600448414e-05,9.2419534e-05,-0.00010564971,0.00014036820445911593,4.048680305480957,103.26934051513672
1779199116.0686755,2.135739803314209,guard-only,3000,4.577706569008926,0.0,0.0,0.0,0.013183853,0.00022828858,0.037702724,-0.004074255004525185,-0.003980400040745735,0.6179324388504028,0.7862105369567871,0.0002818107604980469,97,5.6652352e-05,3.487151e-05,6.652451813284091e-05,8.990103e-05,-9.717058e-05,0.00013237944032354194,4.048680305480957,103.26934051513672
1779199116.1721094,2.239173650741577,guard-only,4000,6.103608758678568,0.0,0.0,0.0,0.013165891,0.000216363,0.037717905,-0.004157254472374916,-0.003363734809681773,0.6182041168212891,0.7859994173049927,0.011042118072509766,98,3.8690865e-05,2.2945926e-05,4.498331334935371e-05,4.7863323e-06,-0.00010662455,0.00010673192806570024,4.048680305480957,103.25891876220703
1779199116.2534537,2.3205180168151855,guard-only,5000,7.629510948348211,0.0,0.0,0.0,0.013174886,0.00022436772,0.037711915,-0.0038455058820545673,-0.004147615749388933,0.6180282235145569,0.7861355543136597,0.010328292846679688,99,4.768558e-05,3.0950643e-05,5.684942005111901e-05,3.6234585e-05,-4.5372402e-05,5.8065479315759806e-05,4.048680305480957,103.21980285644531
1779199116.3359232,2.402987480163574,guard-only,5000,7.629510948348211,0.0,0.0,0.0,0.013174415,0.0002071783,0.03772107,-0.0044312262907624245,-0.002790282014757395,0.6179507970809937,0.7861993312835693,0.0002567768096923828,100,4.721433e-05,1.3761222e-05,4.9178898073533965e-05,2.383651e-05,-8.7485474e-05,9.067462253072407e-05,4.048680305480957,103.2638931274414
1779199116.4380834,2.505147695541382,guard-only,6000,9.155413138017853,0.0,0.0,0.0,0.0131844105,0.00024274644,0.03776057,-0.0037873652763664722,-0.003900391748175025,0.6176633834838867,0.7864238023757935,0.010872125625610352,101,5.7210214e-05,4.9329363e-05,7.554068088165168e-05,4.944289e-05,5.531987e-05,7.419492713614072e-05,4.048680305480957,103.2934341430664
1779199116.519542,2.58660626411438,guard-only,7000,10.681315327687495,0.0,0.0,0.0,0.013148773,0.00021970086,0.037746087,-0.00426453584805131,-0.0031266759615391493,0.6176634430885315,0.7864247560501099,0.00030159950256347656,102,2.1573156e-05,2.6283786e-05,3.40035062651897e-05,-8.156104e-05,-3.640095e-05,8.931535258920471e-05,4.048680305480957,103.31266021728516
1779199116.6221657,2.689229965209961,guard-only,7000,10.681315327687495,0.0,0.0,0.0,0.013190656,0.0002165502,0.03772701,-0.004111905582249165,-0.003198472084477544,0.6179792284965515,0.7861771583557129,0.011419296264648438,103,6.345566e-05,2.3133121e-05,6.75408211623221e-05,8.021797e-05,-3.5810033e-05,8.784805653191504e-05,4.043401718139648,103.3214111328125
1779199116.723504,2.7905683517456055,guard-only,8000,12.207217517357137,0.0,0.0,0.0,0.013206606,0.00025487226,0.037715785,-0.004133830312639475,-0.0026201733853667974,0.6177168488502502,0.7863853573799133,0.011196374893188477,104,7.9405494e-05,6.145518e-05,0.00010040902201463898,0.00010326647,8.813178e-05,0.0001357614694416435,4.03812313079834,103.26847076416016
1779199116.8061616,2.8732259273529053,guard-only,9000,13.733119707026779,0.0,0.0,0.0,0.013175808,0.00021374319,0.03772704,-0.004006946925073862,-0.003417250933125615,0.6179977059364319,0.7861623167991638,0.011385917663574219,105,4.8607588e-05,2.0326115e-05,5.268632118487059e-05,-3.9749277e-05,-8.7925975e-05,9.649343090317923e-05,4.032844543457031,103.22760772705078
1779199116.887948,2.955012321472168,guard-only,9000,13.733119707026779,0.0,0.0,0.0,0.013179118,0.00019534212,0.037708417,-0.003859913907945156,-0.0040738326497375965,0.6179726123809814,0.7861796021461487,0.011738300323486328,106,5.191751e-05,1.9250438e-06,5.195318432263199e-05,-1.5630863e-05,-0.00012933707,0.0001302781721946257,4.032844543457031,103.22760772705078
1779199116.9488895,3.015953779220581,guard-only,10000,15.259021896696423,0.0,0.0,0.0,0.013203127,0.00022392068,0.037724186,-0.0041519645601511,-0.0033493039663881063,0.6178226470947266,0.7862994074821472,0.0008091926574707031,107,7.5927004e-05,3.0503608e-05,8.182530323940881e-05,8.927813e-05,2.8755858e-05,9.379490667756035e-05,4.032844543457031,103.23487854003906
1779199117.030527,3.0975914001464844,guard-only,11000,16.784924086366065,0.0,0.0,0.0,0.013220815,0.00019255187,0.037752423,-0.003431458491832018,-0.003612374886870384,0.6179686188697815,0.7861869931221008,0.00966334342956543,108,9.361468e-05,-8.651987e-07,9.361868191827796e-05,0.00013540004,-0.00010916733,0.00017392722158038866,4.027565956115723,103.2075424194336
1779199117.132811,3.1998753547668457,guard-only,11000,16.784924086366065,0.0,0.0,0.0,0.0133777615,0.0001068227,0.037771903,0.000544791400898248,-0.007626311853528023,0.6179497838020325,0.7861803770065308,0.02052593231201172,109,0.00025056116,-8.659437e-05,0.00026510277925001556,0.00060980127,-0.00035773817,0.0007069895236032882,4.022287368774414,103.20735931396484
1779199117.2147799,3.281844139099121,guard-only,12000,18.310826276035705,0.0,0.0,0.0,0.013772194,-0.0003089998,0.037827518,0.007765065412968397,-0.0071734231896698475,0.6178000569343567,0.7862642407417297,0.018751859664916992,110,0.00064499397,-0.00050241686,0.0008175817710041467,0.001839875,-0.0017400573,0.002532378131552592,4.022287368774414,103.16150665283203
1779199117.2963266,3.3633909225463867,guard-only,12000,18.310826276035705,0.0,0.0,0.0,0.0136628095,-0.00019576307,0.03780241,0.0050278836861252785,-0.004265857860445976,0.6176796555519104,0.78640216588974,0.017528295516967773,111,0.0005356092,-0.00038918015,0.000662071308853762,0.0008914489,-0.000807615,0.0012028811575252112,4.022287368774414,103.16150665283203
1779199117.3795116,3.446575880050659,guard-only,13000,19.83672846570535,0.0,0.0,0.0,0.013717127,-0.00024659,0.03781372,0.006293054204434156,-0.004446652717888355,0.6179821491241455,0.7861543893814087,0.019198179244995117,112,0.0005899267,-0.00044000708,0.0007359482207936808,0.000823919,-0.0007523889,0.0011157650208816544,4.0170087814331055,103.14415740966797
1779199117.482171,3.5492353439331055,guard-only,13000,19.83672846570535,0.0,0.0,0.0,0.013734336,-0.00027996022,0.037839305,0.006592766381800175,-0.0036597184371203184,0.6181057095527649,0.7860588431358337,0.017438650131225586,113,0.0006071357,-0.0004733773,0.0007698700204007785,0.00062618544,-0.00062254624,0.0008829904098005865,4.0170087814331055,103.11100769042969
1779199117.5641363,3.6312005519866943,guard-only,13000,19.83672846570535,0.0,0.0,0.0,0.013730722,-0.00031852257,0.037792027,0.007209347561001778,-0.005922424606978893,0.6180050373077393,0.7861188054084778,0.006757974624633789,114,0.00060352124,-0.00051193964,0.0007914038532426896,0.00042662566,-0.00056065246,0.000704514475937179,4.011730194091797,103.05123901367188
1779199117.666875,3.7339391708374023,guard-only,13000,19.83672846570535,0.0,0.0,0.0,0.013733544,-0.00033971947,0.037877895,0.006364632863551378,-0.0016634936910122633,0.6181394457817078,0.7860410809516907,0.0175783634185791,115,0.0006063441,-0.00053313654,0.000807395638544201,0.00030785106,-0.00046163853,0.0005548715186775733,4.011730194091797,102.94506072998047
1779199117.770601,3.837665319442749,guard-only,14000,21.36263065537499,0.0,0.0,0.0,0.013730125,-0.00027412735,0.037878465,0.0069424305111169815,-0.004215430933982134,0.6180800199508667,0.7860732078552246,0.018655061721801758,116,0.00060292426,-0.00046754442,0.0007629649336851432,0.0002055011,-0.00013144953,0.00024394606112572567,4.011730194091797,102.86087799072266
1779199117.8534284,3.920492649078369,guard-only,14000,21.36263065537499,0.0,0.0,0.0,0.013722632,-0.00032681227,0.037893724,0.005997809581458569,-0.0003693824983201921,0.6180697083473206,0.7861003279685974,0.019679784774780273,117,0.0005954318,-0.00052022934,0.0007906817078013713,0.00011637306,-0.00028522947,0.000308056064385941,4.00117301940918,102.87089538574219
1779199117.9159682,3.983032464981079,guard-only,14000,21.36263065537499,0.0,0.0,0.0,0.013705031,-0.00028763898,0.03788693,0.007135552354156971,-0.005046481266617775,0.6182048320770264,0.7859684824943542,0.018579483032226562,118,0.0005778307,-0.00048105605,0.0007518665128180846,-1.5104233e-06,-1.4997422e-05,1.507328919787772e-05,4.00117301940918,102.84151458740234
1779199118.0009823,4.068046569824219,guard-only,15000,22.888532845044633,0.0,0.0,0.0,0.01374431,-0.00026465673,0.037852157,0.006629485636949539,-0.0038269618526101112,0.6179987192153931,0.7861418128013611,0.01977682113647461,119,0.00061710924,-0.0004580738,0.000768541097085346,0.00013952983,7.1760696e-05,0.00015690179218072478,3.995894432067871,102.78902435302734
1779199118.0638306,4.130894899368286,guard-only,15000,22.888532845044633,0.0,0.0,0.0,0.013726937,-0.0002434887,0.037860055,0.006153531838208437,-0.003831847570836544,0.6179447770118713,0.7861880660057068,0.008858680725097656,120,0.00059973635,-0.00043690577,0.0007420042779008806,2.7017268e-05,0.00013632051,0.00013897199048391233,3.995894432067871,102.78902435302734
1779199118.1454058,4.212470054626465,guard-only,15000,22.888532845044633,0.0,0.0,0.0,0.013764654,-0.00027960166,0.037885565,0.007250230293720961,-0.005117436870932579,0.6179959177970886,0.7861312627792358,0.008344888687133789,121,0.000637454,-0.00047301874,0.0007937847891018558,0.00015675391,-3.6553094e-05,0.0001609593717849595,3.995894432067871,102.79399871826172
1779199118.2280471,4.295111417770386,guard-only,16000,24.414435034714273,0.0,0.0,0.0,0.01371325,-0.000246373,0.03786106,0.006728198379278183,-0.004672897979617119,0.618012547492981,0.7861255407333374,0.016844511032104492,122,0.00058604963,-0.00043979008,0.0007327137864555466,-9.826987e-05,0.00010886609,0.00014665875764017413,3.995894432067871,102.7593765258789
1779199118.3314307,4.3984949588775635,guard-only,16000,24.414435034714273,0.0,0.0,0.0,0.013713849,-0.00022725761,0.037837595,0.006547610741108656,-0.0044767120853066444,0.6179795861244202,0.7861540913581848,0.0050449371337890625,123,0.0005866485,-0.00042067468,0.0007218889377625238,-6.722919e-05,0.00012599323,0.0001428077658879899,3.985337257385254,102.7008056640625
1779199118.3931475,4.460211753845215,guard-only,16000,24.414435034714273,0.0,0.0,0.0,0.013675223,-0.00018325914,0.03786883,0.005858412478119135,-0.0054734330624341965,0.6178946495056152,0.7862200140953064,0.01257944107055664,124,0.0005480228,-0.0003766762,0.0006649916882652328,-0.00026092556,0.00033180884,0.0004221128393366891,3.985337257385254,102.7008056640625
1779199118.477536,4.544600248336792,guard-only,16000,24.414435034714273,0.0,0.0,0.0,0.01370331,-0.00023778994,0.03789714,0.006395245902240276,-0.005026360508054495,0.6181772351264954,0.7859966158866882,0.003427743911743164,125,0.0005761096,-0.000431207,0.0007196122453627206,-9.256844e-05,5.7376237e-05,0.00010890798664860645,3.985337257385254,102.68665313720703
1779199118.578887,4.645951271057129,guard-only,17000,25.940337224383917,0.0,0.0,0.0,0.013780978,-0.00030836277,0.037796184,0.007405076175928116,-0.006751085631549358,0.6180166602134705,0.7861011028289795,0.013702869415283203,126,0.0006537773,-0.00050177984,0.0008241405750393812,0.00019103591,-0.00019230045,0.0002710612166689342,3.985337257385254,102.72848510742188
1779199118.6802807,4.747344970703125,guard-only,17000,25.940337224383917,0.0,0.0,0.0,0.013752166,-0.00025370624,0.037839822,0.006377839948982,-0.0043283081613481045,0.6179776191711426,0.7861579060554504,0.01369619369506836,127,0.0006249659,-0.0004471233,0.0007684410189583257,4.848463e-05,2.7094808e-05,5.554176917175539e-05,3.985337257385254,102.68971252441406
1779199118.7611392,4.828203439712524,guard-only,18000,27.466239414053558,0.0,0.0,0.0,0.013786639,-0.00025636517,0.037847754,0.006822936702519655,-0.004046011250466108,0.617846667766571,0.7862585783004761,0.002368450164794922,128,0.0006594388,-0.00044978224,0.0007982252604075388,0.00014612383,1.0313467e-05,0.00014648734283304607,3.9747800827026367,102.67163848876953
1779199118.8421767,4.909240961074829,guard-only,18000,27.466239414053558,0.0,0.0,0.0,0.013704166,-0.00023805536,0.037838787,0.006360428407788277,-0.004127843771129847,0.6182969212532043,0.785908043384552,0.0019443035125732422,129,0.0005769655,-0.00043147244,0.0007204565666335543,-0.0002014388,7.4649186e-05,0.00021482572413035564,3.969501495361328,102.62725830078125
1779199118.9489832,5.016047477722168,guard-only,18000,27.466239414053558,0.0,0.0,0.0,0.013758813,-0.0002853796,0.03786789,0.007134585175663233,-0.004804156720638275,0.6178774833679199,0.7862274050712585,0.014641761779785156,130,0.0006316127,-0.00047879666,0.0007925786302236541,3.319673e-05,-9.8605306e-05,0.00010404340325779024,3.969501495361328,102.52135467529297
1779199119.035104,5.102168321609497,guard-only,19000,28.9921416037232,0.0,0.0,0.0,0.013679329,-0.00016704202,0.037847467,0.005092286504805088,-0.004187467973679304,0.6179712414741516,0.7861730456352234,0.005056619644165039,131,0.000552129,-0.0003604591,0.000659376355214307,-0.00022591201,0.0003019173,0.0003770812750433809,3.969501495361328,102.46138763427734
1779199119.119997,5.187061309814453,guard-only,19000,28.9921416037232,0.0,0.0,0.0,0.013602826,-0.0001608301,0.03790815,0.005184447392821312,-0.007123586721718311,0.6179631352424622,0.7861577272415161,0.016551733016967773,132,0.0004756255,-0.00035424717,0.0005930520180579517,-0.00047083205,0.00023673216,0.0005269961310776568,3.958944320678711,102.46617126464844
1779199119.2057188,5.272783041000366,guard-only,20000,30.518043793392845,0.0,0.0,0.0,0.013681824,-0.00016558543,0.037865136,0.006073051132261753,-0.0057555134408175945,0.6181133985519409,0.7860444188117981,0.005927085876464844,133,0.000554624,-0.0003590025,0.0006606743377555358,-8.359962e-05,0.00015090551,0.00017251484068659073,3.958944320678711,102.41128540039062
1779199119.2870142,5.354078531265259,guard-only,21000,32.043945983062486,0.0,0.0,0.0,0.013695022,-0.00015466101,0.03786379,0.005950745195150375,-0.005241672974079847,0.6182826161384583,0.7859158515930176,0.01584911346435547,134,0.0005678218,-0.0003480781,0.0006660179799828895,-3.0462834e-06,0.00015155182,0.00015158243413211815,3.958944320678711,102.41128540039062
1779199119.3483188,5.4153831005096436,guard-only,21000,32.043945983062486,0.0,0.0,0.0,0.013545648,-7.13449e-05,0.03789544,0.004579690285027027,-0.007438136264681816,0.6181921362876892,0.7859784960746765,0.00302886962890625,135,0.0004184479,-0.00026476197,0.000495174238307019,-0.00060668256,0.00044328562,0.0007513759912771797,3.9378299713134766,102.39513397216797
1779199119.4495847,5.516649007797241,guard-only,22000,33.56984817273213,0.0,0.0,0.0,0.013785345,-0.00021265261,0.03788849,0.006951718125492334,-0.004226909950375557,0.6181504130363464,0.7860177755355835,0.012494325637817383,136,0.00065814424,-0.00040606968,0.0007733346149003708,0.0003586398,-0.00015148774,0.0003893212602929659,3.932551383972168,102.31240844726562
1779199119.5106642,5.577728509902954,guard-only,22000,33.56984817273213,0.0,0.0,0.0,0.013615856,-6.354228e-05,0.037861843,0.004983436781913042,-0.005086137913167477,0.6186370849609375,0.7856445908546448,0.0011610984802246094,137,0.00048865564,-0.00025695935,0.0005520982080168631,-0.00045112954,0.0005117104,0.0006821769692041565,3.9272727966308594,102.20807647705078
1779199119.613012,5.680076360702515,guard-only,22000,33.56984817273213,0.0,0.0,0.0,0.013781188,-0.00020605978,0.03789747,0.007348887622356415,-0.004758529365062714,0.6183391809463501,0.7858626246452332,0.010598182678222656,138,0.00065398775,-0.00039947685,0.0007663431091878874,0.00021805093,-0.00010197816,0.00024071924489135936,3.932551383972168,102.07555389404297
1779199119.7154727,5.78253698348999,guard-only,22000,33.56984817273213,0.0,0.0,0.0,0.013499543,4.1484833e-05,0.037854157,0.0045191035605967045,-0.006813296116888523,0.6189972162246704,0.7853506207466125,0.020348787307739258,139,0.00037234277,-0.00015193224,0.0004021474099881764,-0.0007587384,0.000729644,0.0010526462963710368,3.932551383972168,102.06657409667969
1779199119.7784283,5.845492601394653,guard-only,23000,35.09575036240177,0.0,0.0,0.0,0.013556351,-3.243517e-05,0.037878964,0.005351520609110594,-0.006576546002179384,0.6191534399986267,0.7852242588996887,0.0007328987121582031,140,0.00042915065,-0.00022585224,0.00048495310412160597,-0.00032472162,0.00024218351,0.00040508884732999334,3.932551383972168,102.06657409667969
1779199119.8819516,5.949015855789185,guard-only,23000,35.09575036240177,0.0,0.0,0.0,0.01343471,0.000120261684,0.037847664,0.002427413361147046,-0.006842623930424452,0.6189941763877869,0.7853620052337646,0.009870767593383789,141,0.00030750968,-7.315539e-05,0.00031609161933013194,-0.0006139359,0.000654869,0.0008976473118035882,3.9272727966308594,102.05362701416016
1779199119.965413,6.032477378845215,guard-only,23000,35.09575036240177,0.0,0.0,0.0,0.013656406,1.9608997e-05,0.037831116,0.004461916163563728,-0.004496191628277302,0.6193916201591492,0.7850566506385803,0.0005476474761962891,142,0.0005292054,-0.00017380808,0.0005570167043620639,0.00028705233,0.00013296859,0.00031635373956447114,3.921994209289551,102.04287719726562
1779199120.070959,6.138023376464844,guard-only,23000,35.09575036240177,0.0,0.0,0.0,0.013757656,-2.6648864e-05,0.03789751,0.005163809284567833,-0.0021429378539323807,0.6196179986000061,0.7848836779594421,0.012183189392089844,143,0.000630456,-0.00022006594,0.0006677603030357197,0.00052438496,-5.4694225e-05,0.0005272296029003741,3.916715621948242,101.9641342163086
1779199120.1544056,6.221469879150391,guard-only,23000,35.09575036240177,0.0,0.0,0.0,0.01368399,7.087365e-06,0.037929554,0.004132918082177639,-0.005283617880195379,0.6202970743179321,0.7843382954597473,0.0036547183990478516,144,0.00055678934,-0.00018632971,0.0005871397942873021,0.00012678665,7.175343e-05,0.00014568255568808437,3.916715621948242,101.95333099365234
1779199120.2562935,6.323357820510864,guard-only,23000,35.09575036240177,0.0,0.0,0.0,0.013960961,-0.00014677085,0.03802121,0.00517537584528327,0.00244121253490448,0.6201356649398804,0.784473717212677,0.00925302505493164,145,0.00083376095,-0.00034018792,0.0009004916024909897,0.0009516835,-0.00042913333,0.001043962133959863,3.916715621948242,101.88567352294922
1779199120.3594491,6.426513433456421,guard-only,24000,36.62165255207141,0.0,0.0,0.0,0.013767667,0.00011826772,0.037934955,0.0030820698011666536,-0.0029622025322169065,0.6205552816390991,0.7841511368751526,0.014491796493530273,146,0.0006404668,-7.514935e-05,0.0006448605775865882,7.395912e-05,0.00051163835,0.000516956248747455,3.916715621948242,101.87460327148438
1779199120.442945,6.510009288787842,guard-only,24000,36.62165255207141,0.0,0.0,0.0,0.013621205,0.00035213027,0.037868835,-2.543748269090429e-05,-0.0027777322102338076,0.6206098198890686,0.7841145992279053,0.00011587142944335938,147,0.00049400516,0.0001587132,0.0005188747253631698,-0.000397168,0.0010749905,0.0011460135062562984,3.906158447265625,101.86307525634766
1779199120.5245433,6.591607570648193,guard-only,25000,38.147554741741054,0.0,0.0,0.0,0.014001282,7.7020377e-07,0.037980337,0.004566859919577837,0.002252222504466772,0.6202519536018372,0.7843860983848572,0.02015233039855957,148,0.0008740816,-0.00019264687,0.0008950595144708095,0.0015741521,-0.00095973705,0.0018436512689395616,3.906158447265625,101.87944030761719
1779199120.5884664,6.655530691146851,guard-only,25000,38.147554741741054,0.0,0.0,0.0,0.014165977,1.32839195e-05,0.037997674,0.005315736401826143,0.0021635484881699085,0.6203811764717102,0.7842794060707092,0.0024285316467285156,149,0.0010387767,-0.00018013315,0.001054279354539064,0.0017070553,-0.0006258361,0.0018181607005008729,3.906158447265625,101.87944030761719
1779199120.6703165,6.737380743026733,guard-only,25000,38.147554741741054,0.0,0.0,0.0,0.014056094,0.00017195567,0.037993602,0.00485205790027976,-0.0011240106541663408,0.6206212639808655,0.7840946912765503,0.0012617111206054688,150,0.0009288937,-2.1461397e-05,0.000929141582681105,0.0007978518,0.00013531055,0.0008092443927890268,3.895601272583008,101.82582092285156
1779199120.7725966,6.839660882949829,guard-only,25000,38.147554741741054,0.0,0.0,0.0,0.01389083,0.00039380696,0.037934165,0.0019448372768238187,-0.0018761910032480955,0.6207928657531738,0.783970057964325,0.010174036026000977,151,0.00076362956,0.00020038988,0.0007894847762787687,2.7486356e-05,0.0008075475,0.0008080151270423362,3.895601272583008,101.78132629394531
1779199120.8561618,6.9232261180877686,guard-only,26000,39.6734569314107,0.0,0.0,0.0,0.0139396,0.00035924744,0.037956897,0.0029292493127286434,-0.0010140268132090569,0.6208174228668213,0.7839490175247192,0.009313583374023438,152,0.00081240013,0.00016583037,0.0008291523959744452,0.00019254282,0.00044247872,0.0004825558616358453,3.895601272583008,101.71363830566406
1779199120.9588325,7.025896787643433,guard-only,26000,39.6734569314107,0.0,0.0,0.0,0.014030877,0.00032408163,0.038002927,0.004743389785289764,-0.002066191518679261,0.6206820011138916,0.7840453386306763,0.020075321197509766,153,0.00090367626,0.00013066456,0.0009130739330217243,0.00043271447,0.00019495035,0.0004746024097713196,3.8850440979003906,101.67434692382812
1779199121.0412922,7.108356475830078,guard-only,27000,41.19935912108034,0.0,0.0,0.0,0.014268187,0.00034283707,0.038024437,0.005656912922859192,-0.0013646086445078254,0.620276927947998,0.7843613624572754,0.008665084838867188,154,0.0011409866,0.00014942,0.0011507287971903788,0.001061323,0.00019640598,0.0010793432113756325,3.8850440979003906,101.73722839355469
1779199121.1438816,7.2109458446502686,guard-only,27000,41.19935912108034,0.0,0.0,0.0,0.014280719,0.00039904984,0.038000505,0.005965177435427904,-0.0009419069392606616,0.6199134588241577,0.7846470475196838,0.019057512283325195,155,0.0011535184,0.00020563276,0.0011717037347259277,0.00078370364,0.00032039516,0.0008466666723205941,3.8744869232177734,101.79578399658203
1779199121.2480063,7.315070629119873,guard-only,27000,41.19935912108034,0.0,0.0,0.0,0.014228912,0.0004202393,0.038026616,0.006150892470031977,-0.001815387629903853,0.6201074123382568,0.784490704536438,0.01951456069946289,156,0.0011017118,0.00022682222,0.0011248186810940775,0.0003986712,0.00028559595,0.0004904118332948682,3.8744869232177734,101.77130889892578
1779199121.31173,7.378794193267822,guard-only,28000,42.72526131074998,0.0,0.0,0.0,0.014204648,0.00048351288,0.038066372,0.005665198899805546,-0.0037886500358581543,0.6204645037651062,0.7842049598693848,0.017425060272216797,157,0.001077448,0.0002900958,0.001115818003141314,0.0001684668,0.0004883413,0.0005165833019908265,3.8639297485351562,101.68107604980469
1779199121.3753293,7.44239354133606,guard-only,28000,42.72526131074998,0.0,0.0,0.0,0.013706678,0.0010175249,0.037928045,-0.0005504467990249395,-0.004892569500952959,0.6200903058052063,0.7845150232315063,0.001249074935913086,158,0.0005794773,0.0008241078,0.001007446049621954,-0.0017547227,0.0023500235,0.002932859109698128,3.8639297485351562,101.68107604980469
1779199121.4772587,7.544322967529297,guard-only,28000,42.72526131074998,0.0,0.0,0.0,0.013737495,0.0012781792,0.037825778,-0.0017958710668608546,-0.0016486995154991746,0.6182823777198792,0.7859522700309753,0.011594772338867188,159,0.00061029475,0.0010847622,0.0012446560115908902,-0.0011273574,0.0024988395,0.002741374436732707,3.869208335876465,101.73184967041016
1779199121.558955,7.626019239425659,guard-only,28000,42.72526131074998,0.0,0.0,0.0,0.013734967,0.0013512736,0.03789565,0.000188601334230043,-0.0038342787884175777,0.6175386905670166,0.7865311503410339,0.004214286804199219,160,0.00060776714,0.0011578565,0.001307674548654169,-0.0007976628,0.001995361,0.0021488907649830063,3.8639297485351562,101.76456451416016
1779199121.641077,7.708141326904297,guard-only,29000,44.25116350041962,0.0,0.0,0.0,0.014102861,0.00094517693,0.03801368,0.006374322343617678,-0.002290290780365467,0.617871105670929,0.7862502336502075,0.0034236907958984375,161,0.000975661,0.00075175986,0.0012316887477933228,0.0007727733,-7.261254e-05,0.0007761772409983375,3.8639297485351562,101.78512573242188
1779199121.7239695,7.791033744812012,guard-only,29000,44.25116350041962,0.0,0.0,0.0,0.014097692,0.0009083543,0.038032334,0.0048647597432136536,-0.0031086234375834465,0.6189405918121338,0.7854166030883789,0.004024028778076172,162,0.00097049214,0.0007149372,0.0012054004332991927,0.00052209804,-0.00018506758,0.0005539281267869325,3.853372573852539,101.63090515136719
1779199121.8055904,7.872654676437378,guard-only,29000,44.25116350041962,0.0,0.0,0.0,0.014092296,0.0010059876,0.038015336,0.005870367866009474,-0.0018867166945710778,0.6169553995132446,0.7869739532470703,0.0002028942108154297,163,0.00096509606,0.00081257056,0.0012616185340299936,0.00034652214,0.00021325813,0.0004068864875508957,3.853372573852539,101.42948150634766
1779199121.9100292,7.977093458175659,guard-only,30000,45.777065690089266,0.0,0.0,0.0,0.0138803795,0.0013405196,0.03795577,0.004993231035768986,-0.005523802246898413,0.615507185459137,0.7880960702896118,0.011984586715698242,164,0.0007531792,0.0011471026,0.0013722693679628787,-0.0004435672,0.00123241,0.001309803887006443,3.842815399169922,101.3382568359375
1779199122.0118365,8.078900814056396,guard-only,30000,45.777065690089266,0.0,0.0,0.0,0.014399035,0.001407506,0.038436666,0.01310486439615488,-0.002401771256700158,0.6122366786003113,0.7905622720718384,0.017550230026245117,165,0.0012718346,0.0012140889,0.0017582875422612204,0.0013062306,0.0010714934,0.0016894781277575972,3.842815399169922,101.33699798583984
1779199122.0953143,8.162378549575806,guard-only,30000,45.777065690089266,0.0,0.0,0.0,0.014768525,0.0010788245,0.038107444,0.007674344349652529,-0.003440331667661667,0.6128110885620117,0.790184736251831,0.007452487945556641,166,0.0016413247,0.00088540744,0.0018649110401476124,0.002098935,-0.0003036969,0.0021207922149449323,3.842815399169922,101.33699798583984
1779199122.2002106,8.267274856567383,guard-only,31000,47.30296787975891,0.0,0.0,0.0,0.01536443,0.00063684443,0.038127482,0.00826076790690422,-0.003949536010622978,0.6161285638809204,0.7875924110412598,0.020048856735229492,167,0.0022372296,0.00044342736,0.00228075075884464,0.0034061081,-0.0016491439,0.0037843425152341193,3.8322582244873047,101.383056640625
1779199122.2824142,8.349478483200073,guard-only,31000,47.30296787975891,0.0,0.0,0.0,0.016440151,0.0003223368,0.03820627,0.00947338342666626,-0.0020658185239881277,0.6181226372718811,0.7860218286514282,0.01017618179321289,168,0.003312951,0.00012891972,0.0033154583278909157,0.005889156,-0.0021791193,0.006279388568150858,3.8322582244873047,101.49581146240234
1779199122.3646455,8.43170976638794,guard-only,31000,47.30296787975891,0.0,0.0,0.0,0.018432733,0.00014366116,0.03876622,0.008139593526721,0.008850968442857265,0.6203808784484863,0.7842084765434265,0.014825582504272461,169,0.0053055324,-4.975591e-05,0.005305765666568944,0.011827487,-0.0022163012,0.012033346281096336,3.8322582244873047,101.51964569091797
1779199122.4468405,8.513904809951782,guard-only,31000,47.30296787975891,0.0,0.0,0.0,0.02156525,0.00038646616,0.039233975,0.006795245688408613,0.006450963206589222,0.6207574605941772,0.783946692943573,0.009306907653808594,170,0.008438049,0.00019304908,0.008440256708069206,0.018993128,-0.0007209648,0.01900680712326438,3.8322582244873047,101.44671630859375
1779199122.5338955,8.600959777832031,guard-only,31000,47.30296787975891,0.0,0.0,0.0,0.026162304,0.0013838478,0.03890513,0.007933433167636395,0.005114236380904913,0.6218996644020081,0.7830400466918945,0.007134437561035156,171,0.013035104,0.0011904307,0.013089348665133841,0.028751383,0.0028487158,0.028892164527871453,3.8322582244873047,101.33927917480469
1779199122.6172311,8.684295415878296,guard-only,31000,47.30296787975891,0.0,0.0,0.0,0.031744756,0.0034858396,0.039241236,0.0032331354450434446,0.002700303914025426,0.6234080195426941,0.7818853855133057,0.014620304107666016,172,0.018617555,0.0032924225,0.018906438593574045,0.04220561,0.010307872,0.043446124240410236,3.8322582244873047,101.35249328613281
1779199122.7226603,8.789724588394165,guard-only,31000,47.30296787975891,0.0,0.0,0.0,0.039605316,0.0070009883,0.040964946,0.006604303605854511,0.00612799683585763,0.6220605373382568,0.7829172611236572,0.016979694366455078,173,0.026478115,0.0068075713,0.027339232446240754,0.05242326,0.017446876,0.05525026526511496,3.826979637145996,101.38961791992188
1779199122.7848957,8.851959943771362,guard-only,31000,47.30296787975891,0.0,0.0,0.0,0.04757826,0.011263396,0.0419946,0.004527987912297249,0.009133642539381981,0.6199645400047302,0.7845637202262878,0.011857748031616211,174,0.03445106,0.011069979,0.036185908612819104,0.07220666,0.03119698,0.07865782476840978,3.826979637145996,101.38961791992188
1779199122.86834,8.935404300689697,guard-only,31000,47.30296787975891,0.0,0.0,0.0,0.056917354,0.016864406,0.042470414,0.004561054520308971,0.009908974170684814,0.6179589033126831,0.7861347198486328,0.01286458969116211,175,0.043790154,0.016670989,0.04685615617757438,0.08453074,0.042220637,0.09448824724085358,3.826979637145996,101.44160461425781
1779199122.9537861,9.020850419998169,guard-only,31000,47.30296787975891,0.0,0.0,0.0,0.06902046,0.024076534,0.043315455,0.008357491344213486,0.003689155215397477,0.6157021522521973,0.7879260182380676,0.012205362319946289,176,0.055893257,0.023883117,0.06078206421544563,0.101339996,0.054682255,0.1151518283600698,3.826979637145996,101.45166778564453
1779199123.017223,9.084287166595459,guard-only,31000,47.30296787975891,0.0,0.0,0.0,0.0808575,0.031232683,0.043160703,0.0097908154129982,-0.00760181900113821,0.613312840461731,0.7897427678108215,0.013757467269897461,177,0.0677303,0.031039266,0.07450389045999573,0.12832078,0.07296865,0.14761655061881696,3.826979637145996,101.54090118408203
1779199123.0982974,9.165361642837524,guard-only,31000,47.30296787975891,0.0,0.0,0.0,0.09335858,0.03868214,0.042174023,0.008651001378893852,-0.003142311004921794,0.6108658313751221,0.7916807532310486,0.013518571853637695,178,0.080231376,0.038488723,0.08898570468334466,0.1359464,0.078562304,0.1570141939608001,3.826979637145996,101.54090118408203
1779199123.1795442,9.24660849571228,guard-only,31000,47.30296787975891,0.0,0.0,0.0,0.10917134,0.047466617,0.04074577,0.013018193654716015,-0.008000116795301437,0.6098345518112183,0.7923815250396729,0.0028197765350341797,179,0.09604414,0.0472732,0.10704779949465543,0.14675632,0.08365558,0.16892505259670407,3.826979637145996,101.5911865234375
1779199123.2851264,9.352190732955933,guard-only,31000,47.30296787975891,0.0,0.0,0.0,0.12708053,0.056753866,0.039056994,0.007678563240915537,-0.006427745334804058,0.6111080646514893,0.7914838194847107,0.014691352844238281,180,0.11395333,0.05656045,0.1272181019767687,0.1600629,0.08829059,0.18279868301930863,3.8217010498046875,101.4369888305664
1779199123.3868403,9.453904628753662,guard-only,31000,47.30296787975891,0.0,0.0,0.0,0.14352253,0.0648412,0.038608328,0.010554637759923935,-0.012098591774702072,0.6111844182014465,0.7913254499435425,0.014720678329467773,181,0.13039532,0.06464779,0.1455413216531186,0.16055286,0.08566348,0.1819765205132684,3.826979637145996,101.31250762939453
1779199123.4720151,9.539079427719116,guard-only,32000,48.82887006942855,0.0,0.0,0.0,0.15869199,0.07214834,0.038637184,0.00265524978749454,-0.010381028987467289,0.6119937896728516,0.7907899022102356,0.016704082489013672,182,0.1455648,0.07195492,0.16237801388497608,0.16709022,0.086315006,0.18806760031102882,3.8217010498046875,101.21412658691406
1779199123.5590024,9.6260666847229,guard-only,32000,48.82887006942855,0.0,0.0,0.0,0.17215817,0.079242826,0.039470438,0.005840041674673557,-0.009210671298205853,0.6150838136672974,0.7883864045143127,0.008697986602783203,183,0.15903097,0.07904941,0.17759408759065407,0.15949091,0.08282571,0.179714916045078,3.816422462463379,101.20889282226562
1779199123.661019,9.728083372116089,guard-only,32000,48.82887006942855,0.0,0.0,0.0,0.18400362,0.08588281,0.04256211,0.002099273493513465,-0.012594584375619888,0.6169412136077881,0.7869055867195129,0.008233070373535156,184,0.17087641,0.085689396,0.1911581046317074,0.14631948,0.07741559,0.16553720090430463,3.8111438751220703,101.26753997802734
