wall_time_s,elapsed_s,mode,thrust_raw,thrust_percent,roll_cmd_deg,pitch_cmd_deg,yawrate_cmd_deg_s,mocap_x,mocap_y,mocap_z,mocap_qx,mocap_qy,mocap_qz,mocap_qw,mocap_age_s,mocap_frame_count,drift_x_m,drift_y_m,horizontal_drift_m,velocity_x_m_s,velocity_y_m_s,horizontal_speed_m_s,battery_v,estimate_z
1779199416.4038053,0.0007987022399902344,hold-xy,0,0.0,0.0,0.0,0.0,0.009213865,0.003872714,0.0375244,0.007515505887567997,-0.006309656426310539,-0.6069060564041138,-0.7947129607200623,0.06663274765014648,58,0.0,0.0,0.0,0.0,0.0,0.0,4.00117301940918,103.59334564208984
1779199416.425285,0.022278547286987305,hold-xy,0,0.0,-8.546707e-05,-6.164071e-05,0.0,0.009220374,0.003881739,0.03749981,0.00751038733869791,-0.005638750735670328,-0.6069048643112183,-0.7947189807891846,0.005846500396728516,59,6.5090135e-06,9.024981e-06,1.1127332993785786e-05,2.373644e-05,3.291143e-05,4.0578083636987733e-05,4.00117301940918,103.59334564208984
1779199416.5298483,0.12684178352355957,hold-xy,0,0.0,-6.932651e-05,-0.00010998669,0.0,0.009227119,0.003881587,0.037491094,0.0075591146014630795,-0.005929488223046064,-0.606808066368103,-0.7947903871536255,0.015683650970458984,60,1.3254583e-05,8.872943e-06,1.5950332338130968e-05,3.7978905e-05,2.255649e-05,4.4172305134237345e-05,4.00117301940918,103.56440734863281
1779199416.610965,0.20795845985412598,hold-xy,0,0.0,-0.00016037442,0.00019159284,0.0,0.009196972,0.0038923111,0.03750461,0.007599877659231424,-0.005950620863586664,-0.6068300604820251,-0.7947731018066406,0.01402592658996582,61,-1.689326e-05,1.9597122e-05,2.587333485101104e-05,-8.2679864e-05,5.4657285e-05,9.911295856264489e-05,4.00117301940918,103.60113525390625
1779199416.6921065,0.28909993171691895,hold-xy,0,0.0,-0.0002249413,0.0001201672,0.0,0.009200817,0.0039023308,0.037532542,0.007521612569689751,-0.00596798537299037,-0.6068182587623596,-0.7947826385498047,0.0033080577850341797,62,-1.3047829e-05,2.9616756e-05,3.2363529739114914e-05,-4.5317254e-05,7.0982846e-05,8.421530430963723e-05,3.995894432067871,103.65735626220703
1779199416.7936788,0.3906722068786621,hold-xy,0,0.0,-1.0908729e-05,0.00023680279,0.0,0.009185442,0.0038818994,0.037484143,0.007224672939628363,-0.0038283057510852814,-0.6067944169044495,-0.794816792011261,0.013273477554321289,63,-2.8423034e-05,9.185402e-06,2.9870394175361537e-05,-8.207378e-05,-1.7221919e-05,8.386119073679473e-05,3.995894432067871,103.62088775634766
1779199416.8953085,0.49230194091796875,hold-xy,0,0.0,5.3351745e-05,-4.9837356e-05,0.0,0.009215095,0.003873348,0.03746182,0.007329933345317841,-0.004443708807229996,-0.6067588329315186,-0.7948397397994995,0.01311349868774414,64,1.2302771e-06,6.3399784e-07,1.3840285419457492e-06,2.9944164e-05,-3.725849e-05,4.780008460774284e-05,3.995894432067871,103.62606048583984
1779199416.9765556,0.5735490322113037,hold-xy,0,0.0,-0.00012234555,-4.531068e-05,0.0,0.00921605,0.003890303,0.03751641,0.007484187837690115,-0.005550946108996868,-0.6067505478858948,-0.7948376536369324,0.010619640350341797,65,2.1848828e-06,1.7588958e-05,1.7724140439926996e-05,2.4380766e-05,3.465981e-05,4.237598654870027e-05,3.995894432067871,103.62571716308594
1779199417.0578985,0.6548919677734375,hold-xy,0,0.0,-8.828289e-05,0.00054917246,0.0,0.009150547,0.00388823,0.037482962,0.0069956728257238865,-0.004259013570845127,-0.6065422892570496,-0.7950090765953064,0.00027942657470703125,66,-6.331783e-05,1.5516067e-05,6.519122292604314e-05,-0.00019726744,1.7479078e-05,0.00019804029599088254,3.995894432067871,103.65502166748047
1779199417.159976,0.7569694519042969,hold-xy,0,0.0,-0.00021608181,-0.00014516216,0.0,0.00921499,0.0039026672,0.037502144,0.0078310901299119,-0.006541797891259193,-0.6067507863044739,-0.7948266267776489,0.01897597312927246,67,1.1250377e-06,2.9953197e-05,2.9974317265466077e-05,9.377468e-05,6.417935e-05,0.00011363397688398671,3.995894432067871,103.59136962890625
1779199417.2417464,0.8387398719787598,hold-xy,0,0.0,-8.24473e-05,-0.000105130144,0.0,0.009215218,0.003891635,0.037506882,0.007546042092144489,-0.005925025790929794,-0.6067016124725342,-0.7948716878890991,0.018857717514038086,68,1.3532117e-06,1.8920982e-05,1.8969310618305095e-05,6.64782e-05,4.5089146e-06,6.663093176014699e-05,3.995894432067871,103.59136962890625
1779199417.322734,0.9197275638580322,hold-xy,0,0.0,-8.435399e-05,0.00030905826,0.0,0.009174412,0.003892053,0.037503436,0.007807942107319832,-0.006641828455030918,-0.6066133975982666,-0.7949308753013611,0.016775131225585938,69,-3.9452687e-05,1.9338913e-05,4.39375463095105e-05,-0.000100831676,4.665556e-06,0.00010093955962272883,3.995894432067871,103.56877136230469
1779199417.384434,0.9814274311065674,hold-xy,0,0.0,-0.00013857751,-0.00019521346,0.0,0.009219396,0.003897574,0.03753955,0.007577919866889715,-0.006097314413636923,-0.6067779064178467,-0.7948119044303894,0.005910634994506836,70,5.5311248e-06,2.4860026e-05,2.5467906733807238e-05,0.00011539264,2.609161e-05,0.00011830567824711047,3.995894432067871,103.57991790771484
1779199417.4674058,1.064399242401123,hold-xy,0,0.0,-7.2150404e-05,4.6272115e-05,0.0,0.009199422,0.0038918117,0.03754138,0.007522685453295708,-0.005765843670815229,-0.6069449186325073,-0.7946873903274536,0.006918907165527344,71,-1.44429505e-05,1.90977e-05,2.3944122489337995e-05,7.666458e-06,-2.8269314e-06,8.171053812705079e-06,3.995894432067871,103.53121185302734
1779199417.549333,1.1463265419006348,hold-xy,0,0.0,8.8453584e-05,-0.00010126422,0.0,0.009215279,0.0038748113,0.037547726,0.007812950760126114,-0.007075341884046793,-0.6068340539932251,-0.794758677482605,0.0073528289794921875,72,1.4137477e-06,2.0973384e-06,2.529330147130566e-06,6.3739484e-05,-6.456196e-05,9.072468190769426e-05,3.995894432067871,103.55841827392578
1779199417.6311603,1.2281537055969238,hold-xy,0,0.0,-0.00016347051,-0.0002990518,0.0,0.009239613,0.0038987591,0.037517384,0.007735694292932749,-0.0067633697763085365,-0.6067142486572266,-0.7948536276817322,0.0043790340423583984,73,2.5748275e-05,2.6045134e-05,3.662407295156197e-05,0.0001307058,3.952665e-05,0.00013655167849486717,3.995894432067871,103.55841827392578
1779199417.7341266,1.3311200141906738,hold-xy,0,0.0,1.4054713e-05,-0.00015094773,0.0,0.0092290845,0.003879923,0.0375181,0.007702120579779148,-0.0066413129679858685,-0.6068421006202698,-0.7947574257850647,0.006907224655151367,74,1.52196735e-05,7.2089024e-06,1.6840627109483684e-05,6.0046026e-05,-2.859355e-05,6.650651167824657e-05,3.995894432067871,103.56966400146484
1779199417.836232,1.433225393295288,hold-xy,0,0.0,-0.00012449003,-0.00018453482,0.0,0.009235878,0.0038940092,0.03751773,0.007771776989102364,-0.006252494174987078,-0.6068312525749207,-0.7947680950164795,0.017586469650268555,75,2.201274e-05,2.1295156e-05,3.062751083451072e-05,6.4322565e-05,2.620627e-05,6.945617774198681e-05,3.995894432067871,103.57455444335938
1779199417.9171045,1.5140979290008545,hold-xy,0,0.0,7.342969e-07,5.1362193e-05,0.0,0.009212597,0.003881249,0.037496723,0.007614416535943747,-0.006577747408300638,-0.6068128347396851,-0.7947810292243958,0.006426572799682617,76,-1.26753e-06,8.535106e-06,8.628711645189678e-06,-3.086138e-05,-2.3249813e-05,3.8639083071883574e-05,3.995894432067871,103.62631225585938
1779199418.0209556,1.6179490089416504,hold-xy,0,0.0,-0.00010476042,0.00014888594,0.0,0.009199948,0.0038920387,0.03750684,0.007701350841671228,-0.006342897191643715,-0.6068241000175476,-0.794773519039154,0.016679048538208008,77,-1.3916753e-05,1.932471e-05,2.3814291123252884e-05,-6.2145955e-05,1.8307714e-05,6.478650976413749e-05,3.995894432067871,103.64168548583984
1779199418.105876,1.7028694152832031,hold-xy,1000,1.525902189669642,-5.7132027e-05,9.831507e-05,0.0,0.009202499,0.0038875937,0.037513424,0.00764694856479764,-0.005929500330239534,-0.6068738698959351,-0.7947392463684082,0.009038925170898438,78,-1.1365861e-05,1.4879741e-05,1.8724034664528876e-05,-3.5234414e-05,-1.591292e-06,3.527032929149646e-05,3.995894432067871,103.69353485107422
1779199418.2073915,1.8043849468231201,hold-xy,1000,1.525902189669642,4.229778e-05,-7.1241548e-06,0.0,0.009213111,0.00387573,0.037515078,0.007618372794240713,-0.006018878426402807,-0.6068582534790039,-0.7947508096694946,0.009235143661499023,79,-7.5343996e-07,3.0160882e-06,3.1087713548888864e-06,6.7586097e-06,-3.624142e-05,3.686623621420377e-05,3.995894432067871,103.69303894042969
1779199418.2685027,1.8654961585998535,hold-xy,1000,1.525902189669642,-1.649842e-05,0.00020374128,0.0,0.009194842,0.0038794652,0.03750731,0.007486958056688309,-0.005599515978246927,-0.6069005727767944,-0.7947227358818054,0.009331941604614258,80,-1.9023195e-05,6.7511573e-06,2.018564008615567e-05,-8.5099e-05,-7.0041406e-06,8.538675864300988e-05,3.995894432067871,103.67694854736328
1779199418.3718867,1.9688801765441895,hold-xy,2000,3.051804379339284,0.00036606402,0.0001816054,0.0,0.009193005,0.0038356255,0.03757083,0.007011448964476585,-0.005359705537557602,-0.6071916818618774,-0.7945063710212708,0.018932580947875977,81,-2.0859763e-05,-3.7088525e-05,4.2552184162661224e-05,-6.544423e-05,-0.00014513996,0.00015921229617973202,3.995894432067871,103.68458557128906
1779199418.435748,2.0327415466308594,hold-xy,2000,3.051804379339284,-0.00023132992,-7.034783e-05,0.0,0.009215206,0.0038887153,0.037496567,0.0077553484588861465,-0.006444278173148632,-0.6068707704544067,-0.7947365641593933,0.008071422576904297,82,1.3411045e-06,1.6001286e-05,1.6057388386521802e-05,4.3322274e-05,0.00011154985,0.00011966699410726038,3.995894432067871,103.68458557128906
1779199418.5181704,2.115163803100586,hold-xy,2000,3.051804379339284,-8.49715e-05,0.00018492748,0.0,0.009190354,0.0038785795,0.037513085,0.007641852367669344,-0.005864960141479969,-0.6069209575653076,-0.7947037816047668,0.00848531723022461,83,-2.3511238e-05,5.8654696e-06,2.4231840225944775e-05,-6.058835e-05,4.1006417e-05,7.316060732148866e-05,3.995894432067871,103.6219711303711
1779199418.6043649,2.2013583183288574,hold-xy,3000,4.577706569008926,-1.4663544e-05,-5.8419828e-05,0.0,0.009213702,0.0038729764,0.03749887,0.007427479140460491,-0.005739837419241667,-0.6069532632827759,-0.7946821451187134,0.009043216705322266,84,-1.6298145e-07,2.6240014e-07,3.0889607359553295e-07,3.9381168e-05,9.075962e-06,4.04134821020817e-05,3.995894432067871,103.5936508178711
1779199418.669992,2.2669854164123535,hold-xy,3000,4.577706569008926,1.0539196e-05,-0.00012635674,0.0,0.009221584,0.0038710332,0.03749958,0.007543426007032394,-0.006304902024567127,-0.6069290637969971,-0.7946951985359192,0.009148120880126953,85,7.7188015e-06,-1.6808044e-06,7.899683400994047e-06,6.3654355e-05,-2.5439858e-06,6.370517065477868e-05,3.995894432067871,103.54037475585938
1779199418.7542512,2.3512446880340576,hold-xy,3000,4.577706569008926,-4.1151783e-05,3.4451965e-05,0.0,0.009206738,0.0038767108,0.03752293,0.0075189052149653435,-0.006023090332746506,-0.606751561164856,-0.7948331832885742,0.0016226768493652344,86,-7.1264803e-06,3.996771e-06,8.170734505655318e-06,-3.964029e-06,1.6776467e-05,1.723842653733347e-05,3.995894432067871,103.56957244873047
1779199418.8618016,2.4587950706481934,hold-xy,3000,4.577706569008926,7.965979e-05,6.0181294e-05,0.0,0.009203641,0.003863959,0.03750065,0.007593113463371992,-0.006088616326451302,-0.6068036556243896,-0.7947921752929688,0.017000436782836914,87,-1.0224059e-05,-8.754898e-06,1.3460298171174776e-05,-1.2856704e-05,-2.976013e-05,3.2418514721171034e-05,3.995894432067871,103.5859146118164
1779199418.9463015,2.543294906616211,hold-xy,4000,6.103608758678568,-6.113855e-05,-1.7882086e-05,0.0,0.0092117805,0.0038783073,0.037476994,0.007776344195008278,-0.006319375708699226,-0.6067432165145874,-0.7948347330093384,0.009279727935791016,88,-2.0843e-06,5.5932906e-06,5.9690203926510865e-06,1.7479524e-05,2.5843592e-05,3.119975973091501e-05,3.995894432067871,103.60276794433594
1779199419.0359042,2.6328976154327393,hold-xy,4000,6.103608758678568,0.00016948553,0.00022962241,0.0,0.00918467,0.003853532,0.037436187,0.007335733622312546,-0.003958415240049362,-0.6067957282066345,-0.7948141098022461,0.005892515182495117,89,-2.91951e-05,-1.9181985e-05,3.493282717835558e-05,-7.522801e-05,-6.183839e-05,9.73819329200945e-05,3.995894432067871,103.60276794433594
1779199419.1375024,2.7344958782196045,hold-xy,5000,7.629510948348211,-8.07962e-05,0.00018664774,0.0,0.00918567,0.0038779243,0.03748605,0.007770849857479334,-0.0066028921864926815,-0.6067639589309692,-0.7948166728019714,0.019598007202148438,90,-2.819486e-05,5.210284e-06,2.8672236887245452e-05,-4.9245533e-05,3.997004e-05,6.342496824024085e-05,3.995894432067871,103.57138061523438
1779199419.2190998,2.8160932064056396,hold-xy,6000,9.155413138017853,-2.2941538e-05,-9.14539e-05,0.0,0.009214332,0.0038734595,0.03747684,0.007802941370755434,-0.007006450090557337,-0.6067513823509216,-0.7948224544525146,0.009908437728881836,91,4.6752393e-07,7.455237e-07,8.799910487973347e-07,5.9722537e-05,1.3306296e-05,6.118691867204078e-05,3.995894432067871,103.60725402832031
1779199419.3228385,2.9198319911956787,hold-xy,6000,9.155413138017853,-5.415077e-05,2.2748241e-05,0.0,0.009204201,0.0038777748,0.037490807,0.00778610585257411,-0.0065011833794415,-0.6067013144493103,-0.7948651909828186,0.01624131202697754,92,-9.663403e-06,5.060807e-06,1.0908396807608181e-05,1.060358e-05,2.2605027e-05,2.4968444123550364e-05,3.995894432067871,103.63009643554688
1779199419.4270394,3.0240328311920166,hold-xy,7000,10.681315327687495,-2.7892952e-06,0.00014387399,0.0,0.0091901105,0.0038727866,0.037508953,0.007304868195205927,-0.005415008869022131,-0.6069503426551819,-0.794687807559967,0.014743566513061523,93,-2.3754314e-05,7.264316e-08,2.3754424516997384e-05,-3.257115e-05,1.665815e-06,3.2613721512264696e-05,3.995894432067871,103.63661193847656
1779199419.4880402,3.085033655166626,hold-xy,7000,10.681315327687495,4.9567036e-05,-0.00030139208,0.0,0.009228056,0.003868239,0.037480894,0.007929250597953796,-0.007497256156057119,-0.6067661643028259,-0.7948055863380432,0.014503240585327148,94,1.4191493e-05,-4.475005e-06,1.4880327845438068e-05,0.00016308407,-2.1111344e-05,0.0001644448347241124,3.9906158447265625,103.65467071533203
1779199419.5702963,3.1672897338867188,hold-xy,8000,12.207217517357137,-0.00015482752,-1.4406687e-06,0.0,0.009204057,0.0038888836,0.037493043,0.007910270243883133,-0.00636316230520606,-0.6067911982536316,-0.7947964072227478,0.014045476913452148,95,-9.807758e-06,1.6169623e-05,1.891160488866512e-05,2.7114467e-05,6.0099348e-05,6.593274008074035e-05,3.9906158447265625,103.62080383300781
1779199419.6348493,3.2318427562713623,hold-xy,8000,12.207217517357137,-0.00017558518,-4.5104243e-05,0.0,0.009209587,0.0038936157,0.037494276,0.008100894279778004,-0.007586030289530754,-0.6066740155220032,-0.7948732376098633,0.004850149154663086,96,-4.2775646e-06,2.0901673e-05,2.1334888775003714e-05,4.1476334e-05,6.131899e-05,7.402908278923352e-05,3.9906158447265625,103.62080383300781
1779199419.7166846,3.313678026199341,hold-xy,8000,12.207217517357137,9.6063006e-05,6.116786e-05,0.0,0.009201085,0.003869931,0.037488528,0.007573670241981745,-0.00592616805806756,-0.6068481802940369,-0.7947595715522766,0.015305757522583008,97,-1.2779608e-05,-2.7830247e-06,1.3079128706586458e-05,-6.69962e-06,-5.6620604e-05,5.7015591262987425e-05,3.9906158447265625,103.55839538574219
1779199419.7997882,3.3967816829681396,hold-xy,8000,12.207217517357137,-3.2609707e-05,-0.0002595625,0.0,0.009234666,0.003880838,0.037500642,0.007813890464603901,-0.006811757106333971,-0.6068639159202576,-0.7947381138801575,0.016010761260986328,98,2.080109e-05,8.123927e-06,2.233122340821445e-05,0.0001175721,7.6001015e-08,0.00011757212218401676,3.985337257385254,103.53207397460938
1779199419.882224,3.479217529296875,hold-xy,8000,12.207217517357137,-3.4336786e-05,0.00018317167,0.0,0.00919009,0.0038810393,0.03750264,0.007680879905819893,-0.0058261374942958355,-0.6067764759063721,-0.7948140501976013,0.003614664077758789,99,-2.3774803e-05,8.325325e-06,2.519032154606813e-05,-5.871497e-05,6.9032313e-07,5.8719027311411e-05,3.985337257385254,103.55892181396484
1779199419.9888701,3.5858635902404785,hold-xy,9000,13.733119707026779,-0.00016688342,0.00019202291,0.0,0.009186037,0.0038963056,0.037512027,0.007639752700924873,-0.0059089516289532185,-0.6068601608276367,-0.7947499752044678,0.01457071304321289,100,-2.7827919e-05,2.3591565e-05,3.648225613730836e-05,-5.3807496e-05,4.8344773e-05,7.233577120332083e-05,3.985337257385254,103.54910278320312
1779199420.0722582,3.6692516803741455,hold-xy,10000,15.259021896696423,-6.6964254e-05,5.6937246e-05,0.0,0.009198519,0.0038875055,0.03751214,0.007581333629786968,-0.006053930148482323,-0.6068544983863831,-0.7947537302970886,0.005787372589111328,101,-1.5345402e-05,1.4791498e-05,2.1313605712136593e-05,2.9629082e-06,5.198841e-06,5.983875896347243e-06,3.9800586700439453,103.5153579711914
1779199420.1740348,3.7710282802581787,hold-xy,10000,15.259021896696423,0.00010456312,-0.00015026871,0.0,0.009221947,0.0038684988,0.03750733,0.007726748939603567,-0.0064397575333714485,-0.6069032549858093,-0.7947120666503906,0.015755414962768555,102,8.082017e-06,-4.215166e-06,9.115186279869266e-06,7.862709e-05,-5.8468304e-05,9.798347801141397e-05,3.9800586700439453,103.54460906982422
1779199420.2776833,3.8746767044067383,hold-xy,10000,15.259021896696423,-7.719485e-05,0.00012267212,0.0,0.009193578,0.0038870622,0.037508994,0.007651237770915031,-0.006398015655577183,-0.606895387172699,-0.7947191596031189,0.016520261764526367,103,-2.0287e-05,1.4348188e-05,2.4848196767556177e-05,-2.7682752e-05,1.3201396e-05,3.066939172233307e-05,3.9747800827026367,103.50469970703125
1779199420.3393788,3.9363722801208496,hold-xy,11000,16.784924086366065,2.5533944e-05,3.1555217e-05,0.0,0.00920129,0.0038775725,0.037505433,0.007617481518536806,-0.00622895872220397,-0.606853187084198,-0.7947530150413513,0.005626678466796875,104,-1.2574717e-05,4.858477e-06,1.3480664410684236e-05,1.249577e-05,-2.9978568e-05,3.247859090112068e-05,3.9747800827026367,103.50469970703125
1779199420.4240904,4.021083831787109,hold-xy,11000,16.784924086366065,0.00018919032,6.251141e-05,0.0,0.009198612,0.0038588427,0.037498496,0.007394975982606411,-0.00616095308214426,-0.6069130897521973,-0.7947099208831787,0.007890462875366211,105,-1.5253201e-05,-1.3871351e-05,2.0617335694255213e-05,-9.990727e-07,-8.9136614e-05,8.914221366596988e-05,3.9747800827026367,103.5145034790039
1779199420.5259228,4.122916221618652,hold-xy,12000,18.310826276035705,0.0006684044,-0.00029866578,0.0,0.009239819,0.003799518,0.037507676,0.005287381820380688,-0.003404047107324004,-0.6069934368133545,-0.7946820259094238,0.015065193176269531,106,2.5954098e-05,-7.31959e-05,7.766115821330167e-05,0.00012989959,-0.00025041387,0.00028210107014828333,3.969501495361328,103.48790740966797
1779199420.6354516,4.232445001602173,hold-xy,12000,18.310826276035705,0.003088425,-0.0021700996,0.0,0.009475939,0.0034896438,0.037559886,-0.0009945468045771122,-0.00042519671842455864,-0.6068244576454163,-0.7948351502418518,0.01676654815673828,107,0.00026207417,-0.0003830702,0.00046413968107245594,0.0007478686,-0.0010374293,0.0012788929038687333,3.9642229080200195,103.48234558105469
1779199420.7185295,4.315522909164429,hold-xy,13000,19.83672846570535,0.0025470653,-0.0017335331,0.0,0.009465422,0.003497479,0.03755406,-2.9996936063980684e-05,-0.0013172711478546262,-0.6069322228431702,-0.7947525382041931,0.018181562423706055,108,0.00025155675,-0.000375235,0.00045175445162722635,0.00048487078,-0.0006974168,0.000849405563847195,3.9642229080200195,103.49821472167969
1779199420.781806,4.3787994384765625,hold-xy,13000,19.83672846570535,0.002110989,-0.0017961061,0.0,0.009492919,0.0035094507,0.0376119,-0.0019425315549597144,0.0001935584587045014,-0.6065406799316406,-0.7950500249862671,0.009001731872558594,109,0.00027905405,-0.0003632633,0.00045807355770443675,0.00045326,-0.0004386239,0.0006307420624889119,3.958944320678711,103.43199157714844
1779199420.86311,4.460103511810303,hold-xy,14000,21.36263065537499,0.0023844508,-0.0020389345,0.0,0.009539743,0.0034601064,0.037612017,-0.0019983998499810696,-4.376090510049835e-05,-0.6066291928291321,-0.794982373714447,0.009107589721679688,110,0.00032587815,-0.00041260757,0.0005257771089570165,0.00049028127,-0.0004893471,0.0006927021947915706,3.958944320678711,103.3697738647461
1779199420.95002,4.547013521194458,hold-xy,14000,21.36263065537499,0.0020232415,-0.0019224786,0.0,0.009550721,0.0034749666,0.037637793,-0.00239687436260283,0.0006827684701420367,-0.6066371202468872,-0.7949749827384949,0.01403045654296875,111,0.00033685658,-0.00039774738,0.0005212248391019445,0.00038336817,-0.0002881679,0.0004795955506459582,3.9483871459960938,103.2780532836914
1779199421.0115938,4.608587265014648,hold-xy,14000,21.36263065537499,0.0020470715,-0.0012552099,0.0,0.009502828,0.003460107,0.03758244,-0.0016914570005610585,-0.0007862825877964497,-0.6067711114883423,-0.7948744297027588,0.004517793655395508,112,0.00028896332,-0.0004126071,0.0005037305008411931,6.6237786e-05,-0.00026442873,0.0002725986091445532,3.9483871459960938,103.2780532836914
1779199421.0925908,4.689584255218506,hold-xy,14000,21.36263065537499,0.0015200308,-0.0010730448,0.0,0.009486806,0.0035030185,0.037585236,-0.0006819549598731101,-0.0008319276385009289,-0.6067459583282471,-0.7948950529098511,0.0038306713104248047,113,0.00027294084,-0.00036969548,0.00045953395267029924,-1.2479046e-05,-2.7499249e-05,3.0198266590120064e-05,3.9483871459960938,103.22972869873047
1779199421.174779,4.771772384643555,hold-xy,14000,21.36263065537499,0.0021532227,-0.001595009,0.0,0.0095373755,0.0034397934,0.037608612,-0.0023307029623538256,0.0004145442508161068,-0.6067830324172974,-0.7948639392852783,0.01356196403503418,114,0.00032351073,-0.00043292064,0.0005404437778797172,0.00020064403,-0.0002810267,0.00034530283065693963,3.9483871459960938,103.19464874267578
1779199421.367085,4.964078426361084,hold-xy,14000,21.36263065537499,0.0014605693,-0.0010888311,0.0,0.00947204,0.0035287407,0.03753431,0.0008330614073202014,-0.002766463439911604,-0.6070922017097473,-0.7946261167526245,0.015630483627319336,115,0.00025817566,-0.00034397328,0.00043008405397332853,3.7418977e-05,-5.6450823e-05,6.772647432140985e-05,3.9483871459960938,103.09469604492188
1779199421.4554791,5.0524725914001465,hold-xy,14000,21.36263065537499,0.001944253,-0.0014127851,0.0,0.009509858,0.003472248,0.037609525,-0.0016469120746478438,-1.782468825695105e-05,-0.6068232655525208,-0.7948350310325623,0.014232158660888672,116,0.00029599294,-0.0004004659,0.0004979806804100415,0.00015254223,-0.00022825952,0.0002745387867849334,3.9483871459960938,103.13717651367188
1779199421.5450466,5.142040014266968,hold-xy,15000,22.888532845044633,0.001458272,-0.0010612302,0.0,0.00947728,0.0035163816,0.03761492,-0.0020164481829851866,0.0015467701014131308,-0.6068015694618225,-0.7948493361473083,0.007731914520263672,117,0.00026341528,-0.0003563324,0.00044312570370249964,5.046066e-06,-2.1961561e-05,2.253381881353763e-05,3.9378299713134766,103.18392944335938
1779199421.6262538,5.223247289657593,hold-xy,15000,22.888532845044633,0.0008389265,-0.00019733643,0.0,0.009386795,0.0035803858,0.037627555,-0.0006257857312448323,0.0010793930850923061,-0.6073046326637268,-0.7944680452346802,0.0074503421783447266,118,0.00017292984,-0.0002923282,0.00033964760077761407,-0.0003295886,0.0002202575,0.00039641141684273703,3.9378299713134766,103.18392944335938
1779199421.729961,5.326954364776611,hold-xy,16000,24.414435034714273,0.0006949346,-0.00032450748,0.0,0.009384248,0.003609662,0.03762292,-5.009806500311242e-06,0.0005774669116362929,-0.6068704724311829,-0.7948005795478821,0.00660252571105957,119,0.0001703836,-0.00026305206,0.0003134118098664846,-0.00023801795,0.00023818242,0.00033672452769546957,3.9378299713134766,103.14154815673828
1779199421.8150475,5.412040948867798,hold-xy,16000,24.414435034714273,0.0021134657,-0.001565272,0.0,0.00950414,0.0034709778,0.037679706,-0.002820171881467104,0.0016438342863693833,-0.6069221496582031,-0.7947546243667603,0.009205818176269531,120,0.00029027555,-0.00040173624,0.0004956328319952184,0.0002694465,-0.00033768057,0.00043200645547245535,3.932551383972168,103.06871032714844
1779199421.897063,5.494056463241577,hold-xy,17000,25.940337224383917,0.000890143,-0.0006026617,0.0,0.009415483,0.0035838718,0.037636355,-0.0006623289082199335,0.0009326009312644601,-0.6070035099983215,-0.7946982979774475,0.00925445556640625,121,0.0002016183,-0.00028884225,0.0003522495930264823,-0.00013587433,0.00017681732,0.00022299372995494908,3.932551383972168,103.0253677368164
1779199421.9984522,5.59544563293457,hold-xy,17000,25.940337224383917,-0.00056331675,0.0009180086,0.0,0.009236719,0.003757122,0.037633903,0.0022101430222392082,0.001104519353248179,-0.607105553150177,-0.7946173548698425,0.017833948135375977,122,2.2854656e-05,-0.00011559203,0.00011782976354997318,-0.0006729515,0.0006837899,0.0009593916519857093,3.921994209289551,102.98873901367188
1779199422.0848093,5.681802749633789,hold-xy,18000,27.466239414053558,0.0024232976,-0.0016939548,0.0,0.0095054,0.0034454158,0.037730776,-0.002908512018620968,0.0004737894341815263,-0.6070541739463806,-0.7946550250053406,0.0062444210052490234,123,0.00029153563,-0.00042729825,0.000517278270092748,0.00035187486,-0.00047606966,0.0005919951322883825,3.9272727966308594,102.9189453125
1779199422.1669285,5.7639219760894775,hold-xy,18000,27.466239414053558,-0.00017455174,9.578897e-05,0.0,0.009331595,0.0036993604,0.037656825,0.0009233622113242745,0.0005579369608312845,-0.6071025133132935,-0.7946227788925171,0.004819393157958984,124,0.00011773035,-0.00017335359,0.00020955167249814407,-0.00037780692,0.00057864405,0.000691062245894896,3.916715621948242,102.9113998413086
1779199422.2277188,5.82471227645874,hold-xy,19000,28.9921416037232,0.0029504648,-0.002225102,0.0,0.009520666,0.0034475485,0.03773691,-0.0036155041307210922,0.00108242966234684,-0.6069409847259521,-0.7947380542755127,0.004601478576660156,125,0.00030680094,-0.00042516552,0.000524301970926614,0.00066526537,-0.0008332018,0.001066209751717806,3.916715621948242,102.9113998413086
1779199422.3088558,5.90584921836853,hold-xy,19000,28.9921416037232,0.00023124248,-0.00029709068,0.0,0.009349875,0.003693386,0.037693374,0.0009172307909466326,-0.0004514683678280562,-0.6068416237831116,-0.7948221564292908,0.004450798034667969,126,0.00013601035,-0.00017932802,0.00022507188994536756,-0.00016463382,0.0003240464,0.00036346990579612945,3.906158447265625,102.86985778808594
1779199422.3948517,5.99184513092041,hold-xy,19000,28.9921416037232,0.00026856395,-0.000104532286,0.0,0.009321078,0.0037051039,0.03765382,0.0016827203799039125,0.000585755449719727,-0.6071686148643494,-0.794571042060852,0.004883766174316406,127,0.00010721292,-0.00016761012,0.00019896674138633125,-0.00021621294,0.0002679177,0.0003442788532645867,3.906158447265625,102.79190063476562
1779199422.489879,6.086872339248657,hold-xy,20000,30.518043793392845,0.0024912627,-0.0021111984,0.0,0.009537346,0.003467002,0.037712008,-0.0021658828482031822,-0.0019529572455212474,-0.6068509817123413,-0.7948102951049805,0.006718635559082031,128,0.00032348093,-0.00040571205,0.0005188855160574638,0.00054484984,-0.0005789431,0.0007950072435802793,3.906158447265625,102.71379852294922
1779199422.5710077,6.168001174926758,hold-xy,20000,30.518043793392845,0.0022980229,-0.0014604797,0.0,0.009495869,0.0034601204,0.037708864,-0.003082127310335636,0.001202438143081963,-0.6069786548614502,-0.7947112321853638,0.009959220886230469,129,0.00028200448,-0.0004125936,0.000499759948829816,0.00022164117,-0.00043176563,0.00048533119249812717,3.895601272583008,102.74745178222656
1779199422.672801,6.269794464111328,hold-xy,20000,30.518043793392845,0.0016149124,-0.001193862,0.0,0.009476977,0.0035154577,0.03766561,-0.0025163309182971716,0.0019336709519848228,-0.6068819761276245,-0.794785737991333,0.018650054931640625,130,0.0002631126,-0.00035725627,0.0004436894009531354,9.427433e-05,-0.00012392488,0.0001557081421852063,3.895601272583008,102.7568130493164
1779199422.7770462,6.374039649963379,hold-xy,20000,30.518043793392845,0.002247512,-0.001551935,0.0,0.009524865,0.0034331493,0.037746932,-0.0033084095921367407,0.0004221689887344837,-0.6070781350135803,-0.7946351170539856,0.019761085510253906,131,0.00031100027,-0.0004395647,0.0005384591634706783,0.00020528925,-0.00032616884,0.00038539563166875367,3.895601272583008,102.6736068725586
1779199422.8609903,6.457983732223511,hold-xy,20000,30.518043793392845,0.00020543841,8.294982e-05,0.0,0.009357901,0.0036383,0.037647575,5.889451585971983e-06,0.0023333001881837845,-0.607214629650116,-0.79453444480896,0.017803668975830078,132,0.00014403649,-0.00023441389,0.0002751297589717451,-0.00043939718,0.00048814478,0.0006567763729004594,3.895601272583008,102.63528442382812
1779199422.9441156,6.541109085083008,hold-xy,21000,32.043945983062486,0.0019583423,-0.0013748085,0.0,0.009500348,0.003464967,0.037700694,-0.002796621760353446,0.001355184824205935,-0.6070106029510498,-0.7946877479553223,0.008061647415161133,133,0.0002864832,-0.000407747,0.0004983274264374523,0.00015258379,-0.00021823621,0.00026628716435402847,3.8850440979003906,102.63528442382812
1779199423.0258698,6.622863292694092,hold-xy,21000,32.043945983062486,-0.00030438195,9.322603e-05,0.0,0.009365064,0.0036742212,0.03767477,0.0005557256517931819,0.0007079215720295906,-0.6069993376731873,-0.7947019338607788,0.018882274627685547,134,0.00015119929,-0.00019849278,0.0002495207624409194,-0.0004653488,0.0007322354,0.0008675933178230613,3.8850440979003906,102.67488861083984
1779199423.10895,6.70594334602356,hold-xy,21000,32.043945983062486,0.0018767824,-0.0014831317,0.0,0.009511193,0.003476276,0.03772668,-0.0030929360073059797,0.0010039035696536303,-0.6067997217178345,-0.7948482632637024,0.017919301986694336,135,0.00029732846,-0.00039643794,0.000495547439001471,0.00019587856,-0.0001940204,0.00027570333167973557,3.8850440979003906,102.6615982055664
1779199423.1707482,6.767741680145264,hold-xy,21000,32.043945983062486,0.0010142542,-0.0009073627,0.0,0.009463507,0.0035520876,0.03771201,-0.0014738264726474881,-0.00043232543976046145,-0.6068099737167358,-0.794845461845398,0.00743556022644043,136,0.00024964195,-0.00032062642,0.0004063525576216818,-6.080343e-05,0.00017883434,0.00018888826661801216,3.8850440979003906,102.5959243774414
1779199423.2563488,6.853342294692993,hold-xy,21000,32.043945983062486,-0.000550229,0.0005176447,0.0,0.009308846,0.0037272573,0.037719563,0.002358885481953621,-0.001449078437872231,-0.6070870161056519,-0.7946305274963379,0.009558439254760742,137,9.498093e-05,-0.00014545675,0.00017372117038739972,-0.00059837895,0.000754704,0.0009631383509623585,3.8850440979003906,102.53185272216797
1779199423.340136,6.937129497528076,hold-xy,22000,33.56984817273213,0.0014539489,-0.00079818117,0.0,0.009418709,0.0035525179,0.03768467,-0.0009047909406945109,0.0007402030169032514,-0.6070057153701782,-0.7946966290473938,0.011911869049072266,138,0.0002048444,-0.00032019615,0.0003801141996070163,-1.4130957e-05,-0.00011544285,0.0001163044900218799,3.8850440979003906,102.53185272216797
1779199423.4064147,7.003408193588257,hold-xy,22000,33.56984817273213,0.0019688616,-0.001819214,0.0,0.009521106,0.0034953123,0.03777337,-0.0024798698723316193,-0.000790549733210355,-0.6067469716072083,-0.7948907613754272,0.002038240432739258,139,0.00030724145,-0.0003774017,0.00048665118844893566,0.00039349875,-0.00030616974,0.0004985791403702481,3.8744869232177734,102.5359115600586
1779199423.4732575,7.070250988006592,hold-xy,22000,33.56984817273213,0.0013810043,-0.0009117509,0.0,0.009451887,0.0035379669,0.03769047,-0.0017127927858382463,0.0008053725468926132,-0.6068143248558044,-0.794841468334198,0.0001971721649169922,140,0.00023802184,-0.00033474714,0.00041074328362783084,-2.6890979e-05,-2.801053e-05,3.882930104726928e-05,3.8744869232177734,102.582275390625
1779199423.5757742,7.172767639160156,hold-xy,22000,33.56984817273213,-1.995638e-05,-2.2400054e-05,0.0,0.009355688,0.0036861263,0.037661236,0.0012329753953963518,0.0008087198948487639,-0.6070945858955383,-0.7946282029151917,0.01892566680908203,141,0.00014182273,-0.00018658768,0.00023436861627889024,-0.0003632606,0.0005108714,0.0006268555399946785,3.8744869232177734,102.53921508789062
1779199423.6617992,7.2587926387786865,hold-xy,22000,33.56984817273213,-3.708445e-05,0.000488376,0.0,0.009277075,0.0037149275,0.037679017,0.0018572573317214847,0.00170634756796062,-0.6072134375572205,-0.7945347428321838,0.006627559661865234,142,6.3209794e-05,-0.00015778653,0.00016997666723758036,-0.00049414346,0.00044548704,0.0006653092984426393,3.8744869232177734,102.52882385253906
1779199423.7481968,7.3451902866363525,hold-xy,22000,33.56984817273213,0.0023600606,-0.0022094492,0.0,0.009556862,0.00346665,0.0377205,-0.0031381999142467976,0.0009178566397167742,-0.6068645715713501,-0.7947986125946045,0.00019693374633789062,143,0.0003429968,-0.0004060641,0.0005315400659823904,0.000558308,-0.0004905361,0.0007431914024973734,3.8744869232177734,102.50564575195312
1779199423.852359,7.449352502822876,hold-xy,23000,35.09575036240177,0.00044205604,-0.000283362,0.0,0.009365004,0.0036610756,0.037690118,0.00017270272655878216,0.002091869944706559,-0.6070901155471802,-0.794630229473114,0.009214162826538086,144,0.00015113875,-0.0002116384,0.00026006486701766465,-0.00021412867,0.00026966503,0.0003443404023337472,3.8639297485351562,102.50564575195312
1779199423.9381435,7.535136938095093,hold-xy,23000,35.09575036240177,0.00071034103,-0.00045139156,0.0,0.0093729,0.0036448864,0.03767278,0.00034909951500594616,0.0008882597903721035,-0.6070378422737122,-0.7946723103523254,0.006349086761474609,145,0.00015903544,-0.00022782758,0.000277844697281383,-0.00012316678,0.0001339795,0.00018199056038465934,3.8639297485351562,102.47030639648438
1779199424.0402644,7.637257814407349,hold-xy,23000,35.09575036240177,-0.001504048,0.0011842194,0.0,0.009182793,0.0039006071,0.03764155,0.005800681654363871,-0.002297703642398119,-0.6070335507392883,-0.7946518063545227,0.016542673110961914,146,-3.1071715e-05,2.7893111e-05,4.1754965458454957e-05,-0.0007066217,0.000928317,0.0011666561937770823,3.8639297485351562,102.40271759033203
1779199424.1225119,7.719505310058594,hold-xy,23000,35.09575036240177,0.0011686602,-0.00079154596,0.0,0.009358097,0.003662154,0.037700042,0.00018296955386176705,0.0015866114990785718,-0.6069804430007935,-0.794715166091919,0.016321897506713867,147,0.00014423206,-0.00021055993,0.00025522220302664177,0.00014307845,-0.0002176137,0.0002604364915020005,3.8639297485351562,102.44024658203125
1779199424.2061412,7.8031346797943115,hold-xy,23000,35.09575036240177,0.0007337924,-5.999695e-05,0.0,0.009281905,0.0037006335,0.03768171,0.0018781108083203435,0.0014562389114871621,-0.6071648001670837,-0.7945723533630371,0.005342006683349609,148,6.8040565e-05,-0.00017208047,0.00018504379806674802,-0.00014144354,-3.031367e-05,0.00014465542591141642,3.8639297485351562,102.47642517089844
1779199424.28888,7.885873556137085,hold-xy,23000,35.09575036240177,0.00031800644,8.5510546e-05,0.0,0.009259895,0.003742952,0.037678935,0.003261733567342162,3.8475227484013885e-05,-0.6073701977729797,-0.7944123148918152,0.00630497932434082,149,4.603062e-05,-0.0001297621,0.00013768449746424222,-0.00017975534,0.000134028,0.00022422196293204663,3.8639297485351562,102.44035339355469
1779199424.3699543,7.966947793960571,hold-xy,24000,36.62165255207141,0.0027341822,-0.0024485437,0.0,0.00949928,0.0035130624,0.03773208,-0.0018271863227710128,-0.0006291125901043415,-0.6070880889892578,-0.7946321964263916,0.015353918075561523,150,0.00028541498,-0.00035965163,0.0004591416007483883,0.0008712558,-0.00086371705,0.0012268226870690148,3.8586511611938477,102.375244140625
1779199424.431462,8.02845549583435,hold-xy,24000,36.62165255207141,0.00092209294,-0.00031554356,0.0,0.00932747,0.0036535366,0.037616666,0.0018815762596204877,-0.00021754755289293826,-0.6069498062133789,-0.7947378754615784,0.0034873485565185547,151,0.00011360552,-0.00021917745,0.00024687035050723353,-9.258569e-05,-3.025541e-05,9.740379246516958e-05,3.8586511611938477,102.375244140625
1779199424.5193157,8.11630916595459,hold-xy,24000,36.62165255207141,0.0030851054,-0.0026558244,0.0,0.009562973,0.0034305323,0.037711464,-0.0021096409764140844,-0.002190278610214591,-0.6070287823677063,-0.7946740984916687,0.013222455978393555,152,0.00034910813,-0.0004421817,0.0005633836573478171,0.00083959464,-0.0008775857,0.00121452698837924,3.853372573852539,102.34696960449219
1779199424.601826,8.198819398880005,hold-xy,24000,36.62165255207141,0.0025024954,-0.0018665262,0.0,0.009520995,0.0034496803,0.03757201,-0.0006428083870559931,-0.0008820346556603909,-0.6070507764816284,-0.7946622967720032,0.018178701400756836,153,0.00030713063,-0.00042303372,0.0005227683603245549,0.00042533578,-0.0005402403,0.0006875828133908467,3.853372573852539,102.26363372802734
1779199424.6860437,8.283037185668945,hold-xy,25000,38.147554741741054,-0.0011372569,0.0010540568,0.0,0.009209301,0.0038376038,0.037624057,0.005515421740710735,-0.0030321308877319098,-0.6071077585220337,-0.7945945858955383,0.0077784061431884766,154,-4.5634806e-06,-3.5110163e-05,3.5405491386243684e-05,-0.00069053523,0.00085179834,0.0010965396889617372,3.8480939865112305,102.24976348876953
1779199424.7910366,8.388030052185059,hold-xy,25000,38.147554741741054,0.0004425863,-4.3228967e-05,0.0,0.009298947,0.0037012305,0.03762472,0.003319248091429472,-0.0032032192684710026,-0.6075278520584106,-0.794284999370575,0.018509864807128906,155,8.5081905e-05,-0.0001714835,0.00019143019718934203,-0.00019806577,0.0001622318,0.00025602578311990665,3.842815399169922,102.25437927246094
1779199424.879587,8.476580381393433,hold-xy,26000,39.6734569314107,0.00022621304,0.00048499845,0.0,0.009231668,0.0037327665,0.037612658,0.0029476515483111143,-0.00037725112633779645,-0.6077240705490112,-0.7941427230834961,0.020122289657592773,156,1.7803162e-05,-0.00013994751,0.0001410753677864292,-0.00037080742,0.00022238468,0.0004323807207513606,3.842815399169922,102.2426986694336
1779199424.9629889,8.559982299804688,hold-xy,26000,39.6734569314107,0.0017635785,-0.0006441352,0.0,0.009340298,0.003570511,0.037593372,0.0009975313441827893,-0.0011061064433306456,-0.6079848408699036,-0.7939473390579224,0.010897397994995117,157,0.00012643356,-0.000302203,0.0003275852514786554,9.226729e-05,-0.00036984432,0.0003811798447148854,3.826979637145996,102.24036407470703
1779199425.0551112,8.652104616165161,hold-xy,27000,41.19935912108034,0.0014440853,-0.00033370967,0.0,0.009309005,0.0035883235,0.03756353,0.0014967207098379731,-0.0008028699667192996,-0.6079360842704773,-0.7939842343330383,0.005045413970947266,158,9.514019e-05,-0.00028439052,0.00029988267886496713,-3.1234056e-05,-0.00020434873,0.00020672196981659616,3.8217010498046875,102.14918518066406
1779199425.1583688,8.755362272262573,hold-xy,27000,41.19935912108034,0.00088050973,-0.00037340715,0.0,0.009311911,0.0036417665,0.03758377,0.00020498968660831451,-0.005324595142155886,-0.6088435053825378,-0.7932725548744202,0.01503300666809082,159,9.8045915e-05,-0.00023094751,0.0002508978917361737,-1.2517669e-05,2.8853538e-05,3.1451847432992487e-05,3.8217010498046875,102.07789611816406
1779199425.2443533,8.841346740722656,hold-xy,27000,41.19935912108034,0.00027745223,8.51698e-05,0.0,0.009261137,0.0037091472,0.03755823,-0.000434407324064523,-0.006033884361386299,-0.6101273894309998,-0.7922802567481995,0.01351475715637207,160,4.727207e-05,-0.00016356679,0.00017026080604022113,-0.00018283872,0.00025120995,0.0003107031254774205,3.8217010498046875,102.04928588867188
1779199425.32795,8.924943447113037,hold-xy,27000,41.19935912108034,0.00020152272,3.464386e-05,0.0,0.009257573,0.00373036,0.03755357,-0.0003895600966643542,-0.005694759543985128,-0.6099902391433716,-0.792388379573822,0.0054340362548828125,161,4.37079e-05,-0.00014235405,0.0001489129216491886,-0.0001396503,0.00024526232,0.00028223361354133585,3.8217010498046875,102.04928588867188
1779199425.4141998,9.01119327545166,hold-xy,28000,42.72526131074998,-3.806065e-05,1.813125e-05,0.0,0.009252885,0.0037657656,0.037587848,-0.00035034288885071874,-0.005875490605831146,-0.6097962260246277,-0.7925364375114441,0.015206098556518555,162,3.9020553e-05,-0.00010694843,0.00011384449704093657,-0.000116142306,0.00031056957,0.00033157576911918796,3.8217010498046875,102.01030731201172
1779199425.4964387,9.093432188034058,hold-xy,28000,42.72526131074998,-0.0008720864,0.0006860342,0.0,0.009170808,0.0038767476,0.03760865,0.0011496427468955517,-0.00473087327554822,-0.6100671887397766,-0.7923347353935242,0.0031890869140625,163,-4.3056905e-05,4.033558e-06,4.324542389869924e-05,-0.0003425377,0.0005706348,0.0006655495097901508,3.8111438751220703,101.99748229980469
1779199425.5813842,9.178377628326416,hold-xy,28000,42.72526131074998,0.00069847365,-0.00076902786,0.0,0.009308418,0.0037377775,0.037670303,-0.002570945071056485,-0.0038997232913970947,-0.6098090410232544,-0.792534589767456,0.0056209564208984375,164,9.4553456e-05,-0.00013493653,0.00016476718423698105,0.00026054267,-0.000105818355,0.00028121168200453945,3.8111438751220703,101.91166687011719
1779199425.6703527,9.267346143722534,hold-xy,28000,42.72526131074998,-0.00030500646,0.0006396605,0.0,0.009179693,0.0038330536,0.037574764,-0.000521653622854501,-0.0028459043242037296,-0.610022246837616,-0.7923790216445923,0.019994020462036133,165,-3.4172088e-05,-3.9660372e-05,5.235147156074238e-05,-0.00033531478,0.00030909863,0.0004560460086038241,3.8111438751220703,101.83634185791016
1779199425.7323873,9.329380750656128,hold-xy,28000,42.72526131074998,-0.00031659845,-0.00014475975,0.0,0.009241717,0.0038478062,0.037609447,-0.0005140686989761889,-0.005215234123170376,-0.6095236539840698,-0.7927505373954773,0.009613990783691406,166,2.7852133e-05,-2.4907757e-05,3.7364925397140146e-05,2.2234148e-05,0.0002774863,0.0002783756686485046,3.8111438751220703,101.83634185791016
1779199425.81421,9.411203384399414,hold-xy,28000,42.72526131074998,-0.0022933495,0.0023154821,0.0,0.00900422,0.004051512,0.037530474,0.004535630811005831,-0.006852057762444019,-0.6095121502876282,-0.7927342057228088,0.02019953727722168,167,-0.00020964444,0.0001787981,0.0002755350277810393,-0.000984603,0.0010521048,0.0014409605508828398,3.8111438751220703,101.7671890258789
1779199425.8959646,9.492958068847656,hold-xy,29000,44.25116350041962,0.0002733831,-0.00019789327,0.0,0.009241069,0.0038120346,0.03760646,-0.0009559085010550916,-0.005312127061188221,-0.6092692613601685,-0.7929450869560242,0.007038593292236328,168,2.7203932e-05,-6.067939e-05,6.649843823654304e-05,5.9385027e-05,-2.0443695e-05,6.280546185750602e-05,3.8058650493621826,101.75309753417969
1779199425.9985318,9.59552526473999,hold-xy,29000,44.25116350041962,-0.0008952496,0.0009280801,0.0,0.009110384,0.0039498745,0.037599325,0.0014379409840330482,-0.00415920140221715,-0.6094301342964172,-0.7928276658058167,0.007598400115966797,169,-0.000103481114,7.716054e-05,0.00012908171975185997,-0.00034277045,0.00039107163,0.0005200274859956673,3.7953078746795654,101.72657012939453
1779199426.080383,9.677376508712769,hold-xy,30000,45.777065690089266,-0.0007142698,0.00095059833,0.0,0.009091607,0.0039493437,0.03763868,0.000986393541097641,-0.0038148302119225264,-0.6092585325241089,-0.7929618954658508,0.006335020065307617,170,-0.00012225751,7.662969e-05,0.00014428793691498016,-0.0003077122,0.00027183403,0.00041058560803607455,3.7953078746795654,101.6577377319336
1779199426.185605,9.782598495483398,hold-xy,30000,45.777065690089266,-0.0027001854,0.002569425,0.0,0.008889929,0.004191298,0.03772058,0.003935142420232296,-0.0031796579714864492,-0.6089645028114319,-0.793181300163269,0.01608419418334961,171,-0.0003239354,0.00031858403,0.00045434562299822233,-0.0008491221,0.00095056626,0.001274591967520672,3.7847506999969482,101.6646499633789
1779199426.2670515,9.864044904708862,hold-xy,31000,47.30296787975891,0.0003149602,-0.0006295907,0.0,0.009206923,0.003900133,0.03764826,0.0022917769383639097,-0.002554933773353696,-0.6078872680664062,-0.7940160036087036,0.005437135696411133,172,-6.9420785e-06,2.7419068e-05,2.828423120263206e-05,0.00043823937,-0.00028309098,0.0005217223940637667,3.774193525314331,101.59944915771484
1779199426.369259,9.966252565383911,hold-xy,31000,47.30296787975891,0.002640826,-0.0023248526,0.0,0.009419451,0.0036246278,0.03781266,0.001628722413443029,0.0009867652552202344,-0.6046099662780762,-0.79651939868927,0.01589369773864746,173,0.00020558573,-0.00024808617,0.0003221990698025781,0.001001673,-0.0010989875,0.0014869843952405027,3.774193525314331,101.57624053955078
1779199426.4513183,10.048311710357666,hold-xy,31000,47.30296787975891,0.010107661,-0.004962311,0.0,0.009769105,0.0027232212,0.038644493,-0.00016028672689571977,0.006948589347302914,-0.6011337041854858,-0.7991182804107666,0.004827022552490234,174,0.00055524055,-0.0011494928,0.0012765679713303438,0.0018275661,-0.003673126,0.004102664124404514,3.774193525314331,101.48846435546875
1779199426.5333967,10.130390167236328,hold-xy,31000,47.30296787975891,0.026553277,-0.0031203902,0.0,0.009661364,0.00081059616,0.03975418,-0.003072326071560383,0.01301762368530035,-0.5978114008903503,-0.8015251755714417,0.004528045654296875,175,0.00044749957,-0.0030621178,0.003094644061452872,0.00088692794,-0.009536536,0.009577691097844166,3.774193525314331,101.48846435546875
1779199426.603559,10.200552463531494,hold-xy,31000,47.30296787975891,0.046320356,0.0054227384,0.0,0.008901246,-0.0014348978,0.03992991,-0.002109839115291834,0.01773534156382084,-0.5961658358573914,-0.8026626706123352,0.00766754150390625,176,-0.0003126189,-0.005307612,0.0053168106928928646,-0.0027815085,-0.016726606,0.016956300595991822,3.774193525314331,101.44830322265625
1779199426.705531,10.302524328231812,hold-xy,31000,47.30296787975891,0.0626827,0.017264491,0.0,0.0074257655,-0.004126952,0.039379027,-0.0006769323954358697,0.013550130650401115,-0.5953274369239807,-0.8033686280250549,0.017313003540039062,177,-0.0017880993,-0.007999666,0.008197069913560588,-0.0067413957,-0.020456027,0.021538232764143808,3.774193525314331,101.50765991210938
1779199426.7699666,10.366960048675537,hold-xy,31000,47.30296787975891,0.079593435,0.033033606,0.0,0.00558916,-0.006677892,0.040277902,-0.0014338352484628558,0.014070848003029823,-0.594875156879425,-0.8036936521530151,0.009607553482055664,178,-0.0036247047,-0.010550606,0.011155885025189808,-0.012356525,-0.024927337,0.02782185895642008,3.774193525314331,101.48411560058594
1779199426.8339968,10.430990219116211,hold-xy,31000,47.30296787975891,0.107472405,0.054762296,0.0,0.0030525774,-0.010311974,0.041236054,-0.00473965797573328,0.01505441963672638,-0.5962192416191101,-0.8026665449142456,0.007052183151245117,179,-0.0061612874,-0.014184688,0.01546501983776953,-0.020078097,-0.033822432,0.03933302515067741,3.774193525314331,101.48411560058594
1779199426.9365108,10.533504247665405,hold-xy,31000,47.30296787975891,0.1403831,0.081754945,0.0,-0.0011779405,-0.015963672,0.040665627,-0.00040918265585787594,0.013134889304637909,-0.596918523311615,-0.8021942973136902,0.009924173355102539,180,-0.010391805,-0.019836385,0.022393566139740285,-0.026791815,-0.040691707,0.04871977467052734,3.774193525314331,101.46941375732422
1779199427.0398316,10.63682508468628,hold-xy,31000,47.30296787975891,0.17558834,0.11166479,0.0,-0.005954268,-0.022054588,0.03845403,0.0011207432253286242,0.0008470745524391532,-0.5966747999191284,-0.8024818897247314,0.0192263126373291,181,-0.015168132,-0.025927301,0.030038262401238462,-0.03399484,-0.047919426,0.05875304741133769,3.774193525314331,101.50907897949219
1779199427.1421738,10.739167213439941,hold-xy,31000,47.30296787975891,0.20008555,0.12741047,0.0,-0.009649188,-0.02753697,0.038467865,-0.0025458824820816517,-3.110758188995533e-05,-0.5951473116874695,-0.8036125302314758,0.019333600997924805,182,-0.018863052,-0.031409685,0.03663854501082968,-0.034638837,-0.04963121,0.060523597795858426,3.7689149379730225,101.45814514160156
1779199427.224531,10.821524381637573,hold-xy,31000,47.30296787975891,0.22755635,0.14093584,0.0,-0.01275659,-0.032852963,0.039799344,-0.003965906333178282,0.010105462744832039,-0.5937462449073792,-0.8045791387557983,0.01787424087524414,183,-0.021970455,-0.036725678,0.04279575010886403,-0.035369344,-0.053769097,0.0643591991148025,3.7689149379730225,101.41446685791016
1779199427.3070064,10.90399980545044,hold-xy,31000,47.30296787975891,0.2517445,0.15594539,0.0,-0.016281083,-0.038367137,0.040059213,0.0011550721246749163,0.00864221341907978,-0.5948731899261475,-0.8037722706794739,0.0060994625091552734,184,-0.025494948,-0.042239852,0.04933758554703695,-0.03597706,-0.05519008,0.06588090631755242,3.7689149379730225,101.40412139892578
1779199427.4134219,11.010415315628052,hold-xy,31000,47.30296787975891,0.2778234,0.1704016,0.0,-0.019782681,-0.04418461,0.038554683,0.0034823832102119923,-0.004692385904490948,-0.5964418053627014,-0.802635133266449,0.01781749725341797,185,-0.028996546,-0.048057325,0.05612758837144372,-0.036276944,-0.057062715,0.06761782546709333,3.7689149379730225,101.37694549560547
1779199427.4998815,11.096874952316284,hold-xy,31000,47.30296787975891,0.29613328,0.17913143,0.0,-0.022686116,-0.04928217,0.037926055,0.004976453725248575,-0.002667768159881234,-0.5947824716567993,-0.8038668632507324,0.007069110870361328,186,-0.03189998,-0.053154886,0.06199234186644826,-0.03435434,-0.055675812,0.06542183700835567,3.763636350631714,101.38584899902344
1779199427.5844185,11.181411981582642,hold-xy,31000,47.30296787975891,0.30477086,0.17634292,0.0,-0.024036378,-0.052872483,0.037879393,0.004065227694809437,0.0027621013578027487,-0.5937108993530273,-0.8046634197235107,0.008026123046875,187,-0.033250242,-0.056745198,0.06576926447825629,-0.028894631,-0.051860042,0.05936635191264496,3.7689149379730225,101.40241241455078
1779199427.6746662,11.27165961265564,hold-xy,31000,47.30296787975891,0.29870328,0.16610879,0.0,-0.024357798,-0.054877482,0.03775374,0.0058549330569803715,-0.008436029776930809,-0.5924964547157288,-0.8055076003074646,0.0007274150848388672,188,-0.03357166,-0.058750197,0.06766566397715534,-0.021214757,-0.042468328,0.047472358730460185,3.7689149379730225,101.43016052246094
1779199427.7557514,11.352744817733765,hold-xy,31000,47.30296787975891,0.2866752,0.15205863,0.0,-0.023916759,-0.055571105,0.03786657,0.006287227384746075,-0.009735806845128536,-0.5932427644729614,-0.8049402236938477,0.009362220764160156,189,-0.033130623,-0.05944382,0.06805296413515428,-0.013024092,-0.03259996,0.035105330626446385,3.7689149379730225,101.41962432861328
1779199427.8376865,11.434679985046387,hold-xy,31000,47.30296787975891,0.27688327,0.1423397,0.0,-0.02353722,-0.056050982,0.03835898,-0.0018267378909513354,-0.005405806005001068,-0.595166802406311,-0.8035818934440613,0.018306970596313477,190,-0.032751083,-0.059923697,0.06828969742244465,-0.007556913,-0.024792328,0.025918459131234257,3.7689149379730225,101.41962432861328
1779199427.9198399,11.516833305358887,hold-xy,31000,47.30296787975891,0.26774737,0.13304648,0.0,-0.022868231,-0.056280386,0.0387126,-0.0010409094393253326,0.002955141244456172,-0.5959118008613586,-0.8030438423156738,0.00687098503112793,191,-0.032082096,-0.0601531,0.06817372179863232,-0.003145397,-0.018089982,0.018361398497883746,3.7689149379730225,101.37556457519531
1779199428.0012984,11.598291873931885,hold-xy,31000,47.30296787975891,0.2616941,0.12423231,0.0,-0.022147888,-0.056483597,0.038173255,-0.0010349438525736332,-0.0028286846354603767,-0.5965770483016968,-0.8025501370429993,0.016572237014770508,192,-0.03136175,-0.06035631,0.06801796534442425,0.0008098006,-0.013512563,0.013536806788617538,3.7689149379730225,101.4240951538086
1779199428.0679655,11.664958953857422,hold-xy,31000,47.30296787975891,0.25649238,0.11824432,0.0,-0.021509686,-0.0565719,0.03802113,0.00038269461947493255,-0.006094933953136206,-0.5957543849945068,-0.8031435012817383,0.007654666900634766,193,-0.030723551,-0.060444616,0.06780478098990672,0.0030999216,-0.009809279,0.010287442174748041,3.763636350631714,101.41706848144531
1779199428.1509707,11.747964143753052,hold-xy,31000,47.30296787975891,0.2569456,0.109137185,0.0,-0.02037758,-0.057096597,0.038280193,-0.0028636734932661057,0.001550530781969428,-0.5953723788261414,-0.8034433126449585,0.005377769470214844,194,-0.029591445,-0.06096931,0.0677710145192891,0.006152398,-0.008712238,0.010665602946108441,3.763636350631714,101.31999969482422
1779199428.2527814,11.849774837493896,hold-xy,32000,48.82887006942855,0.25671342,0.1030689,0.0,-0.01932639,-0.057535343,0.037822932,0.0013691387139260769,-0.0031089952681213617,-0.5941839814186096,-0.8043219447135925,0.005067348480224609,195,-0.028540256,-0.061408058,0.06771628817571067,0.0073947455,-0.0073874653,0.010452602548267628,3.7530791759490967,101.28887939453125
1779199428.3355005,11.932493925094604,hold-xy,32000,48.82887006942855,0.2595388,0.097961314,0.0,-0.018437844,-0.05818314,0.03899453,0.0021819709800183773,-0.0006985570653341711,-0.5931984782218933,-0.8050529360771179,0.005868196487426758,196,-0.027651709,-0.062055856,0.06793781129937675,0.008430348,-0.007543585,0.011312667241905258,3.7530791759490967,101.28887939453125
1779199428.437036,12.034029483795166,hold-xy,33000,50.35477225909819,0.26792786,0.0969395,0.0,-0.017879501,-0.059549432,0.04166501,0.005699529778212309,-0.01571204513311386,-0.5956066250801086,-0.8031023740768433,0.010097742080688477,197,-0.027093366,-0.06342214,0.06896679289663503,0.007622646,-0.009492863,0.012174529676451596,3.7530791759490967,101.20149230957031
1779199428.518464,12.115457534790039,hold-xy,33000,50.35477225909819,0.28005755,0.095065,0.0,-0.017320877,-0.06127663,0.045940366,0.002483124379068613,-0.010417703539133072,-0.5976560711860657,-0.8016810417175293,0.009647846221923828,198,-0.026534742,-0.065149345,0.07034578462731503,0.0073826453,-0.012973438,0.014926940621575272,3.7425220012664795,101.21778106689453
1779199428.622343,12.21933650970459,hold-xy,33000,50.35477225909819,0.29588392,0.09715311,0.0,-0.017172106,-0.06388833,0.053313054,-0.0008027238654904068,0.0034315427765250206,-0.5988107919692993,-0.8008827567100525,0.008757591247558594,199,-0.02638597,-0.06776104,0.07271711007827654,0.005593849,-0.016559834,0.017479108545724518,3.7425220012664795,101.43822479248047
1779199428.7058647,12.302858114242554,hold-xy,33000,50.35477225909819,0.31319246,0.09811556,0.0,-0.017005518,-0.0665413,0.061489694,-0.0005037822993472219,0.0038084257394075394,-0.6018700003623962,-0.7985848188400269,0.007900476455688477,200,-0.026219383,-0.070414014,0.0751371375375435,0.0045079794,-0.02102426,0.021502125787176012,3.7425220012664795,101.63967895507812
1779199428.7928092,12.389802694320679,hold-xy,33000,50.35477225909819,0.32936922,0.104789965,0.0,-0.01752653,-0.06941648,0.06952097,0.0012403754517436028,0.002829947043210268,-0.6038822531700134,-0.7970675826072693,0.0033240318298339844,201,-0.026740395,-0.07328919,0.07801508920662438,0.001447743,-0.024141632,0.024185002563976037,3.7425220012664795,101.92843627929688
1779199428.8955202,12.492513656616211,hold-xy,33000,50.35477225909819,0.34216797,0.11230992,0.0,-0.018298265,-0.07207517,0.07564678,-0.0028819164726883173,0.009554879739880562,-0.6071155071258545,-0.794550895690918,0.014199018478393555,202,-0.02751213,-0.07594789,0.08077746402715474,-0.0015076015,-0.025584284,0.025628664789383655,3.7425220012664795,102.30320739746094
1779199428.9765775,12.573570966720581,hold-xy,33000,50.35477225909819,0.358016,0.12812372,0.0,-0.02003273,-0.07495269,0.08083113,0.0013047647662460804,0.009327135980129242,-0.609196662902832,-0.7929633259773254,0.013564825057983398,203,-0.029246595,-0.07882541,0.08407620466294002,-0.007424889,-0.02847626,0.029428327219936067,3.737243413925171,102.64546203613281
1779199429.0581377,12.655131101608276,hold-xy,33000,50.35477225909819,0.36652523,0.13882573,0.0,-0.021507943,-0.07719269,0.08360189,-0.0025611338205635548,0.006336160935461521,-0.6091024279594421,-0.7930620908737183,0.013595104217529297,204,-0.030721808,-0.0810654,0.0866915716075923,-0.010625666,-0.028175741,0.030112740836859424,3.737243413925171,102.81742858886719
1779199429.1405797,12.737573146820068,hold-xy,33000,50.35477225909819,0.3753632,0.15282376,0.0,-0.02339356,-0.07935317,0.08496245,0.0005509981419891119,0.005400409456342459,-0.6090521812438965,-0.7931116223335266,0.02052593231201172,205,-0.032607425,-0.08322588,0.08938563728720207,-0.014929372,-0.028306441,0.0320021990422336,3.737243413925171,102.81742858886719
1779199429.208252,12.805245399475098,hold-xy,33000,50.35477225909819,0.37492424,0.16645269,0.0,-0.025460083,-0.08060229,0.08473272,0.0020228694193065166,0.005765517707914114,-0.6066136956214905,-0.7949732542037964,0.011223554611206055,206,-0.034673948,-0.084475,0.09131434111432953,-0.018504601,-0.024682812,0.030849011256308723,3.737243413925171,102.93225860595703
1779199429.2694054,12.866398811340332,hold-xy,33000,50.35477225909819,0.37157908,0.17769118,0.0,-0.027370075,-0.08136003,0.08342343,0.001734707155264914,0.004330309107899666,-0.6048782467842102,-0.7963042855262756,0.00030541419982910156,207,-0.036583938,-0.08523274,0.09275238400541772,-0.020903619,-0.020432081,0.02923065589546399,3.737243413925171,103.0304946899414
1779199429.370871,12.967864513397217,hold-xy,33000,50.35477225909819,0.36035568,0.19406542,0.0,-0.030266775,-0.081132054,0.07943711,0.002261551097035408,-0.0024596876464784145,-0.6022776961326599,-0.7982796430587769,0.009935855865478516,208,-0.03948064,-0.08500477,0.0937258371368166,-0.024095237,-0.013557733,0.02764764997557738,3.737243413925171,102.96515655517578
1779199429.4748375,13.071830987930298,hold-xy,34000,51.880674448767834,0.34307852,0.20797013,0.0,-0.033065554,-0.07986811,0.073499106,0.002263725036755204,0.0016570610459893942,-0.6014249324798584,-0.798924446105957,0.020970821380615234,209,-0.04227942,-0.08374082,0.09380871205875418,-0.025901638,-0.0054101613,0.02646062551643366,3.737243413925171,102.85577392578125
1779199429.5788157,13.175809144973755,hold-xy,34000,51.880674448767834,0.32311636,0.22022662,0.0,-0.03613755,-0.07761634,0.06682543,0.006744429003447294,-0.001959053101018071,-0.6013430953025818,-0.7989600300788879,0.006025075912475586,210,-0.045351416,-0.08148906,0.09325887266280121,-0.025880633,0.0018932424,0.0259497881880986,3.7266862392425537,102.62569427490234
1779199429.6602468,13.257240295410156,hold-xy,34000,51.880674448767834,0.29190484,0.2425353,0.0,-0.039434478,-0.07450307,0.06157577,0.003386148251593113,-0.00019336063996888697,-0.601192057132721,-0.7990974187850952,0.016016006469726562,211,-0.048648342,-0.07837579,0.09224654707028933,-0.031961277,0.014398871,0.035054968271901535,3.7266862392425537,102.36573791503906
1779199429.74294,13.339933395385742,hold-xy,34000,51.880674448767834,0.26631346,0.2626989,0.0,-0.043376423,-0.07084358,0.05846152,0.0060323080979287624,0.005380731541663408,-0.6000373363494873,-0.7999312281608582,0.0042455196380615234,212,-0.05259029,-0.07471629,0.09136882875916502,-0.034891833,0.021701131,0.04108989043386799,3.7266862392425537,102.36573791503906
1779199429.8451462,13.442139625549316,hold-xy,35000,53.40657663843748,0.23744777,0.28711414,0.0,-0.04797428,-0.06641596,0.057970297,0.004733973182737827,0.016494758427143097,-0.5992486476898193,-0.8003790974617004,0.011214733123779297,213,-0.057188146,-0.07028867,0.09061446498606295,-0.0389077,0.02913795,0.04860894122891209,3.7161290645599365,102.05513763427734
1779199429.926819,13.523812532424927,hold-xy,35000,53.40657663843748,0.20622025,0.32250234,0.0,-0.05391669,-0.061434854,0.061192803,0.006092390511184931,0.008760958909988403,-0.5979445576667786,-0.8014664649963379,0.0010800361633300781,214,-0.06313056,-0.065307565,0.09083251460972135,-0.046653416,0.036673337,0.059342015274083386,3.7161290645599365,102.05513763427734
