wall_time_s,elapsed_s,mode,thrust_raw,thrust_percent,roll_cmd_deg,pitch_cmd_deg,yawrate_cmd_deg_s,mocap_x,mocap_y,mocap_z,mocap_qx,mocap_qy,mocap_qz,mocap_qw,yaw_deg,mocap_age_s,mocap_frame_count,drift_x_m,drift_y_m,horizontal_drift_m,velocity_x_m_s,velocity_y_m_s,horizontal_speed_m_s,body_error_x_m,body_error_y_m,body_velocity_x_m_s,body_velocity_y_m_s,battery_v,estimate_z
1779206344.3758795,0.0005507469177246094,hold-xy,0,0.0,0.0,-0.0,0.0,0.0071800947,0.006022782,0.037162457,3.6893488147419103e+19,-1.8239506483078003,-8.404655456542969,4.661061683302027e+23,-90.0,0.021779298782348633,210,0.0,0.0,0.0,0.0,0.0,0.0,0.0,0.0,0.0,0.0,4.053958892822266,107.07440185546875
1779206344.3976665,0.022337675094604492,hold-xy,0,0.0,0.00075623847,0.00033728738,0.0,0.007199077,0.006025629,0.037105296,0.011597742326557636,-0.008423389866948128,-0.6052266359329224,-0.795924186706543,74.49275356408016,0.011255741119384766,212,1.8982217e-05,2.847053e-06,1.9194537205253066e-05,0.0001762482,2.6434638e-05,0.00017821958231678626,-7.8185e-06,1.7530012e-05,7.259409e-05,-0.0001627646,4.053958892822266,107.11038208007812
1779206344.418854,0.04352521896362305,hold-xy,0,0.0,4.1941144e-05,0.00076720107,0.0,0.007191105,0.0060396576,0.037138097,0.01130200456827879,-0.007563677150756121,-0.6053116917610168,-0.7958723902702332,74.50409640534731,0.0019927024841308594,213,1.10100955e-05,1.6875565e-05,2.014961276975026e-05,4.4832173e-05,0.00015671355,0.0001630001781126374,-1.9203693e-05,6.1012383e-06,0.00016299472,-1.3334284e-06,4.053958892822266,107.11038208007812
1779206344.4597604,0.08443164825439453,hold-xy,0,0.0,-0.0005673459,-0.0016761833,0.0,0.007165037,0.005995581,0.037168548,0.011464173905551434,-0.009371068328619003,-0.6055088639259338,-0.7957007884979248,74.53480341159484,0.012497901916503906,214,-1.5057623e-05,-2.7201138e-05,3.1090736305972175e-05,-0.00022585431,-0.00032525044,0.00039597730169042524,3.0231415e-05,-7.2591615e-06,-0.0003736987,0.00013094772,4.053958892822266,107.11038208007812
1779206344.4800735,0.10474467277526855,hold-xy,0,0.0,0.0006500815,0.00047651373,0.0,0.0071978252,0.0060257735,0.037128713,0.011891643516719341,-0.009827463887631893,-0.6053693890571594,-0.7957951426506042,74.51517592159706,0.0020651817321777344,216,1.773052e-05,2.991408e-06,1.7981096055723433e-05,0.00016183058,6.692691e-05,0.00017512381230891508,-7.616573e-06,1.6288268e-05,0.00010770357,-0.00013808797,4.053958892822266,107.11038208007812
1779206344.5008543,0.12552547454833984,hold-xy,0,0.0,0.000621324,0.00089745835,0.0,0.0072021987,0.0060335156,0.03714907,0.011433538980782032,-0.007942793890833855,-0.6053870916366577,-0.7958094477653503,74.51533737076001,0.002071380615234375,217,2.210401e-05,1.0733493e-05,2.45722429788023e-05,0.00017643772,0.00015865003,0.00023727642604757233,-1.6245225e-05,1.8436045e-05,0.00019999675,-0.00012767693,4.053958892822266,107.09870147705078
1779206344.5419447,0.16661596298217773,hold-xy,0,0.0,-0.0004992985,-0.00077618135,0.0,0.0071649235,0.0060016485,0.037164234,0.011132354848086834,-0.008306333795189857,-0.605686366558075,-0.7955822348594666,74.5590562042795,0.0021598339080810547,219,-1.5171245e-05,-2.1133572e-05,2.6015274538709987e-05,-0.00014922586,-0.00012210706,0.00019281724870098282,2.4410032e-05,-8.996936e-06,-0.00015743029,0.000111329224,4.053958892822266,107.09870147705078
1779206344.5836375,0.20830869674682617,hold-xy,0,0.0,0.0012733531,0.0013271567,0.0,0.0072118565,0.00603328,0.037100255,0.010334044694900513,-0.004508038517087698,-0.6056000590324402,-0.7956894040107727,74.54341469409174,0.012706756591796875,220,3.1761825e-05,1.0497868e-05,3.3451736210777564e-05,0.0003476066,0.0002192027,0.00041095033446637207,-1.8582974e-05,2.7815318e-05,0.0003039147,-0.0002766153,4.053958892822266,107.08829498291016
1779206344.6070666,0.23173785209655762,hold-xy,0,0.0,0.0005020031,0.0013745077,0.0,0.007204769,0.0060449084,0.037130594,0.011625719256699085,-0.008829722180962563,-0.6054109334945679,-0.7957792282104492,74.51982845166228,0.0047168731689453125,222,2.467446e-05,2.2126362e-05,3.314219248288542e-05,0.00017565198,0.00026447483,0.00031749102090092025,-2.7909415e-05,1.787371e-05,0.0003017628,-9.869021e-05,4.053958892822266,107.08829498291016
1779206344.6312149,0.2558860778808594,hold-xy,0,0.0,-0.00045792127,-0.0012152628,0.0,0.007180756,0.0060120616,0.03712312,0.011126396246254444,-0.007187586277723312,-0.6054857969284058,-0.7957459092140198,74.52883636490125,0.006018877029418945,223,6.61239e-07,-1.0720454e-05,1.0740827250950412e-05,-0.00019236782,-0.0002461882,0.0003124324019165661,1.015561e-05,3.4969958e-06,-0.0002885823,0.00011972581,4.053958892822266,107.08829498291016
1779206344.6540642,0.2787353992462158,hold-xy,0,0.0,-0.0002853251,8.7422275e-05,0.0,0.0071852133,0.006026456,0.037112206,0.011347378604114056,-0.007712788879871368,-0.6053304672241211,-0.7958560585975647,74.50695144410656,0.00800013542175293,225,5.118549e-06,3.6740676e-06,6.300659813103764e-06,-7.057903e-05,3.460441e-05,7.860575380426484e-05,-4.9078367e-06,3.9511333e-06,1.4493813e-05,7.725797e-05,4.053958892822266,107.08829498291016
1779206344.6768277,0.3014988899230957,hold-xy,0,0.0,-0.0001508699,0.00043449202,0.0,0.0071873665,0.0060317777,0.037131235,0.011514376848936081,-0.0079716257750988,-0.6053165793418884,-0.7958616018295288,74.50517619387003,0.010039567947387695,226,7.2717667e-06,8.995645e-06,1.1567204541409878e-05,-1.8235489e-05,0.000101257865,0.00010288677645836167,-1.0611357e-05,4.604273e-06,9.2705974e-05,4.4623885e-05,4.053958892822266,107.08829498291016
1779206344.6980536,0.3227248191833496,hold-xy,0,0.0,0.00037851848,0.001336492,0.0,0.007203454,0.006050515,0.037152756,0.011212218552827835,-0.0077386838383972645,-0.6053251028060913,-0.7958617210388184,74.50627549154247,0.0007524490356445312,228,2.3359433e-05,2.7732924e-05,3.6259870038666234e-05,0.00014540683,0.00025510282,0.0002936334245322921,-3.2965174e-05,1.5102169e-05,0.00028467525,-7.197637e-05,4.053958892822266,107.10604858398438
1779206344.7188606,0.34353184700012207,hold-xy,0,0.0,-0.00017335417,1.256587e-06,0.0,0.007192053,0.006037211,0.037121266,0.011421040631830692,-0.007672632113099098,-0.6053497195243835,-0.7958406805992126,74.50963872390867,0.00036787986755371094,229,1.1958182e-05,1.4428981e-05,1.8740160137451568e-05,-5.961766e-05,-9.766038e-06,6.041225896977852e-05,-1.70986e-05,7.670167e-06,-2.5333753e-05,5.4843793e-05,4.053958892822266,107.10604858398438
1779206344.7596605,0.38433170318603516,hold-xy,0,0.0,0.00013026528,0.00010306764,0.0,0.0071990043,0.006037359,0.03715755,0.01149467658251524,-0.008196520619094372,-0.6053045392036438,-0.7958687543869019,74.50373247437406,0.0007798671722412109,230,1.8909574e-05,1.4577061e-05,2.3875985084192868e-05,9.902393e-06,-5.73629e-06,1.1443880792158949e-05,-1.909933e-05,1.4327536e-05,-2.8820855e-06,-1.1075016e-05,4.053958892822266,107.10604858398438
1779206344.7799826,0.40465378761291504,hold-xy,0,0.0,0.0013385116,-3.6075646e-05,0.0,0.007216431,0.006030268,0.03714926,0.011463331058621407,-0.008426676504313946,-0.6053867936134338,-0.7958042025566101,74.51589110840068,0.0008881092071533203,231,3.633648e-05,7.485971e-06,3.7099589834337885e-05,0.00026556992,-0.00010925651,0.0002871660978925119,-1.6915055e-05,3.3019092e-05,-3.4391494e-05,-0.00028509926,4.053958892822266,107.10604858398438
1779206344.8002188,0.42489004135131836,hold-xy,0,0.0,-0.00033572176,0.0006985857,0.0,0.0071992893,0.00604624,0.037168555,0.010961723513901234,-0.007378287613391876,-0.6054793000221252,-0.7957513928413391,74.5281897898924,0.0004706382751464844,233,1.9194558e-05,2.3458153e-05,3.0310328143569476e-05,-6.309137e-05,0.00015551999,0.00016783023257167158,-2.7728493e-05,1.2241186e-05,0.00013305369,0.00010229222,4.053958892822266,107.12551879882812
1779206344.8207912,0.4454624652862549,hold-xy,0,0.0,-0.0004559374,-0.00058849674,0.0,0.007190846,0.006030122,0.037139785,0.011439344845712185,-0.00816908199340105,-0.6053116321563721,-0.795864462852478,74.50474825659298,0.00012803077697753906,234,1.0751188e-05,7.339753e-06,1.3017680878884426e-05,-0.00016527357,-0.00012233434,0.00020562355031311655,-9.945244e-06,8.399532e-06,-0.00016204205,0.00012658365,4.053958892822266,107.12551879882812
1779206344.841159,0.46583032608032227,hold-xy,0,0.0,0.0019293526,-0.0008413172,0.0,0.007207183,0.0060218684,0.03713599,0.01142928097397089,-0.00833089929074049,-0.6054444909095764,-0.7957618832588196,74.52409497847837,0.010365009307861328,235,2.7088448e-05,-9.1362745e-07,2.7103851289371502e-05,0.00036809442,-0.00033003668,0.0004943862051486615,-6.3475927e-06,2.6350082e-05,-0.00021985068,-0.00044281303,4.053958892822266,107.12551879882812
1779206344.8623831,0.48705434799194336,hold-xy,0,0.0,0.0018312065,0.00034426517,0.0,0.0072219744,0.0060390877,0.037135925,0.011431609280407429,-0.008260314352810383,-0.6053609848022461,-0.7958260774612427,74.51197546281455,0.0007040500640869141,237,4.1879714e-05,1.6305596e-05,4.494199356356289e-05,0.00040134043,-6.376744e-05,0.00040637472909798547,-2.689691e-05,3.6004712e-05,4.5720924e-05,-0.00040379455,4.053958892822266,107.12551879882812
1779206344.882767,0.5074381828308105,hold-xy,0,0.0,0.00076043187,-0.0003321776,0.0,0.007210711,0.0060322704,0.03715558,0.01105640921741724,-0.007973448373377323,-0.605445921421051,-0.7957696914672852,74.52403781405822,0.0007085800170898438,238,3.06163e-05,9.488314e-06,3.205286013862877e-05,0.00011513161,-0.00014499316,0.00018514401054098794,-1.7313763e-05,2.6974421e-05,-0.00010901504,-0.00014964634,4.053958892822266,107.13646697998047
1779206344.9031422,0.5278134346008301,hold-xy,0,0.0,-0.001302719,0.00208902,0.0,0.0072007086,0.006054802,0.037128616,0.011464349925518036,-0.007843974977731705,-0.6052834987640381,-0.7958887219429016,74.50028282293842,0.010583877563476562,239,2.0613894e-05,3.20198e-05,3.80814954168672e-05,-0.00020519213,0.00054226443,0.0005797883477728993,-3.6364025e-05,1.1307436e-05,0.00046770897,0.0003426409,4.053958892822266,107.13646697998047
1779206344.9237792,0.5484504699707031,hold-xy,0,0.0,0.00025126763,-0.00011308065,0.0,0.0072117597,0.00602335,0.037158713,0.011229175142943859,-0.008170492015779018,-0.6054609417915344,-0.7957538366317749,74.52636077484499,0.00899052619934082,240,3.1664968e-05,5.6810677e-07,3.167006332402657e-05,5.5002165e-06,-4.485686e-05,4.519281446161961e-05,-8.99557e-06,3.0365649e-05,-4.1763516e-05,-1.7268438e-05,4.053958892822266,107.13646697998047
1779206344.94448,0.5691511631011963,hold-xy,0,0.0,-0.0012400493,0.0012573542,0.0,0.007195374,0.0060489727,0.037143502,0.011374709196388721,-0.008081017062067986,-0.6053887605667114,-0.7958076000213623,74.51577787462534,0.009345531463623047,241,1.5279278e-05,2.6190653e-05,3.0321719310000862e-05,-0.00023775913,0.00034640825,0.00042015244342103673,-2.9319192e-05,7.732503e-06,0.00027035974,0.00032161106,4.053958892822266,107.13646697998047
1779206344.9653106,0.5899817943572998,hold-xy,0,0.0,-0.0017704498,-0.0020548336,0.0,0.0071694804,0.006008366,0.037147116,0.010991214774549007,-0.006641405634582043,-0.6054896116256714,-0.7957496643066406,74.52888788618866,0.009801149368286133,243,-1.0614283e-05,-1.4415942e-05,1.7902021970312257e-05,-0.000547686,-0.00035540236,0.0006528941625997735,1.672497e-05,-6.384187e-06,-0.00048862095,0.00043303618,4.053958892822266,107.13646697998047
1779206344.985585,0.6102561950683594,hold-xy,0,0.0,0.0010886167,0.00046243286,0.0,0.007212119,0.0060274024,0.03712925,0.01150689646601677,-0.008729929104447365,-0.6053622961044312,-0.795819103717804,74.51275055644132,0.009722471237182617,244,3.2024458e-05,4.6202913e-06,3.235603499712406e-05,0.00024510568,3.1808362e-05,0.0002471610073232307,-1.3003824e-05,2.962792e-05,9.610248e-05,-0.00022771228,4.053958892822266,107.10607147216797
1779206345.0060105,0.6306817531585693,hold-xy,0,0.0,-0.010012439,-0.0026085197,0.0,0.0071211085,0.0060278205,0.03713875,0.010811328887939453,-0.006937661673873663,-0.6050441861152649,-0.7960883378982544,74.46513211585008,0.019919872283935547,245,-5.8986247e-05,5.038455e-06,5.920104195376586e-05,-0.0024978425,3.453093e-05,0.0024980811986860785,1.0943588e-05,-5.8180765e-05,-0.00063571456,0.0024158387,4.053958892822266,107.10607147216797
1779206345.0278285,0.6524996757507324,hold-xy,0,0.0,-0.006719496,-0.0015364707,0.0,0.0071322266,0.0060324725,0.037125845,0.011471004225313663,-0.008437705226242542,-0.6049714684486389,-0.7961198091506958,74.45609970885631,0.008020639419555664,247,-4.7868118e-05,9.690411e-06,4.8839130373680504e-05,-0.0016495658,6.556266e-05,0.0016508681580792819,3.4915493e-06,-4.8714162e-05,-0.00037888036,0.0016068028,4.053958892822266,107.10607147216797
1779206345.068558,0.6932291984558105,hold-xy,0,0.0,-0.002551388,-0.0008582511,0.0,0.007194629,0.0060215555,0.037120644,0.011557608842849731,-0.00846196711063385,-0.6054421067237854,-0.795760452747345,74.5238556294115,0.00813436508178711,249,1.453422e-05,-1.2265518e-06,1.458588310301707e-05,-0.0006937743,-3.4741985e-05,0.0006946436490952462,-2.696191e-06,1.4334523e-05,-0.00021860706,0.0006593488,4.053958892822266,107.10607147216797
1779206345.1093695,0.7340407371520996,hold-xy,0,0.0,-0.0025571731,-0.0010263209,0.0,0.0071752258,0.0060171187,0.03713827,0.011316271498799324,-0.007524668704718351,-0.6054177284240723,-0.7957918047904968,74.51931335586502,0.01857137680053711,250,-4.8689544e-06,-5.6633726e-06,7.468634762446193e-06,-0.0006772813,-6.814052e-05,0.0006807004505959117,6.757498e-06,-3.1806803e-06,-0.00024644396,0.00063452224,4.053958892822266,107.11936950683594
1779206345.15304,0.7777111530303955,hold-xy,0,0.0,-0.0019407832,-0.0020255388,0.0,0.0071611293,0.0059819696,0.037136607,0.011595798656344414,-0.009028378874063492,-0.6054786443710327,-0.7957258820533752,74.5298765977061,0.020012617111206055,251,-1.8965453e-05,-4.0812418e-05,4.5003798664070916e-05,-0.00057423976,-0.00029740046,0.0006466825650638792,4.439254e-05,-7.392193e-06,-0.0004397959,0.0004741075,4.053958892822266,107.11936950683594
1779206345.1737232,0.7983944416046143,hold-xy,0,0.0,-0.0005053805,0.00041322166,0.0,0.007191606,0.006018468,0.037121214,0.01144473347812891,-0.007994789630174637,-0.6053200960159302,-0.795859694480896,74.50574658336296,0.009227514266967773,252,1.1511147e-05,-4.313886e-06,1.2292929659674756e-05,-0.00011142294,0.0001397739,0.00017875070248631926,1.0820002e-06,1.2245219e-05,0.00010492841,0.00014471296,4.053958892822266,107.11936950683594
1779206345.2144306,0.8391017913818359,hold-xy,0,0.0,-0.0009243854,-0.0008657572,0.0,0.0071720146,0.005997224,0.037123118,0.011192409321665764,-0.007141268812119961,-0.6054392457008362,-0.7957808375358582,74.52205093283878,0.01905965805053711,253,-8.080155e-06,-2.5558285e-05,2.6805127470726098e-05,-0.0002683556,-0.00010858022,0.00028948987448546286,2.67877e-05,-9.664382e-07,-0.00017625774,0.00022964668,4.053958892822266,107.14060974121094
1779206345.2352698,0.8599410057067871,hold-xy,0,0.0,-0.00014642945,0.0010161935,0.0,0.0071930736,0.006030633,0.037118353,0.01127954013645649,-0.00741394329816103,-0.6053305268287659,-0.7958597540855408,74.50664924316486,0.008462190628051758,254,1.2978911e-05,7.851049e-06,1.5168754491699568e-05,1.3117591e-05,0.00024281886,0.00024317292565686946,-1.10327655e-05,1.0410053e-05,0.00023749923,5.222244e-05,4.053958892822266,107.14060974121094
1779206345.2581208,0.8827919960021973,hold-xy,0,0.0,-0.0031709957,0.0011459603,0.0,0.0071471687,0.0060503073,0.037136976,0.01139458455145359,-0.008174514397978783,-0.6049692034721375,-0.7961253523826599,74.45547374021902,0.01002049446105957,255,-3.292598e-05,2.7525239e-05,4.2915716765694234e-05,-0.0006375875,0.00044716964,0.0007787673096076249,-1.7694694e-05,-3.909804e-05,0.00025994802,0.00073410186,4.053958892822266,107.14060974121094
1779206345.2790673,0.9037384986877441,hold-xy,0,0.0,-0.0023823043,0.00072329916,0.0,0.007144537,0.006048491,0.03709781,0.01149379089474678,-0.008549828082323074,-0.6049093008041382,-0.7961654663085938,74.44728563735362,0.0001685619354248047,256,-3.5557896e-05,2.570916e-05,4.3878523089178996e-05,-0.00047194812,0.00029532876,0.0005567352055166335,-1.5233841e-05,-4.114918e-05,0.00015797403,0.0005338523,4.053958892822266,107.14060974121094
1779206345.3206165,0.9452877044677734,hold-xy,0,0.0,-0.0025132913,0.0006046324,0.0,0.0071286242,0.0060545374,0.037127174,0.011480513960123062,-0.008457391522824764,-0.604905903339386,-0.7961692214012146,74.44668087456793,0.011353015899658203,257,-5.1470473e-05,3.1755306e-05,6.0478172314678334e-05,-0.00048757799,0.0002664653,0.0005556402147813805,-1.6791433e-05,-5.8100406e-05,0.00012597095,0.0005411722,4.053958892822266,107.16432189941406
1779206345.3448405,0.9695117473602295,hold-xy,0,0.0,0.0012364242,0.00048543472,0.0,0.007196391,0.0060364595,0.03713855,0.011607864871621132,-0.009008887223899364,-0.6053487062454224,-0.7958247661590576,74.51112730075045,0.004162311553955078,258,1.6296282e-05,1.3677403e-05,2.1275341955919326e-05,0.0003058446,1.38879695e-05,0.00030615974381160505,-1.7532613e-05,1.2051873e-05,9.505976e-05,-0.00029102823,4.053958892822266,107.16432189941406
1779206345.3855617,1.010232925415039,hold-xy,0,0.0,0.0016609803,0.00020069163,0.0,0.0072158333,0.0060261786,0.03715188,0.011299246922135353,-0.008532564155757427,-0.6055535078048706,-0.7956786155700684,74.54013054796225,0.004904985427856445,259,3.5738572e-05,3.3965334e-06,3.58996096083573e-05,0.0003599868,-6.74264e-05,0.0003662469274685122,-1.2800233e-05,3.354007e-05,3.097256e-05,-0.00036493497,4.053958892822266,107.18793487548828
1779206345.426079,1.0507502555847168,hold-xy,0,0.0,0.0011918669,0.00010526621,0.0,0.0072148293,0.006025115,0.037139952,0.01187179796397686,-0.00971656758338213,-0.6053493022918701,-0.7958120703697205,74.5121202756142,0.015056133270263672,260,3.4734607e-05,2.332963e-06,3.4812866341871083e-05,0.00024207216,-5.770593e-05,0.00024885518101565714,-1.1523586e-05,3.2850305e-05,9.031173e-06,-0.00024869127,4.053958892822266,107.18793487548828
1779206345.4478333,1.0725045204162598,hold-xy,0,0.0,0.0009681558,-3.360224e-05,0.0,0.0072156657,0.0060219513,0.037120257,0.011514917947351933,-0.00855469610542059,-0.605414628982544,-0.7957809567451477,74.52004341012481,0.006249189376831055,261,3.5570934e-05,-8.3073974e-07,3.5580634365063505e-05,0.0001776602,-7.145021e-05,0.0001914896317814016,-8.693323e-06,3.450228e-05,-2.1440545e-05,-0.00019028553,4.053958892822266,107.18793487548828
1779206345.488428,1.1130993366241455,hold-xy,0,0.0,0.00068399985,0.00024101896,0.0,0.0072159637,0.0060279574,0.03713604,0.0115512041375041,-0.008498620241880417,-0.6054148077964783,-0.7957808375358582,74.51997414986471,0.013892173767089844,262,3.5868958e-05,5.1753595e-06,3.6240399096107574e-05,0.0001270754,4.6655696e-06,0.00012716101629976572,-1.4561127e-05,3.3186443e-05,3.841305e-05,-0.000121220306,4.053958892822266,107.21765899658203
1779206345.5087693,1.1334404945373535,hold-xy,0,0.0,9.66333e-05,0.00047933275,0.0,0.0072105806,0.0060339877,0.037131187,0.01128565613180399,-0.007494369987398386,-0.6054145097732544,-0.7957950234413147,74.5188313175355,0.013897895812988281,263,3.0485913e-05,1.1205673e-05,3.248011714631673e-05,9.5390205e-06,9.222854e-05,9.272052829948053e-05,-1.8936462e-05,2.6388794e-05,9.14285e-05,1.5424866e-05,4.053958892822266,107.21765899658203
1779206345.529233,1.1539041996002197,hold-xy,0,0.0,0.00055831333,0.00080134074,0.0,0.007222764,0.006040669,0.037127826,0.011419372633099556,-0.007761093322187662,-0.6052812933921814,-0.7958918809890747,74.49988965533527,0.003216981887817383,264,4.2669475e-05,1.7886981e-05,4.6266922517140925e-05,0.00012403527,0.00012891757,0.00017889798692290586,-2.8639432e-05,3.6337464e-05,0.00015737604,-8.507214e-05,4.053958892822266,107.21765899658203
1779206345.5505908,1.1752619743347168,hold-xy,0,0.0,0.0007142353,6.568493e-05,0.0,0.007224448,0.0060308846,0.037120115,0.011883535422384739,-0.0098335025832057,-0.6053391695022583,-0.7958181500434875,74.51083728142346,0.002711057662963867,265,4.4353306e-05,8.102506e-06,4.5087318834937676e-05,0.00010992917,-4.4014152e-05,0.00011841312166620454,-1.9653053e-05,4.0578616e-05,-1.3058347e-05,-0.0001176909,4.053958892822266,107.21765899658203
1779206345.5721226,1.196793794631958,hold-xy,0,0.0,-3.2072945e-05,-0.00039067847,0.0,0.0072135422,0.006026374,0.037139885,0.011483135633170605,-0.00865616649389267,-0.6053421497344971,-0.7958354949951172,74.50975953091405,0.003913164138793945,267,3.344752e-05,3.5921112e-06,3.363985407045768e-05,-8.39833e-05,-9.736857e-05,0.0001285839495474552,-1.2394602e-05,3.127321e-05,-0.00011626152,5.4928052e-05,4.053958892822266,107.21765899658203
1779206345.5925784,1.2172496318817139,hold-xy,0,0.0,-0.002620197,-0.0012152526,0.0,0.0071696267,0.0060229357,0.037148062,0.011079657822847366,-0.0071959239430725574,-0.605376660823822,-0.7958295345306396,74.51315062482311,0.0037157535552978516,268,-1.0468066e-05,1.5366822e-07,1.0469193539391596e-05,-0.0006966868,-0.000118103315,0.0007066264150259961,2.6470648e-06,-1.0129021e-05,-0.00029984253,0.0006398557,4.053958892822266,107.15991973876953
1779206345.6130702,1.237741470336914,hold-xy,0,0.0,0.0038959312,0.0025202285,0.0,0.0072026365,0.0060317405,0.03713482,0.011392398737370968,-0.008021955378353596,-0.605353593826294,-0.7958347201347351,74.51063134876568,0.017862558364868164,269,2.2541732e-05,8.958392e-06,2.4256596089928614e-05,0.0010730579,0.00033362448,0.0011237253167355847,-1.4653009e-05,1.9330593e-05,0.0006080776,-0.0009449869,4.053958892822266,107.15991973876953
1779206345.633425,1.2580962181091309,hold-xy,0,0.0,0.0031899628,0.002140423,0.0,0.00721498,0.0060371924,0.037136704,0.011191319674253464,-0.007894225418567657,-0.605408787727356,-0.7957968711853027,74.51852529430421,0.0039038658142089844,271,3.488548e-05,1.4410354e-05,3.774460453642716e-05,0.0008590611,0.00028120328,0.000903914387793134,-2.3199369e-05,2.9773213e-05,0.0005003067,-0.0007528309,4.053958892822266,107.15991973876953
1779206345.656996,1.2816672325134277,hold-xy,0,0.0,0.0025577925,0.0005519616,0.0,0.0072149485,0.0060235485,0.037123203,0.011292614042758942,-0.008309298194944859,-0.6053640842437744,-0.795825183391571,74.51255682455371,0.01011347770690918,272,3.4853816e-05,7.664785e-07,3.4862243502759385e-05,0.0006007956,-3.8919927e-05,0.0006020549245138857,-1.0045563e-05,3.338357e-05,0.00012292205,-0.00058937276,4.053958892822266,107.15991973876953
1779206345.6778405,1.3025116920471191,hold-xy,0,0.0,0.0010565872,0.0007390768,0.0,0.007199945,0.0060354043,0.037096422,0.011385354213416576,-0.008041271939873695,-0.6051456332206726,-0.7959927916526794,74.48071343875223,0.00020837783813476562,273,1.985021e-05,1.2622215e-05,2.352341690071263e-05,0.00027417816,8.8423425e-05,0.00028808396707514816,-1.747319e-05,1.5749245e-05,0.00015855941,-0.00024052295,4.053958892822266,107.15991973876953
1779206345.6982002,1.322871446609497,hold-xy,0,0.0,0.0006721572,-0.00059371005,0.0,0.0071938243,0.0060188454,0.03712007,0.011220877058804035,-0.007649278733879328,-0.605545163154602,-0.7956950664520264,74.53785964643498,0.00019598007202148438,274,1.3729557e-05,-3.9367005e-06,1.428279895515524e-05,0.00010179208,-0.00018194994,0.00020848839110981692,1.338974e-07,1.4282172e-05,-0.00014822667,-0.00014661605,4.053958892822266,107.13996887207031
1779206345.7185183,1.3431894779205322,hold-xy,0,0.0,0.0022064273,0.0008959347,0.0,0.0072099008,0.006025343,0.03710294,0.011438729241490364,-0.008315212093293667,-0.6054147481918335,-0.7957845330238342,74.51978593072735,0.010369300842285156,275,2.9806048e-05,2.561137e-06,2.9915880130444776e-05,0.0005466694,6.478951e-05,0.0005504953596365182,-1.0423626e-05,2.8041184e-05,0.00020834824,-0.00050954503,4.053958892822266,107.13996887207031
1779206345.7391183,1.3637895584106445,hold-xy,0,0.0,-0.0006595191,-0.0019094686,0.0,0.0071467217,0.005984136,0.03716091,0.011277296580374241,-0.008844179101288319,-0.6055892705917358,-0.7956483364105225,74.54572202542786,0.0003361701965332031,277,-3.3373013e-05,-3.864616e-05,5.106156795727796e-05,-0.00023606245,-0.00035820252,0.0004289924630926883,4.614173e-05,-2.1868342e-05,-0.00040815453,0.00013207726,4.053958892822266,107.13996887207031
1779206345.7600336,1.384704828262329,hold-xy,0,0.0,0.0025272411,0.0027108316,0.0,0.0072085466,0.006032911,0.037106328,0.011512414552271366,-0.007874047383666039,-0.6053274273872375,-0.795854389667511,74.50662172692834,0.0009243488311767578,278,2.8451905e-05,1.0129064e-05,3.020113959615946e-05,0.0007472074,0.00046911373,0.0008822621775199652,-1.7361259e-05,2.4712253e-05,0.000651666,-0.0005947419,4.053958892822266,107.13996887207031
1779206345.780503,1.4051742553710938,hold-xy,0,0.0,0.0022151424,0.002164289,0.0,0.0072121657,0.006033874,0.0371018,0.011572383344173431,-0.008485272526741028,-0.6053332090377808,-0.7958427667617798,74.5081939714826,0.011250019073486328,279,3.2071024e-05,1.1092052e-05,3.393499906236866e-05,0.00063008,0.0003568598,0.0007241199692439999,-1.925525e-05,2.7943148e-05,0.00051218935,-0.0005118709,4.053958892822266,107.13996887207031
1779206345.8018348,1.4265060424804688,hold-xy,0,0.0,-7.481701e-05,-0.0024722486,0.0,0.007170966,0.005981317,0.03713189,0.011572401039302349,-0.008915530517697334,-0.6055605411529541,-0.7956651449203491,74.54152509964685,0.012323856353759766,280,-9.128824e-06,-4.1465275e-05,4.2458266923840045e-05,-0.00016907262,-0.00052851974,0.0005549041974438378,4.2398417e-05,2.2535723e-06,-0.0005544645,2.2084612e-05,4.053958892822266,107.1580581665039
1779206345.822176,1.4468472003936768,hold-xy,0,0.0,0.00089799776,0.00038718706,0.0,0.0072038714,0.006022243,0.03712813,0.011195262894034386,-0.007880911231040955,-0.6053138375282288,-0.7958691716194153,74.50483317306845,0.002279996871948242,281,2.3776665e-05,-5.3923577e-07,2.3782779608530283e-05,0.00020653449,3.4110737e-05,0.0002093323610349413,-5.832468e-06,2.3056515e-05,8.8048066e-05,-0.00018991466,4.053958892822266,107.1580581665039
1779206345.8426178,1.4672889709472656,hold-xy,0,0.0,0.002351576,0.0012857614,0.0,0.0072334446,0.0060303584,0.037092604,0.01167584490031004,-0.008971098810434341,-0.6052731871604919,-0.7958816289901733,74.50016061862118,0.0019838809967041016,282,5.3349882e-05,7.576309e-06,5.388515995316848e-05,0.00057238847,0.00014127923,0.0005895662668140994,-2.155776e-05,4.938495e-05,0.00028910371,-0.00051381654,4.053958892822266,107.1580581665039
1779206345.863859,1.488530158996582,hold-xy,0,0.0,-0.0025217845,0.0012735832,0.0,0.0072011016,0.006042131,0.037092745,0.011330797336995602,-0.00706418277695775,-0.6052283048629761,-0.7959399819374084,74.49152612733012,0.01306009292602539,283,2.1006912e-05,1.9349158e-05,2.856011634376581e-05,-0.0005538696,0.0004463488,0.000711335885200108,-2.4261519e-05,1.5068474e-05,0.00028200352,0.00065304886,4.053958892822266,107.1580581665039
1779206345.8869524,1.5116236209869385,hold-xy,0,0.0,-0.0011805211,0.0016820949,0.0,0.0072172973,0.0060546705,0.037097782,0.011503325775265694,-0.008267642930150032,-0.6052170395851135,-0.7959344387054443,74.49121867830712,0.0057795047760009766,285,3.720261e-05,3.1888485e-05,4.899907849417847e-05,-0.00022774618,0.00043629322,0.0004921586090120915,-4.067487e-05,2.7321512e-05,0.0003595114,0.00033611254,4.053958892822266,107.14525604248047
1779206345.908182,1.532853126525879,hold-xy,0,0.0,-0.0004128818,-0.0004190044,0.0,0.0072160624,0.0060325246,0.03713924,0.011276991106569767,-0.00812579970806837,-0.6055406928062439,-0.7956929206848145,74.53776625142446,0.010123491287231445,286,3.5967678e-05,9.742565e-06,3.726380903820047e-05,-0.00018136302,-8.8054745e-05,0.00020160899058417457,-1.8979043e-05,3.2068478e-05,-0.00013321967,0.00015132317,4.053958892822266,107.14525604248047
1779206345.9289334,1.5536046028137207,hold-xy,0,0.0,-0.00061646895,-0.0009819192,0.0,0.0072035864,0.0060193855,0.037125185,0.011063058860599995,-0.00745473662391305,-0.6055390238761902,-0.7957038283348083,74.53682910291224,0.0002644062042236328,288,2.349168e-05,-3.3965334e-06,2.3735953676268628e-05,-0.0002492256,-0.00019040858,0.00031363804364423014,-2.9897403e-06,2.354691e-05,-0.00024996442,0.0001894376,4.053958892822266,107.14525604248047
1779206345.9493935,1.5740647315979004,hold-xy,0,0.0,0.00043475325,-0.00037556913,0.0,0.0072171707,0.006020557,0.03709282,0.011501137167215347,-0.008261015638709068,-0.6053855419158936,-0.7958064079284668,74.51547721629237,0.00019621849060058594,289,3.707595e-05,-2.2249296e-06,3.714265005456012e-05,2.4062101e-05,-0.00011616423,0.00011863014984885263,-7.754295e-06,3.63242e-05,-0.00010552372,-5.420201e-05,4.053958892822266,107.14525604248047
1779206345.970884,1.595555305480957,hold-xy,0,0.0,-0.004379883,-0.0044338135,0.0,0.0071712825,0.0059982575,0.03712714,0.01088382676243782,-0.006443018093705177,-0.6055310368537903,-0.7957212328910828,74.5347123790892,0.01152348518371582,290,-8.812174e-06,-2.4524517e-05,2.6059668584397405e-05,-0.00133768,-0.00073955307,0.0015285046902749778,2.5986345e-05,-1.953531e-06,-0.0010694739,0.0010920404,4.053958892822266,107.14525604248047
1779206345.9920406,1.6167118549346924,hold-xy,0,0.0,-0.002604349,-0.0012242233,0.0,0.0071882885,0.006028888,0.037161317,0.011115611530840397,-0.007616788614541292,-0.6055197715759277,-0.7957161664962769,74.53421614450882,0.008946418762207031,291,8.193776e-06,6.105751e-06,1.021852018045278e-05,-0.0007214157,-0.00013051135,0.0007331260432203549,-8.069636e-06,6.268902e-06,-0.00031816028,0.0006604906,4.053958892822266,107.17430114746094
1779206346.0126014,1.637272596359253,hold-xy,0,0.0,-0.0010501269,-0.00064880593,0.0,0.007200746,0.006028626,0.03713067,0.011357570067048073,-0.007890191860496998,-0.6055251359939575,-0.7957059741020203,74.53519285460966,0.008480548858642578,293,2.0651147e-05,5.844049e-06,2.146212389664832e-05,-0.00032725377,-9.509181e-05,0.0003407895030754291,-1.1139016e-05,1.8345165e-05,-0.00017891,0.00029004947,4.053958892822266,107.17430114746094
1779206346.0330055,1.6576766967773438,hold-xy,0,0.0,0.00070856285,0.0012545321,0.0,0.0072231293,0.0060440917,0.037053112,0.010775130242109299,-0.004795653745532036,-0.6053376793861389,-0.795881450176239,74.50562942021148,0.012858867645263672,294,4.3034554e-05,2.1309592e-05,4.802157385941571e-05,0.0001899361,0.00022294815,0.00029288494905700875,-3.203154e-05,3.577781e-05,0.00026558572,-0.00012347399,4.053958892822266,107.17430114746094
1779206346.053309,1.6779801845550537,hold-xy,0,0.0,-0.00090210367,6.9364774e-05,0.0,0.007187059,0.006034323,0.037142113,0.011104054749011993,-0.007496866397559643,-0.6053712368011475,-0.795830488204956,74.5126915199535,0.002775430679321289,296,6.96443e-06,1.1540949e-05,1.3479495409598128e-05,-0.0002231531,5.962114e-05,0.00023098048822412065,-1.298157e-05,3.6298284e-06,-2.1311607e-06,0.00023097066,4.053958892822266,107.17430114746094
1779206346.0942256,1.7188968658447266,hold-xy,0,0.0,-0.00082027557,-0.00061745103,0.0,0.007178886,0.006020874,0.03713051,0.011188363656401634,-0.0075292326509952545,-0.6054927110671997,-0.79573655128479,74.53018130124323,0.013342857360839844,297,-1.2088567e-06,-1.90828e-06,2.258952614319757e-06,-0.00023699948,-9.120978e-05,0.00025394483185249973,2.1615842e-06,-6.5606423e-07,-0.00015112039,0.00020408479,4.053958892822266,107.17875671386719
1779206346.1145742,1.7392454147338867,hold-xy,0,0.0,0.0006056554,0.0004878299,0.0,0.0072044116,0.0060314797,0.037113886,0.011743200942873955,-0.00915465410798788,-0.6054273843765259,-0.795761227607727,74.52259337629629,0.008820056915283203,298,2.4316832e-05,8.6976215e-06,2.582550936817222e-05,0.00014199308,6.40823e-05,0.00015578374339252586,-1.4871359e-05,2.1113967e-05,9.965044e-05,-0.00011974291,4.053958892822266,107.17875671386719
1779206346.1349478,1.7596189975738525,hold-xy,0,0.0,0.0021620179,0.0013375136,0.0,0.007233508,0.006038852,0.03706522,0.011051967740058899,-0.006194805260747671,-0.605483889579773,-0.7957567572593689,74.52761980759215,0.008922338485717773,300,5.3413212e-05,1.6069971e-05,5.57782689351391e-05,0.00052999967,0.00015396284,0.0005519096065952688,-2.9736828e-05,4.7190424e-05,0.00028977313,-0.00046971883,4.053958892822266,107.17875671386719
1779206346.1552126,1.779883861541748,hold-xy,0,0.0,-0.0046448344,0.0012881625,0.0,0.0071618725,0.0060625,0.03711459,0.011323687620460987,-0.007844141684472561,-0.6049153804779053,-0.7961705923080444,74.44735468986242,0.013569116592407227,301,-1.8222257e-05,3.9718114e-05,4.369873180611962e-05,-0.0010050102,0.0005620193,0.0011514821627274549,-3.3377997e-05,-2.820441e-05,0.00027197364,0.001118902,4.053958892822266,107.17875671386719
1779206346.1778555,1.8025267124176025,hold-xy,0,0.0,0.0017758649,-0.0026330224,0.0,0.0072081685,0.0060057333,0.037110705,0.011240983381867409,-0.007615034468472004,-0.605597972869873,-0.7956548929214478,74.54541597762349,0.021014690399169922,302,2.8073788e-05,-1.7048791e-05,3.2845073116785055e-05,0.00021039433,-0.0007271868,0.0007570115029868874,8.951394e-06,3.160176e-05,-0.0006448285,-0.00039656358,4.053958892822266,107.17875671386719
1779206346.198348,1.82301926612854,hold-xy,0,0.0,0.0018369103,-0.00033369148,0.0,0.007231381,0.00603907,0.037090164,0.01152497436851263,-0.008203070610761642,-0.6054027080535889,-0.7957935929298401,74.51786300702251,0.005994558334350586,303,5.128607e-05,1.62879e-05,5.3810379160139e-05,0.0003433661,-0.00022741288,0.00041184571932723616,-2.938707e-05,4.507723e-05,-0.00012750347,-0.0003916117,4.053958892822266,107.1796646118164
1779206346.21872,1.8433911800384521,hold-xy,0,0.0,-0.0025251978,-0.00046498422,0.0,0.0071725436,0.00605087,0.037121776,0.011052744463086128,-0.007964510470628738,-0.6050230860710144,-0.7960913777351379,74.46314317189567,0.006040334701538086,304,-7.5511634e-06,2.8087758e-05,2.9085085614010327e-05,-0.00062804145,1.4968886e-05,0.00062821981336683,-2.5038744e-05,-1.4798768e-05,-0.00015380417,0.0006091013,4.053958892822266,107.1796646118164
1779206346.2396076,1.864278793334961,hold-xy,0,0.0,0.004600362,0.0013315892,0.0,0.00722605,0.0060495967,0.037126344,0.011412101797759533,-0.008243747055530548,-0.6052618622779846,-0.795901894569397,74.49768950731729,0.01669025421142578,305,4.595518e-05,2.681464e-05,5.320623564590982e-05,0.0011282929,-2.6828562e-05,0.0011286118067042892,-3.812189e-05,3.7116373e-05,0.00027571447,-0.0010944159,4.053958892822266,107.1796646118164
1779206346.2600102,1.8846814632415771,hold-xy,0,0.0,0.0026747535,0.0010852145,0.0,0.007213449,0.0060550366,0.037108134,0.011464642360806465,-0.007913760840892792,-0.6052514910697937,-0.7959123849868774,74.49575803812448,0.006349086761474609,307,3.3354387e-05,3.2254495e-05,4.639900496691496e-05,0.0006668458,3.4302408e-05,0.0006677274863553354,-3.9996725e-05,2.35187e-05,0.00021130854,-0.00063341035,4.053958892822266,107.1796646118164
1779206346.280757,1.905428171157837,hold-xy,0,0.0,0.00044732436,-0.0022844828,0.0,0.0071951747,0.0060337977,0.037130516,0.01141550112515688,-0.008035988546907902,-0.6053743958473206,-0.7958183884620667,74.5136320219193,0.01683187484741211,308,1.5079975e-05,1.1015683e-05,1.8674873949618082e-05,-6.734344e-05,-0.00059676904,0.0006005567609537073,-1.4642239e-05,1.1591194e-05,-0.0005930841,-9.44443e-05,4.053958892822266,107.18172454833984
1779206346.3014271,1.926098346710205,hold-xy,0,0.0,0.0015094957,-0.0024018823,0.0,0.0072152372,0.0060093068,0.03713128,0.011841592378914356,-0.010060060769319534,-0.6053784489631653,-0.7957860827445984,74.51688246158746,0.007074594497680664,310,3.5142526e-05,-1.3475306e-05,3.7637494120124265e-05,0.00015066664,-0.00065920764,0.000676206454302061,3.604824e-06,3.7464466e-05,-0.0005950633,-0.0003211772,4.053958892822266,107.18172454833984
1779206346.3221166,1.9467878341674805,hold-xy,0,0.0,-0.0008703764,-0.0007425541,0.0,0.007189464,0.0060315933,0.037125267,0.011312100104987621,-0.007691477425396442,-0.6051018238067627,-0.7960306406021118,74.474021793289,0.007355690002441406,311,9.369105e-06,8.811243e-06,1.2861497721619945e-05,-0.00027339841,-0.00013383673,0.00030439935109204493,-1.0997592e-05,6.668667e-06,-0.0002021349,0.0002275971,4.053958892822266,107.18172454833984
1779206346.3426464,1.9673175811767578,hold-xy,0,0.0,0.004473704,-0.00076517026,0.0,0.0072282776,0.0060186153,0.037129294,0.011551730334758759,-0.008877189829945564,-0.6053370237350464,-0.7958360314369202,74.50929075036424,0.01772308349609375,312,4.8182905e-05,-4.166737e-06,4.836273275399211e-05,0.00095443253,-0.0004768051,0.0010669042010197816,-8.853417e-06,4.754546e-05,-0.00020457269,-0.0010471077,4.053958892822266,107.18172454833984
1779206346.3841078,2.0087790489196777,hold-xy,0,0.0,0.0028552175,-0.0004832728,0.0,0.0072168075,0.006023098,0.03713272,0.011261280626058578,-0.008132564835250378,-0.6054392457008362,-0.7957702875137329,74.52317167049746,0.008199453353881836,313,3.6712736e-05,3.1571835e-07,3.671409348979308e-05,0.00060061144,-0.00030738846,0.0006747012420770222,-1.0101014e-05,3.5297227e-05,-0.00013596972,-0.0006608585,4.053958892822266,107.16986846923828
1779206346.4046679,2.029339075088501,hold-xy,0,0.0,0.0010434743,-0.0028327175,0.0,0.007191045,0.005989562,0.037143525,0.011315898038446903,-0.008532711304724216,-0.6055630445480347,-0.7956711053848267,74.54149546673865,0.008104562759399414,314,1.0950491e-05,-3.3220276e-05,3.497856440744933e-05,4.624718e-05,-0.0007022617,0.000703782811776011,2.9099743e-05,1.940889e-05,-0.00066452974,-0.00023175524,4.053958892822266,107.16986846923828
1779206346.4454465,2.070117712020874,hold-xy,0,0.0,0.0016633219,3.650364e-05,0.0,0.0072226077,0.0060286764,0.03710425,0.011409086175262928,-0.007749682292342186,-0.6053558588027954,-0.7958354949951172,74.51062044733257,0.018042564392089844,315,4.2513013e-05,5.8943406e-06,4.291968631012517e-05,0.00033939513,-0.000111098634,0.0003571161742064725,-1.7033772e-05,3.9394796e-05,-1.6424747e-05,-0.00035673828,4.053958892822266,107.16986846923828
1779206346.4660978,2.090769052505493,hold-xy,0,0.0,0.0016277591,-0.0007373079,0.0,0.007226309,0.0060093515,0.03709986,0.011604400351643562,-0.00880483165383339,-0.6053983569145203,-0.795789361000061,74.51799368763004,0.007913589477539062,316,4.621409e-05,-1.3430603e-05,4.812611631028484e-05,0.0002736491,-0.00026611937,0.00038171106765671895,6.0707316e-07,4.812229e-05,-0.00018341636,-0.00033475633,4.053958892822266,107.16986846923828
1779206346.5083637,2.1330349445343018,hold-xy,0,0.0,0.001418152,-0.00010288503,0.0,0.007234685,0.0060192076,0.03708777,0.011179525405168533,-0.0075416103936731815,-0.6053897142410278,-0.7958150506019592,74.51536859372614,0.009227514266967773,317,5.4590404e-05,-3.574416e-06,5.4707299363198086e-05,0.00025291636,-0.00011408053,0.000277454595643201,-1.1129869e-05,5.356318e-05,-4.241606e-05,-0.00027419324,4.053958892822266,107.2264404296875
1779206346.5287209,2.1533920764923096,hold-xy,0,0.0,-0.00028923724,0.0010837539,0.0,0.0072184093,0.006042435,0.037110034,0.011359146796166897,-0.007572357542812824,-0.6052848100662231,-0.7958918809890747,74.50020596874897,0.008519172668457031,318,3.831461e-05,1.9652769e-05,4.306089596065721e-05,-5.4747215e-05,0.00025092924,0.0002568321192810079,-2.9177027e-05,3.1669257e-05,0.00022717293,0.000119813194,4.053958892822266,107.2264404296875
1779206346.5693486,2.1940197944641113,hold-xy,0,0.0,-0.0015605651,-0.0009137082,0.0,0.0071782675,0.006014156,0.037145495,0.011130194179713726,-0.007029747124761343,-0.6055566072463989,-0.7956933379173279,74.53886437573014,0.018725156784057617,319,-1.8272549e-06,-8.62591e-06,8.817322235905389e-06,-0.00043417688,-0.000103216065,0.0004462769441638079,8.800869e-06,5.3840597e-07,-0.00021522574,0.00039094887,4.053958892822266,107.2264404296875
1779206346.6130996,2.2377707958221436,hold-xy,0,0.0,-0.0021625236,-0.0015440157,0.0,0.0071349367,0.005994741,0.037125386,0.01135103777050972,-0.00831530336290598,-0.6052477955818176,-0.7959128022193909,74.49578923378999,0.010989904403686523,320,-4.515797e-05,-2.8041191e-05,5.315590710610207e-05,-0.0005564032,-0.00018538017,0.0005864727776230486,3.9091938e-05,-3.601904e-05,-0.00032736603,0.0004866023,4.053958892822266,107.24776458740234
1779206346.6335723,2.2582435607910156,hold-xy,0,0.0,0.0011814712,0.0021973264,0.0,0.0071901865,0.006033431,0.037107762,0.011402463540434837,-0.007838776335120201,-0.6053072810173035,-0.7958716154098511,74.50373340349292,0.01089167594909668,321,1.0091811e-05,1.0648742e-05,1.4671072462373816e-05,0.00041626082,0.00043447403,0.0006016982344722772,-1.2957924e-05,6.879868e-06,0.0005298947,-0.00028504798,4.053958892822266,107.24776458740234
1779206346.6540365,2.27870774269104,hold-xy,0,0.0,0.00034266023,0.0012666783,0.0,0.0071814936,0.0060310634,0.037106644,0.011497050523757935,-0.0082046864554286,-0.6051101684570312,-0.7960165143013,74.47575510044011,0.01068878173828125,322,1.3988465e-06,8.28132e-06,8.398632897479504e-06,0.00016519686,0.0002697667,0.0003163290546362968,-8.3535915e-06,-8.686503e-07,0.0003041392,-8.696804e-05,4.053958892822266,107.24776458740234
1779206346.6746569,2.299328088760376,hold-xy,0,0.0,0.00077171094,0.0010276908,0.0,0.0071936604,0.0060306024,0.037116274,0.011244512163102627,-0.007404673844575882,-0.6053698062896729,-0.795830488204956,74.51231308859228,0.0005180835723876953,323,1.3565645e-05,7.820316e-06,1.565835367264779e-05,0.00023418006,0.00018434507,0.0002980325578181577,-1.1158794e-05,1.0984778e-05,0.00024018451,-0.00017645057,4.053958892822266,107.24776458740234
1779206346.7170277,2.3416988849639893,hold-xy,0,0.0,0.0013049514,0.0007930437,0.0,0.0072145946,0.0060263956,0.037111785,0.011706855148077011,-0.009355176240205765,-0.6053997874259949,-0.7957804799079895,74.51893475289712,0.001474618911743164,324,3.4499913e-05,3.6135316e-06,3.4688639069860837e-05,0.0003155714,9.85681e-05,0.0003306069936698669,-1.2691142e-05,3.228369e-05,0.00017922421,-0.0002778123,4.053958892822266,107.2554931640625
1779206346.7375207,2.362191915512085,hold-xy,0,0.0,0.00028390897,-6.577492e-05,0.0,0.007201791,0.0060196947,0.03712947,0.011116805486381054,-0.007850314490497112,-0.6055892705917358,-0.7956609725952148,74.54450342654447,0.0016887187957763672,325,2.169609e-05,-3.0873343e-06,2.1914652742647254e-05,3.148432e-05,-3.0132796e-05,4.3580361059601365e-05,-2.8060977e-06,2.1734255e-05,-2.0652877e-05,-3.837586e-05,4.053958892822266,107.2554931640625
1779206346.7785056,2.403176784515381,hold-xy,0,0.0,-0.0006161564,0.00061612204,0.0,0.007183604,0.0060439063,0.037101917,0.011225410737097263,-0.007771742530167103,-0.6051070094108582,-0.7960271835327148,74.47490728997322,0.002106189727783203,327,3.5092235e-06,2.1124259e-05,2.1413756065011342e-05,-0.0001124547,0.00015795423,0.00019389584251880244,-2.1292784e-05,-2.2729437e-06,0.00012209134,0.00015062968,4.053958892822266,107.2554931640625
1779206346.7993965,2.424067735671997,hold-xy,0,0.0,0.0019652622,0.00070639374,0.0,0.007220203,0.0060375417,0.037111647,0.011418089270591736,-0.008171823807060719,-0.6053271889686584,-0.7958528995513916,74.50700286060568,0.002633810043334961,328,4.0108338e-05,1.47596e-05,4.273785777520894e-05,0.00046047324,1.6801496e-05,0.00046077965009234977,-2.4937046e-05,3.470833e-05,0.00013919287,-0.00043925305,4.053958892822266,107.24295806884766
1779206346.8198617,2.444532871246338,hold-xy,0,0.0,-0.002511928,-0.0018142143,0.0,0.0071844794,0.006027773,0.0371278,0.01133163645863533,-0.008089998736977577,-0.6053166389465332,-0.7958630323410034,74.50542569324178,0.012942790985107422,329,4.3846667e-06,4.9909577e-06,6.643414752662383e-06,-0.000732901,-0.00027679233,0.0007834270168514827,-5.9809163e-06,2.8919894e-06,-0.00046252494,0.00063232,4.053958892822266,107.24295806884766
1779206346.8408756,2.4655468463897705,hold-xy,0,0.0,-0.0017339358,-0.00062555535,0.0,0.007188674,0.0060413266,0.037100494,0.01135276909917593,-0.008030752651393414,-0.6050946116447449,-0.7960321307182312,74.47337065459602,0.0029876232147216797,331,8.579344e-06,1.8544495e-05,2.0432900448157867e-05,-0.00047239658,-6.246068e-05,0.00047650799715158085,-2.0164307e-05,3.3021443e-06,-0.0001866353,0.00043843716,4.053958892822266,107.24295806884766
1779206346.8615816,2.486252784729004,hold-xy,0,0.0,0.0010408852,-0.00025928894,0.0,0.0072230324,0.006034092,0.037104174,0.011392961256206036,-0.008141235448420048,-0.6053245663642883,-0.7958555221557617,74.50659865677461,0.0030670166015625,332,4.2937696e-05,1.1309981e-05,4.440226749407916e-05,0.00016904285,-0.00014894389,0.00022529928133059978,-2.2368826e-05,3.8356186e-05,-9.837547e-05,-0.00020268704,4.053958892822266,107.24295806884766
1779206346.9025052,2.5271763801574707,hold-xy,0,0.0,0.0006231026,0.00021907379,0.0,0.007221425,0.0060428893,0.037115335,0.011374501511454582,-0.007964440621435642,-0.605329692363739,-0.7958537340164185,74.50712760353544,0.013038873672485352,333,4.1330233e-05,2.0107254e-05,4.596182914868165e-05,0.00010274964,-1.8993065e-05,0.00010449030838640228,-3.04167e-05,3.445743e-05,9.143399e-06,-0.0001040895,4.053958892822266,107.21529388427734
1779206346.922933,2.5476043224334717,hold-xy,0,0.0,-0.00048471725,-0.001271666,0.0,0.0072000865,0.0060243877,0.037117377,0.011059870012104511,-0.007376669906079769,-0.605458676815033,-0.7957656979560852,74.52516966807019,0.012376070022583008,334,1.999177e-05,1.6056001e-06,2.005614233454873e-05,-0.00023159887,-0.00027646727,0.0003606552101133704,-6.8814984e-06,1.8838626e-05,-0.00032823876,0.00014943726,4.053958892822266,107.21529388427734
1779206346.9433258,2.5679969787597656,hold-xy,0,0.0,0.0012390737,0.00025374873,0.0,0.007227581,0.006034801,0.037109017,0.011390617117285728,-0.008192774839699268,-0.6053428053855896,-0.7958412170410156,74.50929285368,0.012470006942749023,335,4.7486275e-05,1.2018718e-05,4.8983630073800055e-05,0.00024422922,-3.9628925e-05,0.00024742343943647574,-2.4264857e-05,4.255129e-05,2.7039896e-05,-0.00024594148,4.053958892822266,107.21529388427734
1779206346.9637685,2.588439702987671,hold-xy,0,0.0,0.0002905542,0.00055070943,0.0,0.007215569,0.0060457103,0.0371086,0.011500217020511627,-0.008815589360892773,-0.6053372621536255,-0.7958372235298157,74.50926583054995,0.0022172927856445312,337,3.5474077e-05,2.292823e-05,4.2238773273774254e-05,5.355996e-05,7.888321e-05,9.534794638177195e-05,-3.1569838e-05,2.8061702e-05,9.03226e-05,-3.0545994e-05,4.053958892822266,107.21529388427734
1779206346.9840686,2.6087398529052734,hold-xy,0,0.0,-0.0016404786,0.0015971455,0.0,0.00720324,0.0060588866,0.03709399,0.011477946303784847,-0.008148184046149254,-0.6050277948379517,-0.7960799336433411,74.46383310300138,0.012254714965820312,338,2.3145229e-05,3.6104582e-05,4.2886389741128546e-05,-0.00032290487,0.00044038933,0.000546086344425883,-4.098475e-05,1.262905e-05,0.00033780924,0.00042906322,4.053958892822266,107.20773315429688
1779206347.0048673,2.6295385360717773,hold-xy,0,0.0,0.0001281372,-0.00060995365,0.0,0.0072194766,0.0060125627,0.037110243,0.011203705333173275,-0.007875793613493443,-0.6055490374565125,-0.7956901788711548,74.53869678851883,0.002064228057861328,339,3.9381906e-05,-1.0219403e-05,4.068624878756011e-05,-6.884936e-05,-0.00014018081,0.00015617584524294865,-6.4915366e-07,4.068107e-05,-0.00015346214,2.8987302e-05,4.053958892822266,107.20773315429688
1779206347.0255244,2.650195598602295,hold-xy,0,0.0,-0.0007715431,0.0042865444,0.0,0.0072223656,0.006051128,0.037092723,0.011516801081597805,-0.008148614317178726,-0.6052480936050415,-0.7959119081497192,74.49553321258514,0.012570858001708984,340,4.227087e-05,2.8345734e-05,5.0895059484605846e-05,3.7189875e-05,0.0010416812,0.0010423448142522,-3.8613798e-05,3.315542e-05,0.0010137154,0.00024261892,4.053958892822266,107.20773315429688
1779206347.046135,2.6708061695098877,hold-xy,0,0.0,9.889246e-05,0.0023330562,0.0,0.0072279796,0.0060376544,0.03709825,0.0115510243922472,-0.00770526472479105,-0.6054065823554993,-0.795795202255249,74.5177999483303,0.012557268142700195,341,4.788488e-05,1.487229e-05,5.0141269336498715e-05,0.0001076946,0.0005331914,0.0005439588460420974,-2.7114966e-05,4.2177307e-05,0.0005425916,3.854285e-05,4.053958892822266,107.20773315429688
1779206347.0665472,2.691218376159668,hold-xy,1000,1.525902189669642,0.00070882775,0.0016754062,0.0,0.0072399136,0.0060341964,0.03709233,0.011551612056791782,-0.008563868701457977,-0.6053274273872375,-0.795846700668335,74.50747837405083,0.0025086402893066406,342,5.981885e-05,1.14142895e-05,6.089811799889624e-05,0.00019292044,0.00033917712,0.00039020432790847886,-2.6977923e-05,5.459645e-05,0.0003783847,-9.531226e-05,4.053958892822266,107.20773315429688
1779206347.086826,2.7114973068237305,hold-xy,1000,1.525902189669642,-0.0016398232,-0.00020305788,0.0,0.0072003063,0.006022063,0.037091896,0.011567940004169941,-0.007903283461928368,-0.6054068207740784,-0.7957928776741028,74.5180619461104,0.002086639404296875,344,2.0211563e-05,-7.18981e-07,2.022434679775982e-05,-0.00043894854,6.158739e-05,0.00044324804829143604,-4.7022722e-06,1.96701e-05,-5.7817877e-05,0.00043946094,4.053958892822266,107.19548797607422
1779206347.1289842,2.753655433654785,hold-xy,1000,1.525902189669642,-0.0011368063,-0.0011304012,0.0,0.007193893,0.0060009323,0.037133355,0.011534995399415493,-0.008674990385770798,-0.6053867936134338,-0.7958005666732788,74.51618674357174,0.013592004776000977,345,1.3798475e-05,-2.1849759e-05,2.5842017393466388e-05,-0.00037002919,-0.00016369674,0.00040462109007227134,1.7373015e-05,1.9130817e-05,-0.00025654078,0.0003128978,4.053958892822266,107.19548797607422
1779206347.149636,2.7743072509765625,hold-xy,1000,1.525902189669642,-0.001908046,-0.0015597814,0.0,0.007164981,0.005991935,0.037139177,0.01145260501652956,-0.008739473298192024,-0.6055134534835815,-0.7957046627998352,74.53456147391024,0.0034897327423095703,347,-1.5113503e-05,-3.0847266e-05,3.435071741531041e-05,-0.00054105103,-0.0002023566,0.0005776542196215933,3.3760454e-05,-6.340624e-06,-0.00033930465,0.00046750056,4.053958892822266,107.19548797607422
1779206347.1700492,2.794720411300659,hold-xy,1000,1.525902189669642,0.0013304325,0.0020955764,0.0,0.00721824,0.0060292557,0.037103787,0.011622622609138489,-0.008737888187170029,-0.6053351163864136,-0.7958378791809082,74.50878264669069,0.0034704208374023438,348,3.814511e-05,6.473623e-06,3.869053146242197e-05,0.0004032345,0.0004063148,0.0005724419409500839,-1.6426648e-05,3.5030305e-05,0.0004992541,-0.00028006267,4.053958892822266,107.19548797607422
1779206347.2116537,2.83632493019104,hold-xy,1000,1.525902189669642,7.670798e-05,0.0013925149,0.0,0.0071924087,0.006033358,0.037100345,0.011380983516573906,-0.007672709878534079,-0.6052418947219849,-0.7959232926368713,74.49413250458097,0.004113912582397461,350,1.2313947e-05,1.0576099e-05,1.6232288086455736e-05,9.3075796e-05,0.00031446703,0.0003279521654263257,-1.3483136e-05,9.038374e-06,0.000327904,-5.619433e-06,4.053958892822266,107.17232513427734
1779206347.232029,2.8567001819610596,hold-xy,1000,1.525902189669642,0.0009103831,0.0020236392,0.0,0.0072092433,0.006045214,0.037083928,0.011546622961759567,-0.008054248057305813,-0.6053281426429749,-0.7958515286445618,74.50692689248066,0.003924846649169922,351,2.9148534e-05,2.2431836e-05,3.678075987564072e-05,0.00031074235,0.00039308285,0.0005010737838294655,-2.9402936e-05,2.2097323e-05,0.00046180538,-0.00019444979,4.053958892822266,107.17232513427734
1779206347.2528415,2.8775126934051514,hold-xy,2000,3.051804379339284,-0.0027944185,-0.0035589153,0.0,0.0071714055,0.0060135936,0.037096594,0.011752776801586151,-0.008959714323282242,-0.6053021550178528,-0.79585862159729,74.50427457704136,0.014560461044311523,352,-8.68924e-06,-9.1884285e-06,1.2646347177880402e-05,-0.00089788245,-0.0006569611,0.0011125604693044359,1.1175906e-05,-5.918549e-06,-0.00087296497,0.0006897268,4.053958892822266,107.17232513427734
1779206347.2733529,2.898024082183838,hold-xy,2000,3.051804379339284,-0.0021005115,-0.0036470457,0.0,0.0071618184,0.005990045,0.037109993,0.011841953732073307,-0.009449486620724201,-0.6054230332374573,-0.7957596778869629,74.52234819923142,0.004300355911254883,354,-1.8276274e-05,-3.273692e-05,3.749304202795194e-05,-0.0007219844,-0.0006894537,0.0009983025209314774,3.6426954e-05,-8.877222e-06,-0.00085712096,0.00051181205,4.053958892822266,107.17232513427734
1779206347.2937303,2.9184014797210693,hold-xy,2000,3.051804379339284,8.7812376e-05,-7.393601e-05,0.0,0.0071955454,0.0060212547,0.03714176,0.011041431687772274,-0.007275865878909826,-0.6056033372879028,-0.7956568002700806,74.54590229292985,0.004378557205200195,355,1.5450642e-05,-1.527369e-06,1.5525951688070294e-05,-6.941962e-06,-2.1374406e-05,2.2473452172184844e-05,-2.6449293e-06,1.5299003e-05,-2.2451397e-05,9.954115e-07,4.053958892822266,107.21829223632812
1779206347.3153791,2.9400503635406494,hold-xy,2000,3.051804379339284,0.00063351286,0.0022431212,0.0,0.0072134696,0.006053772,0.03708319,0.011030894704163074,-0.005632178857922554,-0.6053612232208252,-0.7958545088768005,74.50949564334817,0.005120038986206055,356,3.3374876e-05,3.098976e-05,4.55439067326857e-05,0.00025233522,0.00045162573,0.0005173382387779127,-3.8777765e-05,2.388582e-05,0.00050261366,-0.00012254948,4.053958892822266,107.21829223632812
1779206347.3357658,2.960437059402466,hold-xy,2000,3.051804379339284,-0.00039591375,0.00047429142,0.0,0.007195359,0.0060399333,0.037117988,0.011240625753998756,-0.007803559303283691,-0.6054717898368835,-0.7957491278648376,74.52746455629601,0.0048711299896240234,358,1.5264377e-05,1.7151237e-05,2.2960097747172996e-05,-8.665542e-05,0.000114953844,0.00014395675504342244,-2.0601827e-05,1.0135626e-05,8.7670116e-05,0.00011418188,4.053958892822266,107.21829223632812
1779206347.3562596,2.980930805206299,hold-xy,2000,3.051804379339284,-0.00014515052,0.0011342773,0.0,0.007200191,0.006050802,0.0371094,0.011512495577335358,-0.008194259367883205,-0.6052724123001099,-0.7958930134773254,74.49909505536438,0.005044221878051758,359,2.0096079e-05,2.8019771e-05,3.448129827180627e-05,1.0673095e-05,0.0002409232,0.00024115949412304325,-3.2371336e-05,1.1876724e-05,0.00023501232,5.4102715e-05,4.053958892822266,107.21829223632812
1779206347.3767414,3.0014126300811768,hold-xy,2000,3.051804379339284,0.002829002,0.0020269358,0.0,0.0072257724,0.006053715,0.03705805,0.011072061024606228,-0.005638811271637678,-0.6053537130355835,-0.795859694480896,74.50840333100142,0.015167951583862305,360,4.5677647e-05,3.0932948e-05,5.516606499773208e-05,0.0007483865,0.00025302015,0.0007900009961867623,-4.200951e-05,3.5756064e-05,0.00044371968,-0.0006536164,4.053958892822266,107.21829223632812
1779206347.397974,3.0226452350616455,hold-xy,3000,4.577706569008926,0.002637918,0.0014766686,0.0,0.0072384346,0.0060498035,0.037070088,0.011324770748615265,-0.0069452915340662,-0.6054159998893738,-0.7957984209060669,74.51843528697101,0.005444526672363281,362,5.833991e-05,2.7021393e-05,6.429386046127735e-05,0.0006465826,0.00013920658,0.0006613981272137219,-4.1613534e-05,4.901035e-05,0.00030674686,-0.000585964,4.053958892822266,107.21466064453125
1779206347.421181,3.0458521842956543,hold-xy,3000,4.577706569008926,0.0004280308,7.1089016e-05,0.0,0.007210579,0.0060401727,0.03710404,0.01145267765969038,-0.008203893899917603,-0.6052847504615784,-0.7958843111991882,74.50091350254304,0.007249593734741211,363,3.048405e-05,1.7390586e-05,3.509572403055077e-05,6.2139414e-05,-3.755484e-05,7.26062867526363e-05,-2.4904213e-05,2.4728324e-05,-1.9584066e-05,-6.9915215e-05,4.053958892822266,107.21466064453125
1779206347.4640844,3.0887556076049805,hold-xy,3000,4.577706569008926,0.0010140485,0.0007070098,0.0,0.0072342325,0.0060521998,0.037114345,0.011519303545355797,-0.00871696975082159,-0.6053733229637146,-0.7958105802536011,74.51431239366146,0.00760960578918457,365,5.413778e-05,2.9417686e-05,6.161411947782528e-05,0.00021029473,5.8522168e-05,0.00021828586474713696,-4.28044e-05,4.4317974e-05,0.00011254585,-0.00018703517,4.053958892822266,107.21466064453125
1779206347.5071893,3.1318604946136475,hold-xy,3000,4.577706569008926,-8.365551e-05,0.00055512565,0.0,0.007209912,0.006058437,0.037119575,0.01154145784676075,-0.008117682300508022,-0.6052104830741882,-0.7959403991699219,74.49006464018127,0.009015798568725586,367,2.9817224e-05,3.5654753e-05,4.64793326183292e-05,-2.7767208e-05,8.583791e-05,9.021732038590862e-05,-4.2329644e-05,1.9197127e-05,7.528695e-05,4.9709568e-05,4.053958892822266,107.2268295288086
1779206347.548008,3.1726791858673096,hold-xy,3000,4.577706569008926,0.0009091222,-8.573358e-05,0.0,0.0072322898,0.0060352385,0.03713634,0.011809784919023514,-0.009797259233891964,-0.6053572297096252,-0.7958060503005981,74.51342543852303,0.006368398666381836,368,5.2195042e-05,1.2456439e-05,5.3660838037604783e-05,0.00013501314,-0.00010002664,0.00016802938405377835,-2.5940917e-05,4.697397e-05,-6.0344773e-05,-0.00015681959,4.053958892822266,107.2268295288086
1779206347.5684104,3.1930816173553467,hold-xy,4000,6.103608758678568,-0.00031446668,0.00031810813,0.0,0.0072249807,0.0060400274,0.03710797,0.011521282605826855,-0.008388255722820759,-0.6054351925849915,-0.7957670092582703,74.52278197474439,0.016637325286865234,369,4.4886023e-05,1.72453e-05,4.808487658365839e-05,-0.00012187259,7.175443e-05,0.0001414271022292355,-2.8597997e-05,3.8656304e-05,3.663004e-05,0.00013660113,4.053958892822266,107.2268295288086
1779206347.5890527,3.21372389793396,hold-xy,4000,6.103608758678568,-0.00047530793,5.4081276e-05,0.0,0.0072167236,0.0060372427,0.037112385,0.011547927744686604,-0.008257891982793808,-0.6053658127784729,-0.7958207726478577,74.51260754112137,0.006520986557006836,371,3.6628917e-05,1.4460646e-05,3.938004356883759e-05,-0.00016584538,2.306835e-05,0.00016744205088586877,-2.3716453e-05,3.143752e-05,-2.2054362e-05,0.00016598326,4.053958892822266,107.19230651855469
1779206347.6095018,3.234173059463501,hold-xy,4000,6.103608758678568,-0.0011917409,0.0003510195,0.0,0.0072041396,0.0060450854,0.03713782,0.01131178718060255,-0.008147343061864376,-0.6054323315620422,-0.7957746982574463,74.522169036195,0.006417751312255859,372,2.4044886e-05,2.2303313e-05,3.2796254059094586e-05,-0.00029977883,0.000130626,0.0003270022827208804,-2.7911206e-05,1.7220886e-05,4.5888068e-05,0.00032376655,4.053958892822266,107.19230651855469
1779206347.6307192,3.2553904056549072,hold-xy,4000,6.103608758678568,-0.000116724696,-0.0012104823,0.0,0.0072081313,0.0060199676,0.037125405,0.011415521614253521,-0.008557490073144436,-0.6055210828781128,-0.7957013845443726,74.53543281172531,0.007329702377319336,374,2.8036535e-05,-2.8144568e-06,2.8177445706524095e-05,-0.00015087097,-0.00027966173,0.0003177620604610279,-4.7631675e-06,2.7771941e-05,-0.00030976534,7.083909e-05,4.053958892822266,107.19230651855469
1779206347.6714928,3.296164035797119,hold-xy,4000,6.103608758678568,-0.00016484052,-0.0001278978,0.0,0.007209478,0.0060358206,0.03712214,0.011624990031123161,-0.008792717009782791,-0.6054048538208008,-0.7957841753959656,74.5189001054628,0.017693042755126953,375,2.9383227e-05,1.3038516e-05,3.214618079296951e-05,-9.2324444e-05,-3.9372317e-05,0.00010036923102749692,-2.0408444e-05,2.4836914e-05,-6.258712e-05,7.84655e-05,4.053958892822266,107.19230651855469
1779206347.692026,3.316697120666504,hold-xy,4000,6.103608758678568,-0.0010940328,-0.00067162805,0.0,0.007191859,0.006030868,0.037151154,0.011031374335289001,-0.006928866263478994,-0.6055493354797363,-0.7957011461257935,74.53775875250165,0.0180051326751709,376,1.1764467e-05,8.085743e-06,1.4275220068872247e-05,-0.00032602018,-0.00010104029,0.0003413184715300607,-1.0929535e-05,9.1829825e-06,-0.00018430132,0.00028728266,4.053958892822266,107.2062759399414
1779206347.7348235,3.359494686126709,hold-xy,5000,7.629510948348211,-0.00029629093,0.00050088536,0.0,0.007211374,0.0060533704,0.037135318,0.011460076086223125,-0.007350936997681856,-0.6053608655929565,-0.7958347201347351,74.51086033429102,0.01996326446533203,377,3.12794e-05,3.058836e-05,4.3749839717090415e-05,-8.486051e-05,9.4572446e-05,0.00012706397610103224,-3.7830767e-05,2.197457e-05,6.8475194e-05,0.00010703459,4.053958892822266,107.2062759399414
