wall_time_s,elapsed_s,mode,thrust_raw,thrust_percent,roll_cmd_deg,pitch_cmd_deg,yawrate_cmd_deg_s,mocap_x,mocap_y,mocap_z,mocap_qx,mocap_qy,mocap_qz,mocap_qw,yaw_deg,mocap_age_s,mocap_frame_count,drift_x_m,drift_y_m,horizontal_drift_m,velocity_x_m_s,velocity_y_m_s,horizontal_speed_m_s,body_error_x_m,body_error_y_m,body_velocity_x_m_s,body_velocity_y_m_s,battery_v,estimate_z
1779201484.0448263,0.0007205009460449219,hold-xy,0,0.0,0.0,0.0,0.0,0.009138398,0.002600791,0.03696171,0.013248908333480358,-0.012154901400208473,-0.6283006072044373,-0.7777629494667053,77.85923583707684,0.028734922409057617,69,0.0,0.0,0.0,0.0,0.0,0.0,0.0,0.0,0.0,0.0,4.1331377029418945,104.20329284667969
1779201484.1079512,0.06384539604187012,hold-xy,0,0.0,0.00011520247,0.00022205545,0.0,0.009146886,0.0025697947,0.036983408,0.013503285124897957,-0.013331652618944645,-0.6285207271575928,-0.777561366558075,77.89422852286553,0.016610145568847656,70,8.488074e-06,-3.0996278e-05,3.213746427479545e-05,3.3839646e-05,-0.00012357374,0.00012812334160708057,2.8526892e-05,1.4799765e-05,-0.00011372897,-5.9002643e-05,4.1331377029418945,104.16925048828125
1779201484.2092347,0.1651289463043213,hold-xy,0,0.0,0.00010856951,-1.681519e-05,0.0,0.009156095,0.0026012259,0.03696232,0.013405941426753998,-0.01322502177208662,-0.6283554434776306,-0.7776983976364136,77.86966429868325,0.00017690658569335938,71,1.7696992e-05,4.3492764e-07,1.770233490683422e-05,4.715658e-05,-6.399525e-06,4.758883140482242e-05,-4.1439957e-06,1.7210461e-05,3.652669e-06,-4.7448444e-05,4.1331377029418945,104.18008422851562
1779201484.2910225,0.2469167709350586,hold-xy,0,0.0,-0.00021798867,-0.00019402016,0.0,0.0091241,0.0026301453,0.0369903,0.013112077489495277,-0.012288525700569153,-0.6283578276634216,-0.777716875076294,77.86803559759699,0.013835668563842773,72,-1.4297664e-05,2.9354356e-05,3.265120869675307e-05,-0.000107875894,0.00012286437,0.00016350186927978266,-2.5693906e-05,-2.0147572e-05,9.7448705e-05,0.00013128828,4.1331377029418945,104.14324951171875
1779201484.3749506,0.3308448791503906,hold-xy,0,0.0,0.00013507131,2.1730713e-05,0.0,0.009161338,0.0025957767,0.036969636,0.013229312375187874,-0.012927098199725151,-0.628385603427887,-0.7776820063591003,77.87350835314605,0.007965803146362305,73,2.2940338e-05,-5.0142407e-06,2.348194417155005e-05,4.8892813e-05,-2.8814677e-05,5.6752028541885375e-05,8.3262876e-08,2.3481796e-05,-1.790077e-05,-5.3854947e-05,4.1331377029418945,104.14324951171875
1779201484.4563425,0.41223669052124023,hold-xy,0,0.0,2.9557988e-05,-9.974196e-05,0.0,0.009153236,0.0026133973,0.03698,0.013579852879047394,-0.013882149942219257,-0.628332257270813,-0.7777027487754822,77.86775547006461,0.007704257965087891,74,1.4837831e-05,1.2606382e-05,1.9470030792080963e-05,4.4558074e-06,4.4569104e-05,4.479128440672771e-05,-1.544327e-05,1.1856962e-05,4.451013e-05,5.010748e-06,4.1331377029418945,104.14117431640625
1779201484.5587752,0.5146694183349609,hold-xy,0,0.0,-3.9695515e-05,-6.014612e-05,0.0,0.009142501,0.0026122266,0.036997836,0.01322606485337019,-0.012557984329760075,-0.628453254699707,-0.7776334881782532,77.8826373646575,0.018647432327270508,75,4.1034073e-06,1.143571e-05,1.2149625821743745e-05,-3.2079788e-05,2.7359663e-05,4.2162353065139096e-05,-1.2042285e-05,1.6114566e-06,2.0016056e-05,3.710824e-05,4.1331377029418945,104.13722229003906
1779201484.641956,0.5978503227233887,hold-xy,0,0.0,-4.068527e-05,-6.204317e-05,0.0,0.009140797,0.0026139058,0.036969412,0.013293206691741943,-0.012597031891345978,-0.6283407211303711,-0.7777227163314819,77.86610161216514,0.013992786407470703,76,2.399087e-06,1.31148845e-05,1.333250951888989e-05,-2.8276912e-05,2.4886942e-05,3.76688681706936e-05,-1.33261665e-05,-4.1122053e-07,1.8387222e-05,3.287634e-05,4.1331377029418945,104.18314361572266
1779201484.7233815,0.6792757511138916,hold-xy,0,0.0,-5.136567e-05,-0.00013900307,0.0,0.009140203,0.0026255585,0.03699804,0.013159933499991894,-0.012250615283846855,-0.6282485723495483,-0.7778049111366272,77.85182360791582,0.01394963264465332,77,1.8049031e-06,2.4767593e-05,2.4833270206114435e-05,-2.1981861e-05,6.0330807e-05,6.421065800315282e-05,-2.4592788e-05,-3.447623e-06,5.4353924e-05,3.418567e-05,4.1331377029418945,104.14883422851562
1779201484.8048017,0.7606959342956543,hold-xy,0,0.0,-0.00021460386,-6.8824644e-05,0.0,0.009116506,0.0026239268,0.036989227,0.013219277374446392,-0.012458293698728085,-0.628275454044342,-0.7777788639068604,77.85621108918674,0.018642902374267578,78,-2.1891668e-05,2.3135915e-05,3.1851464718253304e-05,-0.000108040214,3.5851754e-05,0.00011383337130055857,-1.801294e-05,-2.6268797e-05,1.2321523e-05,0.000113164555,4.1331377029418945,104.16104125976562
1779201484.8928711,0.8487653732299805,hold-xy,0,0.0,1.8802055e-05,2.6442558e-06,0.0,0.00914019,0.0026095118,0.03699581,0.013481276109814644,-0.013564339838922024,-0.6283267140388489,-0.7777144908905029,77.86620671227645,0.024098873138427734,79,1.7918646e-06,8.720905e-06,8.903086864127574e-06,1.0375501e-05,-2.7249998e-05,2.915841901892997e-05,-8.902716e-06,-8.1259145e-08,-2.4460336e-05,-1.5871527e-05,4.1331377029418945,104.17517852783203
1779201484.95774,0.9136343002319336,hold-xy,0,0.0,-4.4505432e-05,7.3279436e-05,0.0,0.009130908,0.0026011718,0.03698846,0.013182630762457848,-0.012987683527171612,-0.6284666657447815,-0.7776163816452026,77.88562693100306,0.01494455337524414,80,-7.489696e-06,3.8091093e-07,7.499376015164365e-06,-3.0353283e-05,-5.2875163e-05,6.0968060507586656e-05,1.1993881e-06,-7.402845e-06,-5.8067722e-05,1.858075e-05,4.1331377029418945,104.17517852783203
1779201485.0394394,0.9953336715698242,hold-xy,0,0.0,3.3731107e-05,7.4896736e-05,0.0,0.009139879,0.0025960794,0.03700634,0.013288361020386219,-0.012949887663125992,-0.628506064414978,-0.7775833606719971,77.89128621543975,0.012378931045532227,81,1.4808029e-06,-4.711561e-06,4.9387835044451915e-06,1.0689451e-05,-5.5142817e-05,5.61693376130264e-05,4.2961115e-06,2.4361884e-06,-5.167367e-05,-2.2018783e-05,4.1331377029418945,104.18742370605469
1779201485.1207955,1.0766897201538086,hold-xy,0,0.0,0.00010564716,-5.4552725e-05,0.0,0.009153677,0.0026085554,0.036980547,0.013375080190598965,-0.013320954516530037,-0.6284339427947998,-0.7776338458061218,77.88148291979896,0.010845184326171875,82,1.5279278e-05,7.764436e-06,1.7138926683293907e-05,5.7422938e-05,6.55395e-06,5.7795745693335915e-05,-1.0799058e-05,1.3308762e-05,1.8462957e-05,-5.476739e-05,4.1331377029418945,104.2034683227539
1779201485.2027261,1.1586203575134277,hold-xy,0,0.0,-7.6881646e-05,2.5876496e-05,0.0,0.009128431,0.0026030717,0.036983337,0.012976461090147495,-0.011926405131816864,-0.6283678412437439,-0.7777166962623596,77.86880168168001,0.0009126663208007812,83,-9.967014e-06,2.280809e-06,1.0224649491519868e-05,-4.2251442e-05,-1.3320268e-05,4.4301397824625125e-05,-1.352987e-07,-1.0223754e-05,-2.1901993e-05,3.8508653e-05,4.1331377029418945,104.24754333496094
1779201485.3070571,1.262951374053955,hold-xy,0,0.0,9.808528e-05,-7.526981e-05,0.0,0.009154007,0.0026113503,0.036951073,0.013187646865844727,-0.012290983460843563,-0.6283729672431946,-0.7777032852172852,77.87023009116581,0.013514995574951172,84,1.5608966e-05,1.0559335e-05,1.8845142348042845e-05,5.407061e-05,1.7750852e-05,5.690978397077679e-05,-1.3603449e-05,1.3041687e-05,2.8716222e-05,-4.9133516e-05,4.1331377029418945,104.22010040283203
1779201485.4098928,1.3657870292663574,hold-xy,0,0.0,-2.4125191e-05,-5.332395e-07,0.0,0.009136222,0.002605049,0.03697793,0.013182960450649261,-0.012564403004944324,-0.628433108329773,-0.7776504755020142,77.87970744461967,0.013695001602172852,85,-2.1755695e-06,4.258007e-06,4.781602744092545e-06,-1.4123954e-05,-5.9893546e-06,1.534139677302844e-05,-3.7062982e-06,-3.0211054e-06,-8.821379e-06,1.2551563e-05,4.1331377029418945,104.2240982055664
1779201485.4919043,1.447798490524292,hold-xy,0,0.0,-0.00015887585,-5.5031895e-05,0.0,0.009119326,0.0026157591,0.036964174,0.013291846960783005,-0.012572498992085457,-0.6283125281333923,-0.7777459025382996,77.86189155611284,0.014250755310058594,86,-1.9071624e-05,1.4968216e-05,2.4244057606106317e-05,-7.211465e-05,3.525297e-05,8.027013633105813e-05,-1.0623413e-05,-2.17926e-05,1.9301378e-05,7.791503e-05,4.1331377029418945,104.27694702148438
1779201485.5966904,1.5525846481323242,hold-xy,0,0.0,0.00010719662,5.0672505e-05,0.0,0.009152105,0.0025930936,0.036974765,0.013463781215250492,-0.013589338399469852,-0.6284294724464417,-0.7776313424110413,77.8814257228658,0.015182733535766602,87,1.3707206e-05,-7.697381e-06,1.5720596174529867e-05,4.4206823e-05,-4.0796258e-05,6.0154616462753654e-05,4.6482173e-06,1.50176975e-05,-3.060654e-05,-5.1786268e-05,4.1331377029418945,104.28893280029297
1779201485.6792784,1.6351726055145264,hold-xy,0,0.0,1.7450735e-05,-0.000104639796,0.0,0.009146441,0.002615639,0.036980145,0.013136463239789009,-0.012083735316991806,-0.6283152103424072,-0.7777540683746338,77.86129437155714,0.005910158157348633,88,8.042902e-06,1.4848076e-05,1.688649232186669e-05,1.2446177e-05,4.5072036e-05,4.675891308803349e-05,-1.6207348e-05,4.740835e-06,4.6681456e-05,-2.6901926e-06,4.1331377029418945,104.28893280029297
1779201485.789553,1.7454471588134766,hold-xy,0,0.0,-8.424726e-05,5.311353e-05,0.0,0.009127298,0.0025982084,0.036979616,0.013043360784649849,-0.01196682546287775,-0.6284536719322205,-0.7776455283164978,77.88150156830478,0.018680334091186523,89,-1.1099502e-05,-2.5825575e-06,1.1395988783345332e-05,-5.0184743e-05,-2.2079887e-05,5.48272710192952e-05,4.855172e-06,-1.0309988e-05,-3.2123342e-05,4.4431075e-05,4.1331377029418945,104.25530242919922
1779201485.851727,1.8076212406158447,hold-xy,0,0.0,-0.00013471012,6.2954554e-05,0.0,0.009119496,0.0025974317,0.036976267,0.012999164871871471,-0.012402729131281376,-0.6282870173454285,-0.7777741551399231,77.8579141771853,0.019891977310180664,90,-1.8902123e-05,-3.3592805e-06,1.9198308040196024e-05,-7.3526506e-05,-1.9278223e-05,7.601182084110384e-05,7.2599405e-06,-1.7772683e-05,-3.4312274e-05,6.7826724e-05,4.1331377029418945,104.25530242919922
1779201485.9333825,1.8892767429351807,hold-xy,0,0.0,3.5207733e-05,1.5432828e-05,0.0,0.009139666,0.002597942,0.036966573,0.013397525995969772,-0.013024098239839077,-0.6283783912658691,-0.7776833772659302,77.87257634470362,0.02008366584777832,91,1.2684613e-06,-2.8489158e-06,3.11854375810865e-06,2.2811982e-05,-1.1615278e-05,2.5598852663772333e-05,2.5188492e-06,1.8386716e-06,-6.563567e-06,-2.4743096e-05,4.127859115600586,104.23178100585938
1779201486.0143995,1.9702937602996826,hold-xy,0,0.0,0.00022373596,-6.171438e-05,0.0,0.009168005,0.002602241,0.03697898,0.013373776338994503,-0.012968170456588268,-0.62842857837677,-0.777644157409668,77.87985678232536,0.01864480972290039,92,2.9606745e-05,1.4500692e-06,2.964223392428864e-05,0.00011907185,7.5103444e-06,0.00011930846767615573,-7.634047e-06,2.8642335e-05,3.2343534e-05,-0.00011484078,4.1331377029418945,104.24773406982422
1779201486.0758128,2.0317070484161377,hold-xy,0,0.0,-5.9632024e-05,3.1250212e-05,0.0,0.00913601,0.0025986219,0.036977805,0.01329401507973671,-0.012533482164144516,-0.6284705400466919,-0.7776188254356384,77.88509325815706,0.007029056549072266,93,-2.387911e-06,-2.1690503e-06,3.225972478693916e-06,-4.8082315e-05,-9.609939e-06,4.903325302565364e-05,2.6219006e-06,-1.8795041e-06,-1.948709e-05,4.499459e-05,4.1331377029418945,104.24773406982422
1779201486.1578248,2.1137189865112305,hold-xy,0,0.0,8.23361e-05,-9.1037524e-05,0.0,0.009154379,0.0026093954,0.03698839,0.013492371886968613,-0.013046575710177422,-0.6284631490707397,-0.7776129245758057,77.88506922048857,0.017202377319335938,94,1.5981495e-05,8.604489e-06,1.8150631267048838e-05,4.3053515e-05,3.8263635e-05,5.759957460625256e-05,-1.1766945e-05,1.3819712e-05,4.6447236e-05,-3.4064135e-05,4.1331377029418945,104.27568817138672
1779201486.2414606,2.197354793548584,hold-xy,0,0.0,-9.101868e-07,-7.440419e-05,0.0,0.009144314,0.0026115691,0.03697424,0.013225313276052475,-0.012550139799714088,-0.6283428072929382,-0.7777228951454163,77.86634069153008,0.008310079574584961,95,5.915761e-06,1.0778196e-05,1.2294948010744578e-05,-2.498251e-06,3.3832264e-05,3.3924376096740125e-05,-1.1780861e-05,3.5181017e-06,3.2551336e-05,9.5537425e-06,4.127859115600586,104.29496765136719
1779201486.3295224,2.285416603088379,hold-xy,0,0.0,-0.000105515326,0.0001688675,0.0,0.0091228075,0.0025831917,0.036946345,0.013333073817193508,-0.01195340696722269,-0.6282708048820496,-0.7777885794639587,77.85436280554342,0.01016855239868164,96,-1.559034e-05,-1.7599203e-05,2.3511499124462466e-05,-7.6593096e-05,-7.5074844e-05,0.00010725080309578155,2.0485426e-05,-1.153854e-05,-8.950935e-05,5.908309e-05,4.1331377029418945,104.27202606201172
1779201486.4343123,2.3902065753936768,hold-xy,0,0.0,0.00025064877,-6.0631704e-05,0.0,0.009176874,0.0026011402,0.036972534,0.01335495337843895,-0.013020126149058342,-0.6283547282218933,-0.7777032852172852,77.86910343860401,0.02079606056213379,97,3.847573e-05,3.4924597e-07,3.8477315793101024e-05,0.00011863842,4.6310633e-06,0.00011872877192825186,-8.42696e-06,3.7543177e-05,2.9459017e-05,-0.00011501603,4.127859115600586,104.22508239746094
1779201486.5233939,2.479288101196289,hold-xy,0,0.0,-7.7415476e-05,4.760774e-05,0.0,0.009132482,0.0025959387,0.036982376,0.01312817633152008,-0.012396061792969704,-0.6284872889518738,-0.7776102423667908,77.88734647505753,0.014520645141601562,98,-5.915761e-06,-4.8521906e-06,7.651142295129096e-06,-5.661203e-05,-1.31223605e-05,5.8112977386213205e-05,5.9854965e-06,-4.765901e-06,-2.4709374e-05,5.2598145e-05,4.1331377029418945,104.22526550292969
1779201486.6248963,2.5807905197143555,hold-xy,0,0.0,-0.0002382007,2.4349189e-05,0.0,0.009105828,0.0026039556,0.036983307,0.013217153027653694,-0.012404441833496094,-0.6281880140304565,-0.7778503894805908,77.84320629562326,0.01253509521484375,99,-3.2570213e-05,3.164634e-06,3.272359460663033e-05,-0.000116896685,1.4054224e-05,0.00011773850562909387,3.7652185e-06,-3.250626e-05,-1.0877944e-05,0.00011723492,4.127859115600586,104.26105499267578
1779201486.7129192,2.668813467025757,hold-xy,0,0.0,0.00012851431,6.3625776e-05,0.0,0.009150019,0.002588112,0.037000377,0.013192589394748211,-0.012574141845107079,-0.6284199357032776,-0.7776607871055603,77.87778216510311,0.009969949722290039,100,1.1621043e-05,-1.26790255e-05,1.7199021015163726e-05,6.452022e-05,-4.263139e-05,7.73323637414785e-05,9.955915e-06,1.4024483e-05,-2.813169e-05,-7.203405e-05,4.1331377029418945,104.25447082519531
1779201486.7962854,2.7521796226501465,hold-xy,0,0.0,7.0100665e-05,-7.10787e-05,0.0,0.009149242,0.002605996,0.036991294,0.013188976794481277,-0.012353156693279743,-0.6283462643623352,-0.7777238488197327,77.86643064535781,0.007436037063598633,101,1.084432e-05,5.205162e-06,1.2028839504286924e-05,4.2451506e-05,3.2617307e-05,5.353521250260018e-05,-7.3682627e-06,9.50798e-06,4.081159e-05,-3.4647273e-05,4.127859115600586,104.21116638183594
1779201486.8986616,2.85455584526062,hold-xy,0,0.0,-7.580713e-05,-4.9509206e-05,0.0,0.00913015,0.0026090853,0.036995724,0.013099413365125656,-0.012385020032525063,-0.6282467842102051,-0.7778052091598511,77.85188928265526,0.017687082290649414,102,-8.247793e-06,8.294359e-06,1.1697113747435643e-05,-3.245625e-05,3.2891898e-05,4.620914476463302e-05,-6.3729613e-06,-9.80856e-06,2.5325267e-05,3.865121e-05,4.127859115600586,104.24755096435547
1779201486.9609687,2.916862964630127,hold-xy,0,0.0,-7.9608115e-05,0.0001216762,0.0,0.009123651,0.0025895042,0.03696915,0.013048616237938404,-0.012401612475514412,-0.6284659504890442,-0.7776287794113159,77.8842579577147,0.006585359573364258,103,-1.4746562e-05,-1.1286698e-05,1.8570154766115027e-05,-4.92779e-05,-5.69976e-05,7.534611806030346e-05,1.4130408e-05,-1.2049158e-05,-6.607082e-05,3.62172e-05,4.127859115600586,104.24755096435547
1779201487.04839,3.004284143447876,hold-xy,0,0.0,0.0001522122,-2.6567292e-05,0.0,0.009157766,0.0026002666,0.036981408,0.013203599490225315,-0.01230541616678238,-0.6283623576164246,-0.7777113914489746,77.86868974632756,0.004809856414794922,104,1.9367784e-05,-5.243346e-07,1.9374879930120197e-05,8.024409e-05,-3.700683e-06,8.032938066441005e-05,-3.55757e-06,1.9045463e-05,1.3245484e-05,-7.922984e-05,4.1331377029418945,104.2690200805664
1779201487.131195,3.0870893001556396,hold-xy,0,0.0,-6.574768e-05,7.4576536e-05,0.0,0.0091322865,0.0025935154,0.037000947,0.013382417149841785,-0.013077985495328903,-0.6284647583961487,-0.7776129841804504,77.88544343740439,0.016513586044311523,105,-6.1113387e-06,-7.275492e-06,9.501644111234578e-06,-5.1333835e-05,-3.1075804e-05,6.000723329883976e-05,8.396035e-06,-4.4483536e-06,-4.115702e-05,4.3668842e-05,4.127859115600586,104.2477798461914
1779201487.1944404,3.150334596633911,hold-xy,0,0.0,-0.0002571759,2.9017492e-06,0.0,0.009108225,0.0026060445,0.03700703,0.013222834095358849,-0.012120682746171951,-0.6282239556312561,-0.7778257727622986,77.84787857571078,0.006588935852050781,106,-3.0172989e-05,5.2535906e-06,3.062693990415621e-05,-0.00013458752,2.9616729e-05,0.00013780765956205159,1.2157848e-06,-3.06028e-05,6.213377e-07,0.00013780626,4.1331377029418945,104.2974853515625
1779201487.2776308,3.233525037765503,hold-xy,0,0.0,0.00012795463,-6.361172e-05,0.0,0.009151913,0.0026053553,0.03698053,0.013416423462331295,-0.01273372769355774,-0.6281933784484863,-0.777837336063385,77.84462608183037,0.015235662460327148,107,1.3515353e-05,4.564412e-06,1.4265294760712091e-05,8.161179e-05,1.7958122e-05,8.356421599991132e-05,-7.307918e-06,1.2251243e-05,3.4739965e-05,-7.6000746e-05,4.1331377029418945,104.2974853515625
1779201487.3805723,3.3364665508270264,hold-xy,0,0.0,0.00015013471,3.630514e-05,0.0,0.009156512,0.0025907028,0.03699617,0.013258688151836395,-0.012927854433655739,-0.6284340023994446,-0.7776424288749695,77.88062823859416,0.0164182186126709,108,1.8114224e-05,-1.0088086e-05,2.0733899588514357e-05,7.068638e-05,-3.062698e-05,7.703619890531649e-05,6.0601806e-06,1.9828483e-05,-1.5103832e-05,-7.554105e-05,4.1331377029418945,104.28778839111328
1779201487.4624321,3.4183263778686523,hold-xy,1000,1.525902189669642,0.00013212502,-4.4173732e-05,0.0,0.009160075,0.0026009874,0.036973245,0.013096879236400127,-0.012113139033317566,-0.6283456683158875,-0.7777296900749207,77.86586884610723,0.006974697113037109,109,2.1677464e-05,1.9650906e-07,2.167835505873516e-05,6.118839e-05,1.2353728e-05,6.242302205426756e-05,-4.748743e-06,2.1151845e-05,2.4939585e-05,-5.7224563e-05,4.1331377029418945,104.28778839111328
1779201487.5514624,3.507356643676758,hold-xy,1000,1.525902189669642,-1.9486277e-05,5.541222e-06,0.0,0.009141203,0.0025992915,0.03697174,0.01311059296131134,-0.012513693422079086,-0.6281774640083313,-0.7778589725494385,77.84195504614718,0.011111259460449219,110,2.8051436e-06,-1.4994293e-06,3.1807418864410873e-06,-2.3859724e-05,2.6544494e-06,2.4006926859760048e-05,8.7500916e-07,3.0580186e-06,-2.430162e-06,2.3883611e-05,4.127859115600586,104.25140380859375
1779201487.6541924,3.610086679458618,hold-xy,1000,1.525902189669642,-0.00017112127,7.607335e-05,0.0,0.009115985,0.002593981,0.0369768,0.012873150408267975,-0.011535556986927986,-0.6283789873123169,-0.777715265750885,77.86968211669215,0.019276857376098633,111,-2.2413209e-05,-6.8098307e-06,2.342489554981066e-05,-9.6705524e-05,-1.4988816e-05,9.786022200119227e-05,1.13676015e-05,-2.048178e-05,-3.4975452e-05,9.139661e-05,4.1331377029418945,104.2469711303711
1779201487.7356849,3.6915791034698486,hold-xy,1000,1.525902189669642,8.486508e-05,-0.00014361116,0.0,0.009154094,0.0026166476,0.036978476,0.013083688914775848,-0.01239852700382471,-0.628393292427063,-0.7776869535446167,77.87352182444303,0.00761866569519043,112,1.569651e-05,1.5856698e-05,2.2311775915474057e-05,5.504195e-05,6.250744e-05,8.328743018295076e-05,-1.8800249e-05,1.201524e-05,7.267535e-05,-4.0682797e-05,4.127859115600586,104.18424224853516
1779201487.838981,3.794875144958496,hold-xy,2000,3.051804379339284,-1.8014327e-05,-6.292471e-05,0.0,0.009139961,0.0026116185,0.03698625,0.012957779690623283,-0.012199852615594864,-0.6284114718437195,-0.7776774764060974,77.87583202247946,0.01893782615661621,113,1.5627593e-06,1.0827556e-05,1.093975246655889e-05,-7.570543e-06,2.7351709e-05,2.8380082043269604e-05,-1.0914272e-05,-7.4622085e-07,2.5151574e-05,1.3146387e-05,4.127859115600586,104.1965103149414
1779201487.9218252,3.8777194023132324,hold-xy,2000,3.051804379339284,9.255872e-05,-2.1647404e-05,0.0,0.00915397,0.0026038354,0.036988616,0.013042560778558254,-0.012121615000069141,-0.6284247040748596,-0.7776666283607483,77.8775664062477,0.009558677673339844,114,1.5571713e-05,3.0444935e-06,1.586654361902809e-05,4.0271334e-05,-6.1718747e-06,4.0741532392647974e-05,-6.246686e-06,1.4585134e-05,2.422788e-06,-4.066943e-05,4.127859115600586,104.18193817138672
1779201488.0234072,3.9793014526367188,hold-xy,2000,3.051804379339284,9.721643e-07,-6.202842e-05,0.0,0.009144388,0.0026119659,0.03700557,0.012952822260558605,-0.012343494221568108,-0.6284857392311096,-0.7776152491569519,77.88709768642967,0.019966602325439453,115,5.990267e-06,1.117494e-05,1.26792180327859e-05,-3.3369288e-06,2.2432167e-05,2.2679003151691623e-05,-1.2183131e-05,3.511964e-06,2.1232521e-05,7.969773e-06,4.127859115600586,104.1717758178711
1779201488.0872118,4.0431060791015625,hold-xy,2000,3.051804379339284,1.1408582e-05,4.2271262e-05,0.0,0.009142756,0.0025998093,0.037007976,0.013225923292338848,-0.012653657235205173,-0.6283539533615112,-0.7777122259140015,77.86821763080218,0.010370731353759766,116,4.3585896e-06,-9.81614e-07,4.467758919484839e-06,-9.004785e-06,-3.3983335e-05,3.5156126473930524e-05,4.368627e-08,4.4675453e-06,-3.5116835e-05,1.6617109e-06,4.127859115600586,104.1915054321289
1779201488.168957,4.124851226806641,hold-xy,2000,3.051804379339284,-0.00016524775,3.6612983e-07,0.0,0.009120017,0.0026087668,0.03702227,0.012798977084457874,-0.011687785387039185,-0.6284089088439941,-0.777690052986145,77.8744464974907,0.009371280670166016,117,-1.8380582e-05,7.9758465e-06,2.003646477955578e-05,-8.874682e-05,8.6879645e-06,8.917106361750055e-05,-3.9369756e-06,-1.9645868e-05,-1.0147547e-05,8.859179e-05,4.127859115600586,104.1915054321289
1779201488.2711365,4.2270307540893555,hold-xy,2000,3.051804379339284,-3.8033464e-05,-0.00011613624,0.0,0.009136898,0.0026218072,0.037008587,0.013222642242908478,-0.012685230001807213,-0.6283647418022156,-0.7777029871940613,77.8698804964472,0.019840478897094727,118,-1.4994293e-06,2.1016225e-05,2.106964650553804e-05,-6.901664e-06,4.8738864e-05,4.92250945649033e-05,-2.0231917e-05,-5.8821443e-06,4.6200403e-05,1.6989192e-05,4.127859115600586,104.20610809326172
1779201488.3339107,4.289804935455322,hold-xy,2000,3.051804379339284,2.9628865e-05,3.3126664e-05,0.0,0.009141268,0.0026025185,0.0370087,0.013214821927249432,-0.012950874865055084,-0.628396213054657,-0.7776733040809631,77.87513617983831,0.0006656646728515625,119,2.8703362e-06,1.7276034e-06,3.3501407704414014e-06,1.1165734e-05,-3.649485e-05,3.816474368132537e-05,-2.291958e-06,2.4434344e-06,-3.3335447e-05,-1.8582134e-05,4.127859115600586,104.21912384033203
1779201488.415072,4.370966196060181,hold-xy,2000,3.051804379339284,-0.000101068,2.0712308e-05,0.0,0.009126212,0.0026058052,0.037024457,0.012882612645626068,-0.011951146647334099,-0.6284235119819641,-0.7776728868484497,77.87711035143944,0.010497808456420898,120,-1.2185425e-05,5.0142407e-06,1.3176766753504158e-05,-5.5506353e-05,-1.172327e-05,5.673085970649738e-05,-2.3433693e-06,-1.2966719e-05,-2.3118679e-05,5.180653e-05,4.127859115600586,104.22590637207031
1779201488.5006204,4.456514596939087,hold-xy,2000,3.051804379339284,5.4034794e-05,-4.8494574e-05,0.0,0.009147545,0.0026103081,0.037001383,0.013218310661613941,-0.012803098186850548,-0.6283506155014038,-0.7777125835418701,77.86807143696853,0.002620697021484375,121,9.14745e-06,9.517185e-06,1.3200479834102187e-05,2.9647857e-05,6.2531826e-06,3.0300127210433395e-05,-1.122709e-05,6.942989e-06,1.2344421e-05,-2.767152e-05,4.127859115600586,104.2220230102539
1779201488.6062262,4.56212043762207,hold-xy,3000,4.577706569008926,-5.1105042e-05,-3.290241e-05,0.0,0.009133715,0.0026116278,0.03700392,0.012967742048203945,-0.012149063870310783,-0.6283682584762573,-0.7777130603790283,77.86934709488166,0.01586461067199707,122,-4.68269e-06,1.08368695e-05,1.180530918002783e-05,-2.4168063e-05,8.663683e-06,2.5674007776086383e-05,-9.610865e-06,-6.8554073e-06,3.3915148e-06,2.5449015e-05,4.127859115600586,104.16189575195312
1779201488.6941075,4.650001764297485,hold-xy,3000,4.577706569008926,-9.653137e-05,-9.622556e-05,0.0,0.009127749,0.0026228111,0.03699879,0.013142725452780724,-0.012129094451665878,-0.6283134818077087,-0.7777546644210815,77.86113440983574,0.0056340694427490234,123,-1.0648742e-05,2.2020191e-05,2.445985553977316e-05,-3.5160247e-05,4.02602e-05,5.345209986005911e-05,-1.9288602e-05,-1.504109e-05,3.1966458e-05,4.2840078e-05,4.127859115600586,104.11856079101562
1779201488.7770145,4.732908725738525,hold-xy,4000,6.103608758678568,8.860558e-05,5.6310535e-05,0.0,0.009146232,0.0025992785,0.036979917,0.01303382683545351,-0.012291080318391323,-0.628473699092865,-0.7776244878768921,77.88516305749621,0.00623774528503418,124,7.8342855e-06,-1.5124679e-06,7.978946565181358e-06,4.2759486e-05,-5.7595702e-05,7.173310659586523e-05,-1.6541162e-07,7.977232e-06,-4.7338974e-05,-5.38949e-05,4.127859115600586,104.11856079101562
1779201488.8821561,4.838050365447998,hold-xy,4000,6.103608758678568,1.5100811e-05,2.8454606e-05,0.0,0.009138344,0.0026026955,0.03700354,0.012854940257966518,-0.012068710289895535,-0.6285327076911926,-0.7775833010673523,77.89347425857302,0.006041049957275391,125,-5.401671e-08,1.9045547e-06,1.9053205182324433e-06,7.466022e-06,-3.0585426e-05,3.148348425636208e-05,-1.8508673e-06,-4.5225747e-07,-2.8339338e-05,-1.3714653e-05,4.127859115600586,104.1373291015625
1779201488.963401,4.919295310974121,hold-xy,5000,7.629510948348211,2.989225e-05,-6.897672e-05,0.0,0.009143485,0.0026137764,0.03700593,0.012990375980734825,-0.011748909950256348,-0.6282266974449158,-0.7778331637382507,77.84761814503491,0.003960371017456055,126,5.086884e-06,1.2985431e-05,1.3946246551362676e-05,2.3735169e-05,1.8485045e-05,3.0084134389110438e-05,-1.3765295e-05,2.2392987e-06,2.3067365e-05,-1.9311961e-05,4.127859115600586,104.1373291015625
1779201489.066838,5.022732257843018,hold-xy,6000,9.155413138017853,0.000102754166,-0.0001035974,0.0,0.009156877,0.0026176563,0.037008896,0.01321555208414793,-0.012736117467284203,-0.6283770799636841,-0.7776923179626465,77.87181947223516,0.004490852355957031,127,1.8479303e-05,1.686532e-05,2.5018466104997674e-05,5.5657118e-05,2.4250454e-05,6.071078340284193e-05,-2.0371379e-05,1.452345e-05,3.5402714e-05,-4.9319846e-05,4.127859115600586,104.11534118652344
1779201489.1721983,5.128092527389526,hold-xy,6000,9.155413138017853,7.0329894e-05,-9.095505e-05,0.0,0.009154797,0.00261812,0.036980137,0.013238233514130116,-0.012907316908240318,-0.6284284591674805,-0.7776476144790649,77.8797752392182,0.017252206802368164,128,1.6398728e-05,1.732912e-05,2.3858262170490037e-05,3.221938e-05,1.8477922e-05,3.714191772307009e-05,-2.0385976e-05,1.2394701e-05,2.4830933e-05,-2.7621492e-05,4.127859115600586,104.120849609375
1779201489.2589235,5.214817762374878,hold-xy,6000,9.155413138017853,-0.00015813374,-0.00018130586,0.0,0.009127751,0.0026382012,0.037027214,0.01296963170170784,-0.011887295171618462,-0.6281635761260986,-0.7778823971748352,77.83861931655704,0.016665935516357422,129,-1.064688e-05,3.7410296e-05,3.8895838604056036e-05,-7.037443e-05,8.193293e-05,0.00010800724699089478,-3.4327804e-05,-1.8289018e-05,6.52687e-05,8.6055574e-05,4.127859115600586,104.17125701904297
1779201489.3202934,5.2761876583099365,hold-xy,7000,10.681315327687495,-3.4373392e-05,-0.00014962215,0.0,0.0091388505,0.0026347628,0.03700308,0.012994189746677876,-0.011956789530813694,-0.6282691955566406,-0.7777956128120422,77.8543182638746,0.006211042404174805,130,4.5262277e-07,3.3971854e-05,3.397486809765588e-05,-2.9013536e-06,4.2991254e-05,4.308904525615801e-05,-3.3306653e-05,-6.705122e-06,4.141849e-05,1.1881687e-05,4.127859115600586,104.15312957763672
1779201489.4015517,5.357445955276489,hold-xy,8000,12.207217517357137,0.00014476648,-4.720517e-05,0.0,0.009159777,0.002617985,0.03698202,0.013183635659515858,-0.012430258095264435,-0.628385603427887,-0.7776908874511719,77.87240239959307,0.0035305023193359375,131,2.1379441e-05,1.7194077e-05,2.743568438724531e-05,7.276215e-05,-2.9870418e-05,7.865476837135855e-05,-2.130194e-05,1.7290004e-05,-1.391721e-05,-7.741372e-05,4.117301940917969,104.14717864990234
1779201489.4873562,5.443250417709351,hold-xy,9000,13.733119707026779,-3.0996584e-05,6.687461e-05,0.0,0.009137873,0.002606961,0.03700093,0.01275202538818121,-0.011486241593956947,-0.6284011006355286,-0.7777001261711121,77.87290416862145,0.01343679428100586,132,-5.2526593e-07,6.170012e-06,6.192330111794969e-06,-3.5648456e-05,-6.448373e-05,7.368150039850719e-05,-5.9219738e-06,-1.8097461e-06,-7.053377e-05,2.1306121e-05,4.122580528259277,104.10904693603516
1779201489.5763752,5.532269477844238,hold-xy,9000,13.733119707026779,8.4719475e-05,5.8354068e-05,0.0,0.00915228,0.0026014298,0.036979105,0.013074138201773167,-0.012561344541609287,-0.6283888816833496,-0.7776880264282227,77.87324115929496,0.014348268508911133,133,1.3882294e-05,6.388873e-07,1.3896987622507866e-05,2.4102792e-05,-6.397169e-05,6.83616978255953e-05,-3.5409564e-06,1.34383e-05,-5.748078e-05,-3.700381e-05,4.122580528259277,104.10904693603516
1779201489.6811109,5.637005090713501,hold-xy,10000,15.259021896696423,0.00010853287,0.00014686387,0.0,0.009154314,0.0025839526,0.03697853,0.012858176603913307,-0.011972368694841862,-0.6283260583877563,-0.7777517437934875,77.86280599273206,0.017847061157226562,134,1.5916303e-05,-1.6838312e-05,2.3170184448689578e-05,2.289943e-05,-9.6571224e-05,9.92491077856541e-05,1.311547e-05,1.9100835e-05,-8.959788e-05,-4.2691972e-05,4.11202335357666,104.10453796386719
1779201489.7552967,5.711190938949585,hold-xy,10000,15.259021896696423,0.0008677058,0.00055581867,0.0,0.009247817,0.0025004474,0.03704986,0.011067377403378487,-0.013728995807468891,-0.628511905670166,-0.7776000499725342,77.89528566292788,0.004457235336303711,135,0.00010941923,-0.00010034349,0.0001484634090583226,0.00033633405,-0.00035365592,0.00048805031470192816,7.516734e-05,0.00012802833,-0.00027526382,-0.0004030173,4.11202335357666,104.09130859375
1779201489.858339,5.814233303070068,hold-xy,11000,16.784924086366065,0.0034398516,0.0026188325,0.0,0.009567235,0.002111894,0.03711688,0.005002823192626238,-0.012153674848377705,-0.6287186145782471,-0.7775217890739441,77.92471479954652,0.01527547836303711,136,0.0004288368,-0.00048889685,0.0006503238566823685,0.0012744816,-0.001511502,0.0019771044067288953,0.00038836803,0.0005216238,-0.0012114404,-0.0015624833,4.11202335357666,104.06959533691406
1779201489.9396188,5.89551305770874,hold-xy,11000,16.784924086366065,0.0032641105,0.0021233838,0.0,0.009620296,0.0021087322,0.03715643,0.003719996428117156,-0.011015092022716999,-0.628681480884552,-0.7775759696960449,77.91712459798272,0.013883352279663086,137,0.00048189797,-0.0004920587,0.0006887288410230994,0.0010846857,-0.001069525,0.0015232947192898067,0.00038028363,0.00057422277,-0.0008187773,-0.001284535,4.106744766235352,104.0997085571289
1779201490.0246336,5.980527877807617,hold-xy,12000,18.310826276035705,0.002643919,0.0021627115,0.0,0.009586927,0.002064987,0.037153557,0.003537848824635148,-0.010355507023632526,-0.6287604570388794,-0.7775220274925232,77.92743863138979,0.0017130374908447266,138,0.00044852868,-0.00053580385,0.000698758691234454,0.0006562726,-0.00088370405,0.0011007391007705415,0.00043014385,0.00055067235,-0.0007269,-0.0008265851,4.106744766235352,104.08694458007812
1779201490.136675,6.09256911277771,hold-xy,13000,19.83672846570535,0.0021663243,0.001793294,0.0,0.009564355,0.002085887,0.03714484,0.0034900475293397903,-0.0105148209258914,-0.6286696195602417,-0.7775935530662537,77.91439253109063,0.01959514617919922,139,0.00042595714,-0.00051490404,0.0006682556772943665,0.00038747574,-0.000552004,0.0006744226337787451,0.0004143077,0.00052432314,-0.00045864237,-0.0004944624,4.101466178894043,104.0111083984375
1779201490.2192543,6.1751484870910645,hold-xy,13000,19.83672846570535,0.0020097974,0.0015727705,0.0,0.0095690545,0.0020930711,0.037158303,0.003697123844176531,-0.010543047450482845,-0.6286245584487915,-0.7776286602020264,77.90774343597074,0.009622573852539062,140,0.0004306566,-0.0005077198,0.000665766112569415,0.00028646592,-0.00036311572,0.00046251025959707194,0.0004062376,0.0005274614,-0.00029504806,-0.0003561775,4.090909004211426,104.03357696533203
1779201490.2885478,6.244441986083984,hold-xy,13000,19.83672846570535,0.0020352404,0.001516178,0.0,0.009587336,0.0020824783,0.037159536,0.003571166656911373,-0.010160736739635468,-0.6285842657089233,-0.7776668667793274,77.90106817912597,0.001298666000366211,141,0.00044893846,-0.0005183127,0.0006857067552197693,0.00027118757,-0.0002951236,0.00040079999821484615,0.00041270186,0.00054760475,-0.00023172706,-0.00032702173,4.096187591552734,104.00435638427734
1779201490.3904603,6.3463544845581055,hold-xy,15000,22.888532845044633,0.0020807413,0.0013690493,0.0,0.009612469,0.002086589,0.03715389,0.0038415458984673023,-0.010919884778559208,-0.6286304593086243,-0.7776179909706116,77.90935920043825,0.010712146759033203,142,0.00047407113,-0.0005142018,0.0006993904071532195,0.0002713435,-0.00019325387,0.0003331281360658486,0.0004034971,0.0005712592,-0.00013213171,-0.00030580317,4.085630416870117,103.91621398925781
1779201490.497323,6.453217267990112,hold-xy,15000,22.888532845044633,0.001898682,0.001261466,0.0,0.009603757,0.002097983,0.037206125,0.0032767043448984623,-0.010624416172504425,-0.6288254261016846,-0.7774671316146851,77.93765558390407,0.015957117080688477,143,0.00046535954,-0.000502808,0.0006851097779731326,0.00016422177,-0.000101640486,0.00019313098802867246,0.0003944575,0.0005601595,-6.507795e-05,-0.0001818363,4.080351829528809,103.82533264160156
1779201490.5593736,6.515267848968506,hold-xy,15000,22.888532845044633,0.0017055226,0.0012960602,0.0,0.009588128,0.0020944718,0.03720295,0.003032258478924632,-0.009719151072204113,-0.6285651326179504,-0.7776903510093689,77.89754971804477,0.01634812355041504,144,0.00044973008,-0.0005063191,0.0006772120574956928,3.8911297e-05,-8.823126e-05,9.64305157156333e-05,0.00040077523,0.00054588955,-7.81121e-05,-5.654507e-05,4.080351829528809,103.82533264160156
1779201490.6418006,6.5976948738098145,hold-xy,16000,24.414435034714273,0.0016891045,0.0013881093,0.0,0.009585438,0.0020784875,0.037233103,0.0030298989731818438,-0.009688287042081356,-0.6289417743682861,-0.7773861289024353,77.9530032802281,0.015443801879882812,145,0.00044704042,-0.0005223034,0.000687492530318461,1.7554901e-05,-0.00011930669,0.00012059129992301738,0.000417497,0.0005462071,-0.000113015216,-4.206926e-05,4.0750732421875,103.76800537109375
1779201490.7109869,6.666881084442139,hold-xy,16000,24.414435034714273,0.001663936,0.0011697153,0.0,0.009589104,0.0021025678,0.037209656,0.0034132767468690872,-0.010785872116684914,-0.6287720203399658,-0.7775074243545532,77.93007934578735,0.00054168701171875,146,0.0004507061,-0.0004982231,0.000671835000911596,2.5366415e-05,2.3959728e-06,2.5479319009736116e-05,0.000392964,0.0005449235,7.647255e-06,-2.4304634e-05,4.069794654846191,103.6404800415039
1779201490.8147562,6.770650386810303,hold-xy,16000,24.414435034714273,0.0016418564,0.0012630873,0.0,0.00958458,0.0020906143,0.03719359,0.0034138336777687073,-0.010163214057683945,-0.628598690032959,-0.7776559591293335,77.9032490399075,0.019259214401245117,147,0.00044618174,-0.00051017664,0.0006777598212771358,1.7978637e-06,-4.048605e-05,4.052594955409542e-05,0.00040534497,0.00054318854,-3.9210296e-05,-1.02423255e-05,4.069794654846191,103.58110046386719
1779201490.897638,6.853532314300537,hold-xy,16000,24.414435034714273,0.0015173572,0.0011268741,0.0,0.009571267,0.002111528,0.037176657,0.003414611564949155,-0.010043507441878319,-0.6286764144897461,-0.7775946259498596,77.91446474601956,0.010555744171142578,148,0.00043286942,-0.00048926286,0.0006532641657890122,-4.234777e-05,4.01656e-05,5.836616119678456e-05,0.00038778828,0.0005257132,3.0408952e-05,4.981872e-05,4.069794654846191,103.5701904296875
1779201490.9992049,6.955099105834961,hold-xy,16000,24.414435034714273,0.0017564099,0.0012191358,0.0,0.009600211,0.0020934986,0.03719026,0.0036557011771947145,-0.011357937008142471,-0.6289340853691101,-0.777367115020752,77.95513799897769,0.020293235778808594,149,0.00046181306,-0.00050729234,0.0006860151684175039,6.491345e-05,-3.078513e-05,7.184344490819427e-05,0.00039975403,0.0005575065,-1.6561404e-05,-6.9908514e-05,4.069794654846191,103.50911712646484
1779201491.0835812,7.039475440979004,hold-xy,16000,24.414435034714273,0.0014664264,0.0011881595,0.0,0.009563323,0.0021049948,0.037220158,0.0034970564302057028,-0.01053694263100624,-0.6287949681282043,-0.7774919867515564,77.93291312146074,0.012239694595336914,150,0.00042492524,-0.0004957961,0.0006529741257640358,-7.4287535e-05,1.5763819e-05,7.594166249173379e-05,0.0003960072,0.00051918544,-1.14825525e-07,7.594158e-05,4.069794654846191,103.50911712646484
1779201491.1707928,7.126687049865723,hold-xy,16000,24.414435034714273,0.0016805572,0.001327213,0.0,0.009585073,0.0020801006,0.037181884,0.003219378413632512,-0.009463089518249035,-0.6287232041358948,-0.7775649428367615,77.92030654047532,0.010445594787597656,151,0.00044667535,-0.00052069034,0.0006860301038229996,2.1308992e-05,-7.2873154e-05,7.592476348639279e-05,0.00041568428,0.0005457507,-6.680018e-05,-3.608747e-05,4.069794654846191,103.4559326171875
1779201491.2535505,7.209444761276245,hold-xy,16000,24.414435034714273,0.001765264,0.0014135994,0.0,0.009595649,0.0020615803,0.037195772,0.002920094644650817,-0.009087341837584972,-0.6288663744926453,-0.7774548530578613,77.94080769083928,0.0010650157928466797,152,0.00045725144,-0.0005392106,0.0007069844180536153,4.9351813e-05,-0.00011131279,0.00012176263194877329,0.00043178152,0.000559814,-9.854568e-05,-7.151843e-05,4.069794654846191,103.42192077636719
1779201491.3574333,7.3133275508880615,hold-xy,16000,24.414435034714273,0.0017494023,0.0012478471,0.0,0.009600712,0.002078849,0.037206717,0.002945236163213849,-0.009774181991815567,-0.6288111209869385,-0.7774910926818848,77.93393408935434,0.02020120620727539,153,0.0004623141,-0.00052194204,0.0006972501921384824,5.246794e-05,-1.678877e-05,5.508854295002384e-05,0.00041376904,0.0005612068,-5.4499915e-06,-5.4818294e-05,4.069794654846191,103.44863891601562
1779201491.4457474,7.401641607284546,hold-xy,17000,25.940337224383917,0.0016930047,0.0012947815,0.0,0.009593813,0.0020728381,0.037181385,0.0027651020791381598,-0.009682698175311089,-0.6286485195159912,-0.7776243686676025,77.90984506979463,0.013199090957641602,154,0.00045541488,-0.0005279528,0.000697235150588086,1.501276e-05,-3.067051e-05,3.414766823607306e-05,0.0004208555,0.0005558934,-2.6845786e-05,-2.110372e-05,4.069794654846191,103.45220184326172
1779201491.529676,7.485570192337036,hold-xy,17000,25.940337224383917,0.0017579071,0.001156069,0.0,0.009607291,0.0020881146,0.03718802,0.003440815256908536,-0.010774192400276661,-0.6286599040031433,-0.7775981426239014,77.9135212511817,0.012864112854003906,155,0.00046889298,-0.0005126763,0.0006947644212255235,5.8494443e-05,3.2918866e-05,6.712117197455768e-05,0.0004031312,0.00056584703,4.4437165e-05,-5.0304967e-05,4.059237480163574,103.38695526123047
1779201491.6115904,7.567484617233276,hold-xy,17000,25.940337224383917,0.0014224926,0.0012204294,0.0,0.009564353,0.0020908052,0.03719475,0.003803654108196497,-0.010859235189855099,-0.6289529800415039,-0.7773582339286804,77.9567831075166,0.013618946075439453,156,0.00042595528,-0.0005099857,0.0006644722377692725,-0.00011776968,3.2988763e-05,0.00012230272544417725,0.00040988586,0.00052298844,7.6901215e-06,0.000122060716,4.059237480163574,103.33853912353516
1779201491.673499,7.6293933391571045,hold-xy,17000,25.940337224383917,0.0019154751,0.0013852525,0.0,0.009614751,0.0020593824,0.03719839,0.003017287002876401,-0.009917368181049824,-0.6288842558860779,-0.7774299383163452,77.94497311883175,0.00403904914855957,157,0.00047635287,-0.00054140855,0.0007211347013720649,0.00012905331,-0.00010877288,0.0001687788427649763,0.00042998232,0.0005789218,-7.9421254e-05,-0.0001489247,4.059237480163574,103.33853912353516
1779201491.762901,7.718795299530029,hold-xy,17000,25.940337224383917,0.0017014123,0.0011193759,0.0,0.0096007455,0.0020937957,0.0371761,0.0038356075529009104,-0.011087357997894287,-0.6287315487861633,-0.7775338888168335,77.92462182442488,0.01687932014465332,158,0.00046234764,-0.00050699525,0.0006861556229533821,3.54591e-05,5.870436e-05,6.858242887099337e-05,0.0003990547,0.00055818,6.4823405e-05,-2.2393648e-05,4.059237480163574,103.3711929321289
1779201491.8444076,7.800301790237427,hold-xy,17000,25.940337224383917,0.0012929101,0.0008670137,0.0,0.00955235,0.0021448731,0.03716798,0.004205817356705666,-0.009476671926677227,-0.6285894513130188,-0.7776681780815125,77.90032421175118,0.0062983036041259766,159,0.0004139524,-0.0004559178,0.0006158064829256721,-0.00013283925,0.0002074917,0.0002463718174528082,0.0003590195,0.0005003225,0.0001750373,0.00017338112,4.059237480163574,103.33013153076172
1779201491.9491866,7.905080795288086,hold-xy,17000,25.940337224383917,0.0017604817,0.0013218092,0.0,0.009600719,0.0020730244,0.037170254,0.003636423498392105,-0.00970911979675293,-0.6287378668785095,-0.7775481939315796,77.9228063947605,0.008391857147216797,160,0.00046232156,-0.00052776653,0.0007016258166740312,4.8325157e-05,-6.4665044e-05,8.072724946617344e-05,0.000419354,0.0005625131,-5.312274e-05,-6.078538e-05,4.059237480163574,103.35871124267578
1779201492.0522244,8.008118629455566,hold-xy,17000,25.940337224383917,-0.00066772685,-0.0006000638,0.0,0.009319218,0.0024135616,0.037141766,0.008898275904357433,-0.01148960366845131,-0.6284966468811035,-0.7776765823364258,77.88887146327613,0.020133495330810547,161,0.00018082,-0.00018722937,0.00026028965519604583,-0.0008911887,0.0010737423,0.0013953995612403522,0.00014512453,0.0002160777,0.00086286454,0.0010966333,4.059237480163574,103.35673522949219
1779201492.1338193,8.08971357345581,hold-xy,17000,25.940337224383917,0.0011910774,0.00068040943,0.0,0.009496327,0.002232451,0.037146296,0.005685637705028057,-0.009689461439847946,-0.628457248210907,-0.7777630090713501,77.88075207225211,0.010185480117797852,162,0.0003579287,-0.00036833994,0.0005136022360997486,-4.3420354e-05,0.00015809305,0.0001639473726861922,0.0002849846,0.00042728332,0.00014545363,7.56438e-05,4.059237480163574,103.38751983642578
1779201492.238007,8.193901300430298,hold-xy,18000,27.466239414053558,0.0003565452,0.00039516174,0.0,0.009384202,0.0023066765,0.0371707,0.0074886237271130085,-0.011740955524146557,-0.6283189058303833,-0.7778312563896179,77.8638449355398,0.021673917770385742,163,0.00024580397,-0.00029411446,0.00038330523152239416,-0.0003932602,0.0003508789,0.0005270384925945486,0.00023586449,0.00030214374,0.00026035975,0.00045823836,4.059237480163574,103.39728546142578
1779201492.3430955,8.29898977279663,hold-xy,19000,28.9921416037232,-0.00030335155,-0.00027116653,0.0,0.009283455,0.0024494026,0.03713016,0.009422575123608112,-0.01203172281384468,-0.6285454630851746,-0.7776226997375488,77.89701005281638,0.021509170532226562,164,0.00014505722,-0.00015138835,0.00020966646967567908,-0.00056243746,0.0006524231,0.0008613894659166625,0.00011760925,0.00017357446,0.0005199952,0.0006867291,4.048680305480957,103.35102844238281
1779201492.4060552,8.361949443817139,hold-xy,19000,28.9921416037232,0.0014073531,0.001004915,0.0,0.009441009,0.002269606,0.037147094,0.007426546420902014,-0.012667028233408928,-0.6283952593803406,-0.7777556777000427,77.87727120995065,0.006722688674926758,165,0.00030261092,-0.00033118483,0.0004486165040384357,0.00021424811,-0.0002370867,0.00031955023447256126,0.0002602492,0.00036541364,-0.0001868062,-0.00025926012,4.043401718139648,103.32843017578125
1779201492.509476,8.465370178222656,hold-xy,20000,30.518043793392845,0.001963515,0.0014292506,0.0,0.009517439,0.002180933,0.037144687,0.005598555784672499,-0.01152928825467825,-0.6284144520759583,-0.7777730822563171,77.87822268198148,0.019190311431884766,166,0.00037904084,-0.0004198579,0.0005656435441738805,0.00040207032,-0.00045844028,0.0006097770386008314,0.0003309017,0.0004587556,-0.00036378784,-0.0004893735,4.03812313079834,103.29916381835938
1779201492.5904796,8.546373844146729,hold-xy,20000,30.518043793392845,0.0008999043,0.00060599117,0.0,0.00941335,0.0023054313,0.037129134,0.006654475815594196,-0.008953828364610672,-0.6286094188690186,-0.7776411771774292,77.9015490006597,0.008730411529541016,167,0.0002749525,-0.00029535964,0.0004035296608687024,-5.9959944e-05,8.7445485e-05,0.00010602786355043124,0.00023117149,0.00033075054,7.293609e-05,7.695606e-05,4.032844543457031,103.24117279052734
1779201492.6718795,8.627773761749268,hold-xy,20000,30.518043793392845,0.0022434485,0.0013371067,0.0,0.009556109,0.0021843882,0.0371758,0.004316986072808504,-0.009466861374676228,-0.6285244226455688,-0.7777203321456909,77.89069024364254,0.017772912979125977,168,0.0004177112,-0.0004164027,0.0005898083409348687,0.0005499178,-0.00044064302,0.000704681392454976,0.00031951102,0.0004957687,-0.000315478,-0.00063011865,4.032844543457031,103.24117279052734
1779201492.759737,8.715631246566772,hold-xy,21000,32.043945983062486,0.0007156143,0.0001874931,0.0,0.009411795,0.0023603505,0.037128963,0.007620318327099085,-0.010248706676065922,-0.6285572648048401,-0.7776584625244141,77.89582886602545,0.02206873893737793,169,0.0002733972,-0.00024044048,0.00036408468667551536,-0.00013316848,0.00032328305,0.0003496366395576947,0.0001777664,0.0003177369,0.00028817172,0.00019799703,4.032844543457031,103.13735961914062
1779201492.8243206,8.780214786529541,hold-xy,21000,32.043945983062486,0.002093759,0.00154871,0.0,0.009549702,0.0021557072,0.037141867,0.0052418471314013,-0.009961527772247791,-0.628442108631134,-0.7777749300003052,77.87918482069607,0.0038869380950927734,170,0.0004113037,-0.00044508372,0.0006060282787437576,0.00040665263,-0.00051547337,0.0006565661980016145,0.00034879846,0.00049559044,-0.00041859556,-0.000505823,4.022287368774414,103.1258544921875
1779201492.9064121,8.862306356430054,hold-xy,22000,33.56984817273213,0.0025880411,0.001957308,0.0,0.00961465,0.0020739976,0.037211232,0.0035271099768579006,-0.011057878844439983,-0.6287684440612793,-0.7775059342384338,77.93009971311562,0.019402503967285156,171,0.0004762523,-0.0005267933,0.0007101601448772493,0.00057732343,-0.0007290252,0.0009299355535329894,0.0004155609,0.00057587895,-0.00059218775,-0.0007170034,4.022287368774414,103.05073547363281
1779201492.988551,8.944445133209229,hold-xy,22000,33.56984817273213,0.00056799,0.00066117337,0.0,0.009392742,0.0022854246,0.037121397,0.007660052739083767,-0.012027902528643608,-0.6282256245613098,-0.7779005765914917,77.85067212072032,0.005507946014404297,172,0.0002543442,-0.0003153663,0.00040515044459176207,-0.0002890957,0.00015016238,0.00032576843216831257,0.0002547735,0.00031501957,8.5955944e-05,0.00031422387,4.011730194091797,102.97972106933594
1779201493.0897799,9.045674085617065,hold-xy,23000,35.09575036240177,0.0011112563,0.0008605928,0.0,0.009447012,0.002249469,0.0371124,0.006311226170510054,-0.00969399232417345,-0.6282834410667419,-0.7778985500335693,77.85493266631129,0.0188596248626709,173,0.00030861422,-0.00035132188,0.00046762143999956325,-1.7097133e-05,-1.7633327e-05,2.456107031940532e-05,0.00027853,0.0003756206,-2.0835683e-05,1.3004631e-05,4.006451606750488,102.93791961669922
1779201493.1708293,9.126723527908325,hold-xy,23000,35.09575036240177,0.0020036981,0.0016665466,0.0,0.009548815,0.0021069488,0.03718808,0.004489886574447155,-0.010805778205394745,-0.6288369297981262,-0.7774491310119629,77.9393277751178,0.006976127624511719,174,0.0004104171,-0.0004938422,0.0006421232476866883,0.00031666536,-0.000472418,0.0005687316664647079,0.00039718597,0.00050454494,-0.00039582388,-0.00040838608,4.006451606750488,102.93791961669922
1779201493.2785013,9.234395503997803,hold-xy,24000,36.62165255207141,0.0019118675,0.0016692597,0.0,0.009552563,0.0020833137,0.037188478,0.003922322764992714,-0.009585217572748661,-0.6289745569229126,-0.7773569226264954,77.95737598290044,0.011075735092163086,175,0.00041416474,-0.0005174773,0.0006628085383228092,0.00023252089,-0.00039915228,0.00046193993474451,0.0004196779,0.00051301613,-0.000341855,-0.00031068258,4.006451606750488,102.91326904296875
1779201493.3640323,9.319926500320435,hold-xy,24000,36.62165255207141,0.0006485606,0.0010059524,0.0,0.009402189,0.002197275,0.037149437,0.007526975590735674,-0.01259880792349577,-0.6287645697593689,-0.7774572372436523,77.93149563516576,0.0004177093505859375,176,0.00026379153,-0.000403516,0.0004820903849100051,-0.00030622823,7.602261e-05,0.00031552363760721183,0.0003394438,0.00034232883,1.031586e-05,0.00031535496,3.995894432067871,102.86292266845703
1779201493.4657154,9.42160964012146,hold-xy,24000,36.62165255207141,0.00039387483,0.00051405537,0.0,0.009367291,0.0022738548,0.03712769,0.008642388507723808,-0.01345771923661232,-0.6290287971496582,-0.777217447757721,77.97205949071447,0.019087553024291992,177,0.00022889301,-0.00032693613,0.0003990980314249925,-0.0003404788,0.0003299662,0.00047413445988304405,0.0002720599,0.00029199768,0.00025177025,0.00040176517,3.995894432067871,102.77535247802734
1779201493.5479019,9.503796100616455,hold-xy,25000,38.147554741741054,0.0029511666,0.0025167828,0.0,0.009651389,0.0019300189,0.037251353,0.0035139801912009716,-0.012853062711656094,-0.6289769411087036,-0.777309775352478,77.96508624514401,0.009014606475830078,178,0.0005129911,-0.00067077205,0.000844449527957089,0.0006854669,-0.00088707526,0.0011210563789620033,0.0005490664,0.00064157706,-0.00072465284,-0.00085536286,3.995894432067871,102.71061706542969
1779201493.6496453,9.605539560317993,hold-xy,25000,38.147554741741054,0.0019171123,0.0021100594,0.0,0.009547524,0.001975255,0.03721964,0.005065951496362686,-0.011439536698162556,-0.6293147206306458,-0.7770498394966125,78.01094443902487,0.008648395538330078,179,0.00040912628,-0.00062553585,0.0007474485956801408,0.00017467016,-0.00048804795,0.0005183632519695788,0.0005269055,0.00053014146,-0.000441119,-0.00027223982,3.985337257385254,102.71047973632812
1779201493.7311916,9.6870858669281,hold-xy,25000,38.147554741741054,0.0019202202,0.0019280862,0.0,0.009561478,0.0019753808,0.037198685,0.006410323083400726,-0.011073232628405094,-0.6291298270225525,-0.7771949768066406,77.98237299331542,0.007463693618774414,180,0.0004230803,-0.0006254101,0.0007550726563230324,0.00017286927,-0.00034117766,0.00038247348928272245,0.0005236127,0.00054402614,-0.00029770672,-0.0002401181,3.985337257385254,102.64569854736328
1779201493.8150308,9.770925045013428,hold-xy,25000,38.147554741741054,0.003599401,0.003059472,0.0,0.009761609,0.0017590951,0.037273575,0.003887564642354846,-0.010516953654587269,-0.628649890422821,-0.7776076197624207,77.91136094627555,0.007915973663330078,181,0.00062321126,-0.0008416958,0.0010473032656248148,0.00084101723,-0.0010169527,0.0013196600807372926,0.0006925152,0.0007856633,-0.0008182718,-0.0010353425,3.985337257385254,102.63019561767578
1779201493.8970528,9.852946996688843,hold-xy,26000,39.6734569314107,0.0018387458,0.0015973755,0.0,0.009623053,0.0019373884,0.037191503,0.008243010379374027,-0.010145741514861584,-0.6286116242408752,-0.7776094675064087,77.90339589946343,0.01839900016784668,182,0.00048465468,-0.0006634025,0.0008215795957390906,7.672061e-06,3.5809993e-05,3.6622617849506186e-05,0.00054710754,0.0006129163,3.6622616e-05,2.6557245e-09,3.985337257385254,102.62867736816406
1779201493.9781654,9.934059619903564,hold-xy,26000,39.6734569314107,0.0003860577,0.0008770231,0.0,0.009452123,0.00207505,0.037155308,0.010653785429894924,-0.007916252128779888,-0.6280274987220764,-0.7780779600143433,77.8127483033351,0.018053054809570312,183,0.00031372532,-0.0005257409,0.0006122312435541788,-0.00062413735,0.0005320545,0.0008201398819318301,0.0004476625,0.00041764262,0.0003883036,0.0007223917,3.9747800827026367,102.62867736816406
1779201494.0392034,9.995097637176514,hold-xy,26000,39.6734569314107,0.0013944409,0.0014834302,0.0,0.0095313545,0.001998257,0.03717433,0.009704462252557278,-0.00910571776330471,-0.6280986666679382,-0.778019905090332,77.82539370703452,0.006997346878051758,184,0.00039295666,-0.00060253404,0.0007193484436104827,-0.00010719473,5.2882737e-05,0.00011952947294585999,0.0005061115,0.0005111882,2.908691e-05,0.00011593639,3.9747800827026367,102.5545425415039
1779201494.1216328,10.077527046203613,hold-xy,26000,39.6734569314107,0.00019888661,0.0010809279,0.0,0.009379635,0.002088123,0.037067782,0.012939532287418842,-0.01090404111891985,-0.6281996965408325,-0.7778681516647339,77.84197236845122,0.007525920867919922,185,0.00024123676,-0.00051266793,0.0005665894509434016,-0.00063078123,0.00036619446,0.0007293718847498764,0.00045036245,0.00034379825,0.00022513284,0.0006937568,3.9747800827026367,102.53465270996094
1779201494.224502,10.180396318435669,hold-xy,26000,39.6734569314107,0.0036611643,0.0032480843,0.0,0.009770466,0.0016956078,0.0372174,0.0045631397515535355,-0.010615133680403233,-0.6283577084541321,-0.7778387069702148,77.86828036452653,0.018460988998413086,186,0.00063206814,-0.00090518314,0.001104022916672749,0.0008338155,-0.001024521,0.0013209434151205581,0.0007521324,0.0008081853,-0.0008264058,-0.001030507,3.969501495361328,102.57952117919922
1779201494.3075335,10.263427734375,hold-xy,27000,41.19935912108034,0.0012145552,0.0014984191,0.0,0.009521767,0.0019627232,0.037107237,0.01119372807443142,-0.00956891942769289,-0.6277899146080017,-0.7782434821128845,77.78004298370637,0.01019287109375,187,0.0003833687,-0.0006380677,0.0007443802611525982,-0.00023352756,0.00016054657,0.0002833907709394319,0.0005424647,0.00050973915,0.00010747927,0.00026221847,3.969501495361328,102.6061782836914
1779201494.4134045,10.369298696517944,hold-xy,27000,41.19935912108034,0.0017611245,0.0017558605,0.0,0.009579564,0.0019173697,0.03720144,0.008945074863731861,-0.00886253546923399,-0.6276687979698181,-0.7783786058425903,77.76199560950185,0.022156476974487305,188,0.00044116657,-0.00068342127,0.0008134448854200758,2.1174026e-05,-3.2505573e-05,3.879370720620014e-05,0.00057437544,0.0005760082,-2.7278576e-05,-2.7583163e-05,3.9642229080200195,102.66568756103516
1779201494.499897,10.455791234970093,hold-xy,27000,41.19935912108034,0.0030387933,0.002167262,0.0,0.009754421,0.0018162159,0.03719437,0.005099114030599594,-0.01210824865847826,-0.6284002661705017,-0.777779221534729,77.87765309401301,0.011812925338745117,189,0.0006160233,-0.000784575,0.0009975182619463123,0.0005565313,-0.0003361301,0.0006501619134518343,0.0006377153,0.0007670476,-0.00021176334,-0.0006147087,3.9642229080200195,102.58345031738281
1779201494.583509,10.539403200149536,hold-xy,27000,41.19935912108034,0.0013627213,0.00086482405,0.0,0.00959,0.0020288695,0.037178647,0.006599229294806719,-0.010045943781733513,-0.6287567019462585,-0.7775092124938965,77.92522722450838,0.007162332534790039,190,0.00045160204,-0.00057192147,0.0007287239591519688,-0.00016928776,0.0004875076,0.0005160639676052796,0.00046479818,0.0005612497,0.00044130872,0.0002675231,3.9642229080200195,102.5776138305664
1779201494.664652,10.620546340942383,hold-xy,28000,42.72526131074998,0.0029868644,0.001267271,0.0,0.009790432,0.0019514561,0.03722995,0.004160905722528696,-0.01134510152041912,-0.6287816762924194,-0.7774879932403564,77.93246569910767,0.0026121139526367188,191,0.00065203384,-0.00064933486,0.0009202086204863045,0.00058318116,7.024227e-05,0.0005873961505027431,0.0004986687,0.00077337795,0.00019061251,-0.00055560877,3.9642229080200195,102.5776138305664
1779201494.7715843,10.727478504180908,hold-xy,28000,42.72526131074998,0.0030439936,0.00040789082,0.0,0.009857218,0.002079715,0.037229955,0.0025724510196596384,-0.00835005845874548,-0.6295791864395142,-0.7768871784210205,78.04473710368613,0.01226043701171875,192,0.0007188199,-0.0005210759,0.000887818769033273,0.000614179,0.0004446894,0.0007582641190598745,0.00036087155,0.0008111682,0.0005622698,-0.0005087408,3.9536657333374023,102.54248809814453
1779201494.876899,10.832793235778809,hold-xy,29000,44.25116350041962,0.0038535101,0.00025545596,0.0,0.0100223515,0.0021026088,0.037219815,0.0044769104570150375,-0.010841066017746925,-0.6299098134040833,-0.776579737663269,78.09765104189832,0.00952768325805664,193,0.00088395365,-0.00049818214,0.0010146721070264841,0.00088842853,0.00037484843,0.000964269994306366,0.00030516108,0.00096769637,0.0005500227,-0.00079201744,3.9536657333374023,102.47623443603516
1779201494.9579904,10.91388463973999,hold-xy,29000,44.25116350041962,0.0043808785,-0.000833387,0.0,0.010164825,0.002250243,0.037208732,0.0043920367024838924,-0.01158924587070942,-0.6305403709411621,-0.7760574817657471,78.19241112125268,0.009610652923583984,194,0.0010264274,-0.00035054795,0.0010846368429502885,0.0011495255,0.00080913026,0.0014057385062395662,0.00013309706,0.0010764396,0.0010272318,-0.0009596331,3.9536657333374023,102.37126159667969
1779201494.9999561,10.95585036277771,hold-xy,29000,44.25116350041962,0.00566768,-0.005703491,0.0,0.010431314,0.0027245963,0.037125546,0.008942151442170143,-0.009765200316905975,-0.6294459104537964,-0.7769314646720886,78.02543413191262,0.0006372928619384766,195,0.001292916,0.00012380537,0.001298830064180211,0.0023741229,0.0033600419,0.004114163380596722,-0.00038936228,0.0012390951,0.0037795035,-0.0016253286,3.943108558654785,102.23748016357422
1779201495.1074803,11.063374519348145,hold-xy,29000,44.25116350041962,0.006895218,-0.0053848256,0.0,0.010722244,0.0028201314,0.03716072,0.007041331846266985,-0.007407495751976967,-0.6298953890800476,-0.7766128182411194,78.08872801672831,0.014005899429321289,196,0.0015838463,0.00021934044,0.0015989619107132683,0.002588853,0.002656425,0.0037092791988347674,-0.0005415183,0.0015044725,0.0031335587,-0.0019848337,3.943108558654785,102.14617156982422
1779201495.1912954,11.147189617156982,hold-xy,30000,45.777065690089266,0.0055098673,-0.0058521996,0.0,0.010679169,0.0030479692,0.037187804,0.01048205979168415,-0.0048701101914048195,-0.6292514204978943,-0.7771158814430237,77.98998243523604,0.016180038452148438,197,0.0015407708,0.00044717826,0.0016043511977100054,0.0016539106,0.0026967162,0.0031634946846848437,-0.0007579978,0.001413995,0.0029818385,-0.0010565685,3.932551383972168,102.11980438232422
1779201495.2524574,11.208351612091064,hold-xy,30000,45.777065690089266,0.008119761,-0.003128067,0.0,0.011006433,0.00276447,0.03727919,0.006055930163711309,-0.006053217686712742,-0.6292684078216553,-0.7771409749984741,77.99486230112494,0.0036809444427490234,198,0.0018680347,0.00016367901,0.0018751918168333217,0.0024905875,0.0007330921,0.0025962377235166623,-0.00054864923,0.0017931338,0.0012350993,-0.0022836332,3.932551383972168,102.11980438232422
1779201495.3550644,11.310958623886108,hold-xy,31000,47.30296787975891,0.011386326,-0.00055596465,0.0,0.011517707,0.002324935,0.03769657,0.00814180076122284,-0.0021906958427280188,-0.6254659295082092,-0.780206024646759,77.43217036072478,0.014462947845458984,199,0.0023793094,-0.00027585588,0.0023952472625707786,0.0034137885,-0.00092283287,0.003536321968904402,-0.00024848027,0.0023823238,-0.00015789684,-0.0035327952,3.932551383972168,102.12078857421875
1779201495.4386044,11.394498586654663,hold-xy,31000,47.30296787975891,0.014221309,0.0042313216,0.0,0.011937195,0.0014940938,0.038959462,0.00652494840323925,-1.6015255823731422e-05,-0.6221824288368225,-0.7828450798988342,76.95092473535288,0.0056231021881103516,200,0.0027987976,-0.0011066971,0.0030096587994645255,0.0037519243,-0.0033441093,0.0050259329557616386,0.00044619088,0.0029764003,-0.002410624,-0.00441009,3.921994209289551,102.15714263916016
