wall_time_s,elapsed_s,mode,thrust_raw,thrust_percent,roll_cmd_deg,pitch_cmd_deg,yawrate_cmd_deg_s,mocap_x,mocap_y,mocap_z,mocap_qx,mocap_qy,mocap_qz,mocap_qw,yaw_deg,mocap_age_s,mocap_frame_count,drift_x_m,drift_y_m,horizontal_drift_m,velocity_x_m_s,velocity_y_m_s,horizontal_speed_m_s,body_error_x_m,body_error_y_m,body_velocity_x_m_s,body_velocity_y_m_s,battery_v,estimate_z
1779207090.899473,0.0006318092346191406,hold-xy,0,0.0,0.0,-0.0,0.0,0.009040831,-0.0011398448,0.037803076,-0.003462396562099457,0.016832930967211723,-0.6552016139030457,-0.7552585601806641,81.89901391441539,0.005452871322631836,199,0.0,0.0,0.0,0.0,0.0,0.0,0.0,0.0,0.0,0.0,4.085630416870117,109.81671905517578
1779207090.9216027,0.02276158332824707,hold-xy,0,0.0,0.0072052996,-0.0007729942,0.0,0.009098991,-0.0011546127,0.037853654,-0.0035919793881475925,0.016066500917077065,-0.6550673246383667,-0.7553911209106445,81.87595554343996,0.01712656021118164,200,5.8160163e-05,-1.4767982e-05,6.0005816068228e-05,0.0016686982,-0.0004237145,0.0017216525697552002,6.4007754e-06,5.9663456e-05,-0.00018364738,-0.0017118297,4.085630416870117,109.81671905517578
1779207090.9686463,0.06980514526367188,hold-xy,0,0.0,0.003682286,0.0012349095,0.0,0.009072214,-0.0011105342,0.037840296,-0.0032654190436005592,0.015917422249913216,-0.655164361000061,-0.7553116083145142,81.89027962110238,0.03330349922180176,201,3.1383708e-05,2.9310584e-05,4.294237383143314e-05,0.00090784195,0.00013180988,0.0009173608031922679,-3.3444743e-05,2.6935042e-05,0.00025856026,-0.0008801689,4.085630416870117,109.81671905517578
1779207090.9890883,0.09024715423583984,hold-xy,0,0.0,0.0021195642,0.0016688108,0.0,0.00905885,-0.0010832902,0.037822887,-0.0031805040780454874,0.016184277832508087,-0.6551220417022705,-0.7553431391716003,81.88478393715303,0.003019571304321289,203,1.801923e-05,5.6554563e-05,5.9355801200565944e-05,0.00055645005,0.00025339148,0.0006114277348696743,-5.8531907e-05,9.85531e-06,0.00032940487,-0.0005151081,4.085630416870117,109.8119888305664
1779207091.0317993,0.13295817375183105,hold-xy,0,0.0,0.0030645411,1.811405e-05,0.0,0.0090974495,-0.0011245022,0.03783136,-0.0030057295225560665,0.01514201145619154,-0.6552011370658875,-0.7552967071533203,81.893411198901,0.005053043365478516,204,5.6618825e-05,1.5342608e-05,5.8660778812792615e-05,0.00067419,-0.00012656728,0.0006859675013770674,-2.3173405e-05,5.388952e-05,-3.0231597e-05,-0.000685301,4.085630416870117,109.8119888305664
1779207091.0724323,0.17359113693237305,hold-xy,0,0.0,0.0013608988,0.0009458234,0.0,0.009081032,-0.0011023693,0.03785848,-0.003405658295378089,0.015890633687376976,-0.6551476120948792,-0.7553260326385498,81.88760581200111,0.01529240608215332,205,4.020147e-05,3.747549e-05,5.495971670616005e-05,0.0003098855,0.00012986548,0.0003359971294229666,-4.2773525e-05,3.451081e-05,0.00017229555,-0.0002884585,4.085630416870117,109.8100357055664
1779207091.092958,0.19411683082580566,hold-xy,0,0.0,0.00088834873,-0.0012108966,0.0,0.009074887,-0.0011317218,0.037842534,-0.003054772038012743,0.015490815974771976,-0.655124843120575,-0.7553556561470032,81.88294185654868,0.01553487777709961,206,3.4056604e-05,8.1229955e-06,3.501192955431159e-05,0.0001260339,-0.0003432337,0.00036564178697472697,-1.28502725e-05,3.2568478e-05,-0.00032199957,-0.00017323447,4.085630416870117,109.8100357055664
1779207091.1370873,0.23824620246887207,hold-xy,0,0.0,-0.000901676,-0.001671805,0.0,0.009016605,-0.0011530202,0.037807874,-0.002948810812085867,0.015929941087961197,-0.6552656888961792,-0.7552247047424316,81.90579210046918,0.007300376892089844,207,-2.4225563e-05,-1.31754205e-05,2.7576612848567824e-05,-0.000245683,-0.0003622852,0.00043773362188902394,1.6455153e-05,-2.2129112e-05,-0.00039326854,0.00019222533,4.085630416870117,109.8100357055664
1779207091.1582942,0.25945305824279785,hold-xy,0,0.0,0.0007043079,0.0010510591,0.0,0.009044344,-0.0011194134,0.037819512,-0.003146345494315028,0.015833398327231407,-0.6550368666648865,-0.7554245591163635,81.87069319167571,0.006502628326416016,208,3.5129488e-06,2.0431355e-05,2.073116118520022e-05,0.00020619518,0.00020457871,0.00029046326192436645,-2.0722806e-05,5.8849946e-07,0.00023168056,-0.00017519423,4.085630416870117,109.8161392211914
1779207091.2039382,0.3050971031188965,hold-xy,0,0.0,0.0006041472,0.00060768233,0.0,0.009046856,-0.0011246782,0.03784865,-0.0033310505095869303,0.016169473528862,-0.6550821661949158,-0.7553772330284119,81.87863560552528,0.009337902069091797,209,6.025657e-06,1.5166588e-05,1.6319741262969992e-05,0.00016194546,0.00010631008,0.0001937218719911072,-1.586573e-05,3.8226362e-06,0.00012812199,-0.00014530285,4.085630416870117,109.8161392211914
1779207091.2261453,0.3273041248321533,hold-xy,0,0.0,0.001792447,-0.0010328074,0.0,0.009064598,-0.001150595,0.03786236,-0.0034257820807397366,0.01653340272605419,-0.655133843421936,-0.755324125289917,81.88769437666919,0.010929346084594727,211,2.3767352e-05,-1.07502565e-05,2.6085532880486527e-05,0.00037154078,-0.0003027275,0.0004792561862387706,7.2887806e-06,2.5046531e-05,-0.00024726868,-0.00041054195,4.085630416870117,109.8161392211914
1779207091.2472172,0.3483760356903076,hold-xy,0,0.0,0.0016483569,-0.0008919285,0.0,0.0090706935,-0.0011544274,0.03784861,-0.003646277356892824,0.01712057553231716,-0.6551792025566101,-0.7552706599235535,81.89657685778603,0.006486415863037109,212,2.9862858e-05,-1.4582649e-05,3.323317590473524e-05,0.00033174868,-0.00025697,0.00041963170171057924,1.0227564e-05,3.162026e-05,-0.00020764078,-0.00036465883,4.080351829528809,109.79488372802734
1779207091.267519,0.36867785453796387,hold-xy,0,0.0,0.0016105581,0.0005510266,0.0,0.0090816,-0.0011326605,0.037837874,-0.0031025647185742855,0.015623794868588448,-0.655250072479248,-0.7552440762519836,81.90236335362455,0.0005388259887695312,213,4.0769577e-05,7.1842223e-06,4.139772286102683e-05,0.0003568751,6.889085e-05,0.0003634635914550097,-1.2855411e-05,3.935111e-05,0.00011847353,-0.00034361286,4.080351829528809,109.79488372802734
1779207091.3079398,0.40909862518310547,hold-xy,0,0.0,-0.00045381702,0.001196616,0.0,0.009047886,-0.001110266,0.037843157,-0.0031860764138400555,0.015905456617474556,-0.6552051901817322,-0.7552767395973206,81.89645860571191,0.010361433029174805,214,7.0557e-06,2.9578805e-05,3.0408692893073925e-05,-8.073548e-05,0.0002677915,0.0002796971693049994,-3.0278048e-05,2.8157488e-06,0.00025373691,0.000117677875,4.080351829528809,109.79488372802734
1779207091.328158,0.42931675910949707,hold-xy,0,0.0,-0.000101307436,-0.00039750658,0.0,0.009048389,-0.0011341367,0.037826058,-0.003087226301431656,0.016731971874833107,-0.6553177237510681,-0.755161702632904,81.91639780821092,0.005957365036010742,216,7.558614e-06,5.708076e-06,9.47178849393394e-06,-5.0387265e-05,-0.00010338993,0.00011501458347472717,-6.714237e-06,6.680854e-06,-0.000109447996,3.534814e-05,4.080351829528809,109.79488372802734
1779207091.369498,0.4706568717956543,hold-xy,0,0.0,-0.0005069954,0.00086333184,0.0,0.009039478,-0.0010971427,0.037855983,-0.0033882828429341316,0.016176456585526466,-0.6552258729934692,-0.7552521824836731,81.90044704880681,0.0010275840759277344,218,-1.3522804e-06,4.270207e-05,4.2723478104527374e-05,-9.3046634e-05,0.00016748495,0.00019159562376111773,-4.208558e-05,-7.3552355e-06,0.00015270458,0.00011571601,4.080351829528809,109.8043212890625
1779207091.3899145,0.4910733699798584,hold-xy,0,0.0,0.0013345327,-0.00047623325,0.0,0.009062847,-0.0011183983,0.037863303,-0.0034267876762896776,0.016392914578318596,-0.6551422476768494,-0.7553199529647827,81.88848515324537,0.0011589527130126953,219,2.2016466e-05,2.1446496e-05,3.0735598307003635e-05,0.00028047146,-0.00019711262,0.0003428084441863759,-2.4338458e-05,1.8770092e-05,-0.000155566,-0.00030547805,4.080351829528809,109.8043212890625
1779207091.430456,0.5316147804260254,hold-xy,0,0.0,-0.0009697121,-0.00011729932,0.0,0.0090149995,-0.0011071684,0.037850566,-0.0035898543428629637,0.016728173941373825,-0.6549109816551208,-0.7555123567581177,81.85450937713152,0.005968332290649414,220,-2.5831163e-05,3.2676384e-05,4.165327161854913e-05,-0.00020539048,-4.3694614e-05,0.0002099868251690614,-2.8686783e-05,-3.0200392e-05,-7.2355004e-05,0.00019712743,4.080351829528809,109.8043212890625
1779207091.452012,0.553170919418335,hold-xy,0,0.0,-0.00019971267,-0.001177287,0.0,0.009020818,-0.001126402,0.03785131,-0.003143386449664831,0.015766380354762077,-0.6552053093910217,-0.7552797794342041,81.89602810311935,0.006459712982177734,221,-2.001226e-05,1.344271e-05,2.4108027282054074e-05,-6.0901686e-05,-0.0003045083,0.00031053878066311836,-1.0487344e-05,-2.1707432e-05,-0.00031005277,1.736702e-05,4.080351829528809,109.81989288330078
1779207091.4730961,0.5742549896240234,hold-xy,0,0.0,0.0023443722,5.765882e-05,0.0,0.009067889,-0.0011174278,0.03782565,-0.0034403603058308363,0.01607179269194603,-0.6553463935852051,-0.7551496028900146,81.91836729486599,0.003377676010131836,222,2.7058646e-05,2.2416934e-05,3.513814508105775e-05,0.0005417109,-0.000101749065,0.000551183767790544,-2.5998315e-05,2.3638462e-05,-2.4582769e-05,-0.00055063533,4.080351829528809,109.81989288330078
1779207091.4958723,0.5970311164855957,hold-xy,0,0.0,-0.0032048787,-0.0024360905,0.0,0.009025907,-0.0011320617,0.037795793,-0.0027165489736944437,0.01544725988060236,-0.6553385257720947,-0.7551724314689636,81.91532296872563,0.015961647033691406,223,-1.4923513e-05,7.783063e-06,1.6831141086583885e-05,-0.0008565221,-0.0005019636,0.0009927726730921233,-5.6069193e-06,-1.5869775e-05,-0.000617433,0.000777415,4.080351829528809,109.81989288330078
1779207091.517512,0.6186709403991699,hold-xy,0,0.0,-0.0017104232,-0.0014472019,0.0,0.009039113,-0.0011283197,0.037821706,-0.002957169897854328,0.015228211879730225,-0.6551928520202637,-0.755302369594574,81.89244278620197,0.006597280502319336,225,-1.7173588e-06,1.1525117e-05,1.1652366246045184e-05,-0.00047178124,-0.00031516596,0.0005673685955176747,-1.1167722e-05,-3.325602e-06,-0.00037855207,0.0004226174,4.080351829528809,109.81989288330078
1779207091.5386775,0.639836311340332,hold-xy,0,0.0,-0.0028321987,-0.001369936,0.0,0.009013295,-0.001130552,0.03780687,-0.002463321201503277,0.01450100913643837,-0.6552725434303284,-0.7552493214607239,81.90240229524636,0.007254838943481445,226,-2.7535483e-05,9.292737e-06,2.9061275902179567e-05,-0.00070792914,-0.0002532727,0.000751871464803059,-5.321443e-06,-2.8569915e-05,-0.00035046617,0.0006651948,4.080351829528809,109.77801513671875
1779207091.5620828,0.6632416248321533,hold-xy,0,0.0,-0.0032793311,0.0010896139,0.0,0.009005582,-0.001112652,0.037823178,-0.0028902124613523483,0.015689123421907425,-0.6552096009254456,-0.7552786469459534,81.89649903997095,0.020367860794067383,227,-3.5248697e-05,2.7192757e-05,4.451872225043125e-05,-0.00072037533,0.00034445943,0.0007984941481910426,-2.1952521e-05,-3.872988e-05,0.00023947468,0.000761738,4.080351829528809,109.77801513671875
1779207091.6027334,0.7038922309875488,hold-xy,0,0.0,2.4444336e-05,-0.0006369482,0.0,0.009070451,-0.0011654943,0.037845645,-0.003260607598349452,0.015553130768239498,-0.6549968719482422,-0.755464494228363,81.86366873899323,0.017122983932495117,228,2.9620714e-05,-2.5649555e-05,3.918273015631016e-05,-6.091816e-05,-0.00012002475,0.00013459926505261205,2.119918e-05,3.295271e-05,-0.00012743828,4.331798e-05,4.080351829528809,109.77801513671875
1779207091.6440585,0.7452173233032227,hold-xy,0,0.0,-0.00041037306,-0.00084727124,0.0,0.009052248,-0.0011754138,0.037843037,-0.003690337995067239,0.016780581325292587,-0.6549363136291504,-0.7554886937141418,81.85850298921413,0.006947517395019531,230,1.1417083e-05,-3.556907e-05,3.735650824943892e-05,-0.00014868214,-0.0001418003,0.0002054597351200208,3.3593715e-05,1.6339243e-05,-0.00016142723,0.00012710213,4.080351829528809,109.81130981445312
1779207091.6650324,0.7661912441253662,hold-xy,0,0.0,0.0019494317,0.0015440796,0.0,0.0090918075,-0.0011458714,0.037848376,-0.003064839169383049,0.015586687251925468,-0.6551162600517273,-0.7553610801696777,81.88194902121279,0.006901264190673828,231,5.0976872e-05,-6.0265884e-06,5.133187469998554e-05,0.00046051998,0.00032237024,0.0005621398452759763,-1.2324067e-06,5.1317074e-05,0.0003841713,-0.00041038232,4.080351829528809,109.81130981445312
1779207091.685366,0.786524772644043,hold-xy,0,0.0,0.0009309994,0.000893165,0.0,0.009083413,-0.0011476092,0.037833154,-0.00359131395816803,0.016618605703115463,-0.6552163362503052,-0.7552499771118164,81.9004560042548,0.006981372833251953,232,4.258193e-05,-7.764436e-06,4.328403111147672e-05,0.00019801548,0.00019991762,0.00028138440596515784,1.6874737e-06,4.3251126e-05,0.00022582246,-0.00016787316,4.080351829528809,109.81130981445312
1779207091.7061763,0.8073351383209229,hold-xy,0,0.0,-0.0013723347,0.0029978005,0.0,0.009056494,-0.00110678,0.03784268,-0.0028091997373849154,0.01519465446472168,-0.6552138924598694,-0.755285382270813,81.89557085495014,0.0074040889739990234,233,1.5662983e-05,3.3064745e-05,3.6586969495805236e-05,-0.00025749585,0.00074073527,0.0007842147754330853,-3.4942652e-05,1.08451595e-05,0.00069703616,0.0003593514,4.080351829528809,109.81130981445312
1779207091.7269306,0.8280894756317139,hold-xy,0,0.0,-0.0008373731,0.00095271494,0.0,0.009055428,-0.0011257688,0.037838507,-0.002639773301780224,0.014837302267551422,-0.6553210020065308,-0.755200207233429,81.91074509348661,0.007395267486572266,234,1.459755e-05,1.4076009e-05,2.0278621760266816e-05,-0.00019564119,0.0002441527,0.0003128674091967049,-1.5990057e-05,1.2471592e-05,0.00021419364,0.00022805066,4.080351829528809,109.81130981445312
1779207091.7474327,0.8485915660858154,hold-xy,0,0.0,-0.00054836436,-0.0012812454,0.0,0.009051248,-0.0011568908,0.03783936,-0.003337439149618149,0.01629977487027645,-0.6552422046661377,-0.7552356123924255,81.90336114736567,0.0068285465240478516,236,1.0417774e-05,-1.7045997e-05,1.9977388067471368e-05,-0.0001964649,-0.00027224113,0.00033572859961816435,1.540881e-05,1.2714741e-05,-0.00029719813,0.00015616321,4.080351829528809,109.81861877441406
1779207091.7729099,0.8740687370300293,hold-xy,0,0.0,0.00187077,-0.0006389512,0.0,0.0090873195,-0.0011573974,0.037890792,-0.003483910346403718,0.01597433164715767,-0.6552321910858154,-0.7552505731582642,81.90069562649204,0.011017084121704102,237,4.648883e-05,-1.7552637e-05,4.969211521940202e-05,0.00037078885,-0.00019770836,0.0004202058635986804,1.0827781e-05,4.8498096e-05,-0.00014349613,-0.00039494535,4.080351829528809,109.81861877441406
1779207091.794206,0.8953647613525391,hold-xy,0,0.0,0.00026932327,0.00096947805,0.0,0.00907157,-0.0011301488,0.037867144,-0.003584906691685319,0.01631239242851734,-0.655092179775238,-0.7553643584251404,81.88056254874341,0.009239435195922852,238,3.0739233e-05,9.695999e-06,3.22321709576313e-05,5.477859e-05,0.00021588634,0.00022272764390277502,-1.3940324e-05,2.906166e-05,0.00022145902,-2.3738325e-05,4.080351829528809,109.81861877441406
1779207091.81639,0.9175488948822021,hold-xy,0,0.0,-0.0010369802,-0.0009125541,0.0,0.009077305,-0.0011280989,0.03785918,2.0,-1.8138068914413452,-8.404655456542969,4.661061683302027e+23,-90.0,0.02107071876525879,239,3.6474317e-05,1.174584e-05,3.831893213871096e-05,0.00020453359,0.00021051976,0.0002935175644506468,1.174584e-05,-3.6474317e-05,-0.00021051976,0.00020453359,4.080351829528809,109.81861877441406
1779207091.8381755,0.9393343925476074,hold-xy,0,0.0,-0.0007360892,-0.0016104488,0.0,0.009033637,-0.0011818297,0.037840758,-0.0035475275944918394,0.016588857397437096,-0.6551100611686707,-0.7553430199623108,81.88424017491673,0.0075833797454833984,241,-7.1935356e-06,-4.1984953e-05,4.2596751405870234e-05,-0.00022822719,-0.0003096235,0.0003846483494951915,4.2580006e-05,-1.1943266e-06,-0.0003387422,0.00018223081,4.085630416870117,109.81861877441406
1779207091.8588536,0.9600124359130859,hold-xy,0,0.0,0.001781566,0.00035142625,0.0,0.00907281,-0.0011627488,0.037824735,-0.003173339879140258,0.015842502936720848,-0.6551865339279175,-0.7552943825721741,81.89342283130736,0.007465839385986328,242,3.1979755e-05,-2.2904016e-05,3.9335718292463624e-05,0.00040536036,5.8527847e-05,0.0004095638431730178,1.8165527e-05,3.4890003e-05,0.00011510485,-0.00039305649,4.085630416870117,109.8058090209961
1779207091.879866,0.9810247421264648,hold-xy,0,0.0,-0.0008373333,0.0009135875,0.0,0.009041762,-0.0011474937,0.03782223,-0.0031967691611498594,0.016322489827871323,-0.655220091342926,-0.7552549242973328,81.9001267725918,0.008238554000854492,243,9.313226e-07,-7.648952e-06,7.705441729040573e-06,-0.0001764611,0.00026708667,0.0003201153002296985,7.441424e-06,1.9997617e-06,0.00023955901,0.00021233298,4.085630416870117,109.8058090209961
1779207091.9005444,1.0017032623291016,hold-xy,0,0.0,-9.147462e-05,0.00095683255,0.0,0.009050272,-0.001143368,0.037842195,-0.0035140046384185553,0.017078420147299767,-0.6552390456199646,-0.755220353603363,81.90555053605722,0.007711887359619141,244,9.441748e-06,-3.5231933e-06,1.007767318994641e-05,-3.1216696e-06,0.00024532978,0.0002453496313613503,2.1586445e-06,9.843767e-06,0.0002424461,3.7634305e-05,4.085630416870117,109.8058090209961
1779207091.9208019,1.021960735321045,hold-xy,0,0.0,-6.6195e-05,0.0018233815,0.0,0.009052487,-0.0011256468,0.03781571,-0.003041941439732909,0.015884092077612877,-0.6552103757858276,-0.7552733421325684,81.89721814985793,0.007568836212158203,246,1.1656433e-05,1.4198013e-05,1.8369975709890006e-05,3.0382895e-05,0.00043233013,0.00043339641826766726,-1.5699237e-05,9.538866e-06,0.00043229654,3.085705e-05,4.085630416870117,109.8058090209961
1779207091.941436,1.0425949096679688,hold-xy,0,0.0,0.0013939769,-4.3302643e-05,0.0,0.009062337,-0.0011380482,0.03782077,-0.002965939696878195,0.015559729188680649,-0.6552883386611938,-0.7552127838134766,81.90800123525459,0.01801276206970215,247,2.15061e-05,1.7965212e-06,2.1581006361769403e-05,0.00031124137,-6.2467734e-05,0.0003174482723534695,-4.8058964e-06,2.1039088e-05,-1.8034505e-05,-0.0003169356,4.080351829528809,109.8581771850586
1779207091.9829357,1.084094524383545,hold-xy,0,0.0,0.0007375394,-0.00030170692,0.0,0.009051681,-0.0011461722,0.03782116,-0.0032690430525690317,0.016473839059472084,-0.6552024483680725,-0.7552666068077087,81.89794747927897,0.00814056396484375,248,1.0849908e-05,-6.3274056e-06,1.2560117746941056e-05,0.00015563917,-9.116935e-05,0.00018037571940757654,4.735099e-06,1.1633375e-05,-6.832408e-05,-0.00016693478,4.080351829528809,109.8581771850586
1779207092.0233786,1.124537467956543,hold-xy,0,0.0,0.0013908303,0.00016827624,0.0,0.009076927,-0.0011387784,0.03785357,-0.0034304519649595022,0.016345500946044922,-0.6551234722137451,-0.7553371787071228,81.88547175441495,0.008097171783447266,250,3.60962e-05,1.0663643e-06,3.6111947312263776e-05,0.00029602012,-9.031395e-06,0.0002961578522712638,-6.150748e-06,3.5584282e-05,3.2842938e-05,-0.00029433114,4.080351829528809,109.8581771850586
1779207092.0436134,1.1447722911834717,hold-xy,0,0.0,0.003043726,-0.0019678972,0.0,0.009102963,-0.0011750981,0.037838656,-0.0030220728367567062,0.014848739840090275,-0.6552396416664124,-0.7552691102027893,81.89832745248412,0.00796961784362793,251,6.2132254e-05,-3.5253353e-05,7.143679463592419e-05,0.0005908047,-0.00054142234,0.0008013665186456838,2.6145204e-05,6.64804e-05,-0.0004527565,-0.0006612109,4.080351829528809,109.8163070678711
1779207092.08485,1.1860089302062988,hold-xy,0,0.0,0.0019685905,-0.0017592205,0.0,0.009093691,-0.0011833915,0.0378213,-0.003322458826005459,0.015602432191371918,-0.6552947759628296,-0.7552047967910767,81.90901196539825,0.007999420166015625,252,5.2860007e-05,-4.354678e-05,6.848724121221025e-05,0.0003460581,-0.00043937465,0.0005592908839486993,3.56735e-05,5.8462843e-05,-0.00038629488,-0.00040445337,4.080351829528809,109.8163070678711
1779207092.1052265,1.2063853740692139,hold-xy,0,0.0,0.00012689656,-0.0003744131,0.0,0.009074923,-0.0011663288,0.037802875,-0.0035266405902802944,0.016520921140909195,-0.6552512645721436,-0.7552220821380615,81.90543745207357,0.007912874221801758,253,3.4091994e-05,-2.648402e-05,4.317021476194011e-05,-3.2909942e-05,-5.741167e-05,6.61752566032795e-05,2.141976e-05,3.748148e-05,-6.1473635e-05,2.449808e-05,4.080351829528809,109.8163070678711
1779207092.1469698,1.2481286525726318,hold-xy,0,0.0,0.000832271,0.00071836164,0.0,0.009097761,-0.0011406653,0.037824094,-0.0032721965108066797,0.01585015282034874,-0.6551730036735535,-0.7553055286407471,81.89136532285522,0.009106159210205078,254,5.6929886e-05,-8.204952e-07,5.6935798427184396e-05,0.00014592404,0.00014967764,0.00020903880038066348,-7.2176927e-06,5.6476456e-05,0.00016876387,-0.00012335306,4.080351829528809,109.80840301513672
1779207092.190139,1.2912979125976562,hold-xy,0,0.0,0.00080986856,-0.001219224,0.0,0.009094926,-0.0011816956,0.0378216,-0.0035209553316235542,0.016739897429943085,-0.6552889943122864,-0.755184531211853,81.91192813213848,0.01920938491821289,255,5.409494e-05,-4.1850843e-05,6.839411901815202e-05,7.642606e-05,-0.00026748393,0.00027818806343997236,3.3823657e-05,5.944507e-05,-0.0002540705,-0.00011329954,4.080351829528809,109.80840301513672
1779207092.212833,1.3139917850494385,hold-xy,0,0.0,0.00071001746,-0.0004403963,0.0,0.009097323,-0.0011708224,0.03780785,-0.0031899733003228903,0.016080468893051147,-0.6552082300186157,-0.7552704215049744,81.89750621029913,0.00918126106262207,256,5.6492165e-05,-3.097765e-05,6.4428096045749e-05,7.5476346e-05,-8.755176e-05,0.00011559406926272059,2.270617e-05,6.029436e-05,-7.603982e-05,-8.706283e-05,4.080351829528809,109.80840301513672
1779207092.2358396,1.336998462677002,hold-xy,0,0.0,-3.4877856e-05,-0.0011366648,0.0,0.009085095,-0.0011821399,0.03779479,-0.0028764104936271906,0.015292768366634846,-0.6552669405937195,-0.7552372217178345,81.90391628985307,0.01033639907836914,257,4.42639e-05,-4.2295083e-05,6.122227262956612e-05,-0.00011504854,-0.00021666338,0.00024531445641482055,3.56397e-05,4.97793e-05,-0.00023070665,8.338841e-05,4.080351829528809,109.80840301513672
1779207092.2773035,1.378462314605713,hold-xy,0,0.0,-0.0005558686,-0.0009544776,0.0,0.00906359,-0.0011823522,0.037811533,-0.0035213155206292868,0.016498539596796036,-0.6552152633666992,-0.7552538514137268,81.89989866970822,0.00011086463928222656,258,2.2759661e-05,-4.2507425e-05,4.8217044672078065e-05,-0.00020534243,-0.00015289677,0.00025601354385116444,3.8876442e-05,2.8522021e-05,-0.00018030473,0.00018175019,4.085630416870117,109.81268310546875
1779207092.2998202,1.4009790420532227,hold-xy,0,0.0,0.0017301044,0.0011082317,0.0,0.009082213,-0.0011699488,0.037814733,-0.0031890554819256067,0.015622475184500217,-0.6552726626396179,-0.7552241683006287,81.90576171455983,0.012449264526367188,259,4.1382387e-05,-3.010407e-05,5.117379418297418e-05,0.00040515384,0.00025855357,0.0004806241663032255,2.397746e-05,4.520883e-05,0.00031302412,-0.00036471285,4.085630416870117,109.81268310546875
1779207092.3201456,1.42130446434021,hold-xy,0,0.0,0.001237578,9.28918e-05,0.0,0.009079017,-0.001183793,0.03779754,-0.002748586470261216,0.014804530888795853,-0.6553694009780884,-0.755158543586731,81.91795873249559,0.002139568328857422,260,3.818609e-05,-4.394818e-05,5.8220442441479444e-05,0.00025230733,4.5416513e-05,0.0002563623557575445,3.8143062e-05,4.398553e-05,8.0437545e-05,-0.0002434162,4.085630416870117,109.81268310546875
1779207092.3606057,1.4617645740509033,hold-xy,0,0.0,0.0025649786,-0.00011665323,0.0,0.00911418,-0.0011913329,0.03783761,-0.0026893166359514,0.014131005853414536,-0.6552637219429016,-0.7552632093429565,81.89989058876841,0.01194310188293457,261,7.33491e-05,-5.148817e-05,8.961652991356706e-05,0.0005207144,-4.1993477e-05,0.0005224049490879615,4.0639374e-05,7.987217e-05,3.1795753e-05,-0.0005214364,4.080351829528809,109.76956939697266
1779207092.4033885,1.504547357559204,hold-xy,0,0.0,0.00036964292,0.001457899,0.0,0.009075116,-0.0011378108,0.03781269,-0.0028455033898353577,0.015030769631266594,-0.6552451252937317,-0.7552614212036133,81.89977975606949,0.011812210083007812,262,3.428571e-05,2.0340085e-06,3.434599025667781e-05,9.141653e-05,0.0003447663,0.00035668023045042573,-6.8447443e-06,3.365704e-05,0.00035420764,-4.192517e-05,4.080351829528809,109.76956939697266
1779207092.427122,1.5282809734344482,hold-xy,0,0.0,0.0005562474,0.0012845106,0.0,0.009079857,-0.0011340221,0.037806567,-0.002706741215661168,0.014821014367043972,-0.6552557945251465,-0.7552568316459656,81.90078036236223,0.011995553970336914,263,3.902614e-05,5.8226287e-06,3.945811305533329e-05,0.00012437854,0.00028959854,0.00031517825877173884,-1.1262857e-05,3.781654e-05,0.00030423337,-8.233704e-05,4.080351829528809,109.76956939697266
1779207092.4701664,1.5713253021240234,hold-xy,0,0.0,-0.00086473284,-0.00038126987,0.0,0.009026477,-0.0011734329,0.037753884,-0.002734501613304019,0.015600592829287052,-0.6553385853767395,-0.755169153213501,81.9158270036151,0.0003800392150878906,265,-1.43535435e-05,-3.358815e-05,3.652653805544514e-05,-0.00020590887,-1.3586672e-05,0.0002063566431833957,3.5272875e-05,-9.4874795e-06,-4.2408155e-05,0.00020195199,4.080351829528809,109.86446380615234
1779207092.5326316,1.6337904930114746,hold-xy,0,0.0,0.00083531963,-0.0014684221,0.0,0.009069949,-0.0012185294,0.03776655,-0.003375377506017685,0.01685122214257717,-0.6554125547409058,-0.7550755143165588,81.93112022038845,0.011839866638183594,266,2.9118732e-05,-7.868465e-05,8.389978889462053e-05,0.00011155619,-0.0002747563,0.0002965397390745532,7.381847e-05,3.9874907e-05,-0.00025637783,-0.00014901755,4.080351829528809,109.86446380615234
1779207092.552917,1.6540758609771729,hold-xy,0,0.0,-0.0068425983,0.0054523316,0.0,0.009006184,-0.0011439025,0.03778068,-0.0027960778679698706,0.015969930216670036,-0.6553488373756409,-0.7551522850990295,81.91858993213474,0.019607067108154297,267,-3.4647062e-05,-4.0577725e-06,3.4883871374451074e-05,-0.0014500688,0.0015961163,0.0021564523835872684,8.88816e-06,-3.373255e-05,0.0013764151,0.0016600507,4.080351829528809,109.80736541748047
1779207092.5733721,1.6745309829711914,hold-xy,0,0.0,-0.00091680756,0.004287238,0.0,0.009087214,-0.0011453563,0.03783339,-0.0024260582868009806,0.014361841604113579,-0.6552552580833435,-0.7552670836448669,81.89936702040691,0.012107372283935547,268,4.638359e-05,-5.511567e-06,4.670990206508745e-05,-0.00014545931,0.0011016799,0.001111241144683648,-1.0794392e-06,4.6697427e-05,0.0010701905,0.00029924803,4.080351829528809,109.80736541748047
1779207092.5938063,1.694965124130249,hold-xy,0,0.0,-0.0015753988,0.0031315307,0.0,0.009065283,-0.0011393726,0.037748195,-0.0018844980513677,0.01393402274698019,-0.6553898453712463,-0.7551599144935608,81.91865665610644,0.0019032955169677734,270,2.4452806e-05,4.7218055e-07,2.445736352386471e-05,-0.00031656103,0.0008297669,0.0008881013665077192,-3.9050387e-06,2.41436e-05,0.0007770251,0.00043006512,4.080351829528809,109.80736541748047
1779207092.6346197,1.735778570175171,hold-xy,0,0.0,0.0011375606,0.0037167561,0.0,0.009106357,-0.0011188667,0.037770823,-0.002566057723015547,0.014130152761936188,-0.6552399396896362,-0.755284309387207,81.89631232108457,0.019721031188964844,271,6.5525994e-05,2.0978041e-05,6.880213549991864e-05,0.00031424448,0.00084835454,0.0009046850397181901,-3.0005438e-05,6.191452e-05,0.0008841809,-0.00019151837,4.080351829528809,109.80736541748047
1779207092.6549313,1.7560901641845703,hold-xy,0,0.0,-5.754453e-05,0.0026130967,0.0,0.009080974,-0.0011163894,0.037817176,-0.0028139380738139153,0.015456780791282654,-0.655232846736908,-0.75526362657547,81.8992894780336,0.002405881881713867,272,4.014373e-05,2.3455359e-05,4.649379357213285e-05,1.759699e-05,0.00061359996,0.0006138522370089934,-2.8878112e-05,3.6437992e-05,0.00060995703,6.904312e-05,4.080351829528809,109.8368148803711
1779207092.6751688,1.7763276100158691,hold-xy,0,0.0,-0.0012844983,-0.00083528075,0.0,0.009067489,-0.0011365078,0.03780592,-0.002768751000985503,0.01556621678173542,-0.6553643345832825,-0.7551475167274475,81.91961359913735,0.012518882751464844,273,2.6658177e-05,3.3369288e-06,2.686621510088547e-05,-0.0003872759,-0.00016661437,0.00042159574937743953,-7.050934e-06,2.5924464e-05,-0.00021939659,0.00036001127,4.080351829528809,109.8368148803711
1779207092.7168849,1.8180437088012695,hold-xy,0,0.0,-0.0009239506,-0.0010629505,0.0,0.009062778,-0.001152521,0.0377932,-0.0030100559815764427,0.015960903838276863,-0.6552740335464478,-0.755216658115387,81.90714470781208,0.0036292076110839844,275,2.1947548e-05,-1.2676232e-05,2.5345250114888655e-05,-0.00029901857,-0.00021155892,0.0003662912552643727,9.460265e-06,2.3513508e-05,-0.00025154723,0.0002662579,4.080351829528809,109.8368148803711
1779207092.7372475,1.8384063243865967,hold-xy,0,0.0,-0.00030014222,-0.001831626,0.0,0.0090651065,-0.0011695018,0.0378082,-0.003147486364468932,0.01639210432767868,-0.6554062366485596,-0.7550920844078064,81.9286308515297,0.003635883331298828,276,2.4275854e-05,-2.9657036e-05,3.832566782141684e-05,-0.00017499909,-0.00039834945,0.00043509421238680266,2.5954763e-05,2.8199418e-05,-0.00041897438,0.00011733468,4.080351829528809,109.84568786621094
1779207092.7586782,1.8598370552062988,hold-xy,0,0.0,-0.001289231,-0.0012365109,0.0,0.009048011,-0.0011656322,0.037786424,-0.0029186455067247152,0.015549540519714355,-0.6553577184677124,-0.7551529407501221,81.9185104406992,0.004620552062988281,278,7.180497e-06,-2.578739e-05,2.6768433692006006e-05,-0.00037333532,-0.00022206627,0.0004343877245578803,2.4521856e-05,1.0734416e-05,-0.00027234494,0.0003384094,4.080351829528809,109.84568786621094
1779207092.8000734,1.9012322425842285,hold-xy,0,0.0,9.536982e-05,-0.00072225713,0.0,0.009076808,-0.0011642426,0.03781138,-0.002643013373017311,0.014557503163814545,-0.6553682088851929,-0.755164623260498,81.91704364517656,0.00399470329284668,279,3.597699e-05,-2.4397857e-05,4.3469522264080744e-05,-5.5748445e-05,-0.00014552611,0.00015583882014816024,1.909687e-05,3.905008e-05,-0.00015191898,3.4732664e-05,4.080351829528809,109.84568786621094
1779207092.8241262,1.9252851009368896,hold-xy,0,0.0,-0.003208552,-0.0014179738,0.0,0.009022417,-0.0011705644,0.03778976,-0.002992275170981884,0.016487374901771545,-0.6553770899772644,-0.7551159262657166,81.92458361719895,0.007056236267089844,280,-1.841411e-05,-3.0719675e-05,3.581588870760137e-05,-0.0008163608,-0.00019221728,0.0008386849581010846,3.300181e-05,-1.3916126e-05,-0.00030499074,0.0007812638,4.080351829528809,109.84568786621094
1779207092.8478155,1.948974370956421,hold-xy,0,0.0,0.0018424029,0.0039916052,0.0,0.009068349,-0.0011281576,0.037791856,-0.002624526619911194,0.014684903435409069,-0.655310869216919,-0.7552120089530945,81.90873873701418,0.018514633178710938,281,2.751872e-05,1.1687167e-05,2.9897654690481344e-05,0.00055519224,0.0009056069,0.0010622439523626348,-1.544409e-05,2.5599802e-05,0.0009747351,-0.000422201,4.080351829528809,109.79830169677734
1779207092.8689137,1.9700725078582764,hold-xy,0,0.0,0.002298676,0.0020922828,0.0,0.009082487,-0.0011424115,0.037805118,-0.002664195606485009,0.014637278392910957,-0.6554386615753174,-0.7551017999649048,81.92797422955468,0.017442703247070312,282,4.1656196e-05,-2.566725e-06,4.173519717083362e-05,0.0005799395,0.00044104457,0.0007285946169614335,-3.3079784e-06,4.1603897e-05,0.0005181087,-0.00051226316,4.080351829528809,109.79830169677734
1779207092.90996,2.0111188888549805,hold-xy,0,0.0,5.5055505e-05,0.0015328821,0.0,0.009036109,-0.0011340138,0.03783309,-0.0032844175584614277,0.016048531979322433,-0.6552350521087646,-0.7552474141120911,81.90143982764742,0.016487836837768555,283,-4.7218055e-06,5.8310106e-06,7.50307476647888e-06,7.469603e-05,0.00036871323,0.00037620332698104335,-5.107668e-06,-5.4961674e-06,0.00037555903,-2.2008127e-05,4.080351829528809,109.79830169677734
1779207092.9358444,2.0370032787323,hold-xy,0,0.0,-0.0010905295,-0.0002967336,0.0,0.009016132,-0.0011525461,0.037810765,-0.002971433335915208,0.015873068943619728,-0.6554139852523804,-0.7550972104072571,81.92810243692976,0.022097110748291016,284,-2.4698675e-05,-1.2701377e-05,2.7773180224751315e-05,-0.00024329982,-1.6114529e-05,0.0002438328908773693,1.6043621e-05,-2.2670503e-05,-5.011797e-05,0.00023862661,4.080351829528809,109.79830169677734
1779207092.9561229,2.057281732559204,hold-xy,0,0.0,-0.0009979149,0.00068014296,0.0,0.009014662,-0.0011307672,0.037784483,-0.0023106911685317755,0.014611837454140186,-0.6554347276687622,-0.7551069259643555,81.92739501254303,0.009877443313598633,286,-2.6168302e-05,9.077601e-06,2.76980662282604e-05,-0.00018387644,0.0001897682,0.00026423951128069485,-5.3128915e-06,-2.7183745e-05,0.0001620664,0.00020870313,4.080351829528809,109.75099182128906
1779207092.9764323,2.0775911808013916,hold-xy,0,0.0,0.0059341444,0.0034618578,0.0,0.0090716705,-0.0011145445,0.037849203,-0.003448701463639736,0.016244852915406227,-0.6550324559211731,-0.7554181814193726,81.87131296623853,0.019967079162597656,287,3.0839816e-05,2.5300309e-05,3.988984630902455e-05,0.0015447454,0.0006090512,0.0016604763229319175,-2.940677e-05,2.6952584e-05,0.0008213543,-0.0014431073,4.080351829528809,109.75099182128906
1779207092.9966848,2.097843647003174,hold-xy,0,0.0,0.003035821,0.00029231468,0.0,0.009038484,-0.0011597825,0.037831523,-0.0029587852768599987,0.015789173543453217,-0.6552842855453491,-0.7552115321159363,81.90814292267606,0.008724689483642578,288,-2.346933e-06,-1.9937754e-05,2.0075410722581227e-05,0.0007652058,-4.5732304e-06,0.0007652195001025302,2.0069603e-05,4.8288257e-07,0.000103183076,-0.0007582309,4.080351829528809,109.75099182128906
1779207093.017104,2.118262767791748,hold-xy,0,0.0,0.0014579808,-0.0009878034,0.0,0.009025836,-0.0011759102,0.037810564,-0.002923155901953578,0.015611897222697735,-0.6554412841796875,-0.7550790905952454,81.93139594578257,0.008846044540405273,290,-1.4994293e-05,-3.6065467e-05,3.905824738738399e-05,0.00034871668,-0.00024156808,0.00042421511330229564,3.7813028e-05,-9.783758e-06,-0.00019023131,-0.00037917084,4.080351829528809,109.75099182128906
1779207093.057794,2.1589529514312744,hold-xy,0,0.0,0.002659359,0.000815104,0.0,0.009079561,-0.0011376683,0.03786831,-0.0031998653430491686,0.015870630741119385,-0.6552065014839172,-0.7552763223648071,81.89653787420842,0.007643699645996094,291,3.872998e-05,2.1765009e-06,3.879108994355767e-05,0.000628831,0.00010476005,0.0006374975096018774,-7.614188e-06,3.8036465e-05,0.00019235472,-0.00060778507,4.080351829528809,109.7580795288086
1779207093.0781353,2.1792941093444824,hold-xy,0,0.0,0.0011194766,-0.0037553753,0.0,0.009068215,-0.0011712536,0.03783868,-0.003652147948741913,0.01678846776485443,-0.6553341746330261,-0.7551436424255371,81.91891384119386,0.017859458923339844,292,2.7384609e-05,-3.1408854e-05,4.167052779084784e-05,0.000104035746,-0.0009217504,0.0009276029254366457,2.7247392e-05,3.1527965e-05,-0.0008979727,-0.00023257721,4.080351829528809,109.7580795288086
1779207093.0983768,2.199535608291626,hold-xy,0,0.0,0.001388119,-0.0005864458,0.0,0.009081211,-0.0011402704,0.037834287,-0.002722419099882245,0.014555358327925205,-0.6552366614341736,-0.7552785277366638,81.89705334949332,0.01752781867980957,293,4.0380284e-05,-4.2561442e-07,4.0382527610436976e-05,0.00026232953,-0.00019342391,0.0003259288146725152,-5.270322e-06,4.0037135e-05,-0.00015451694,-0.00028697404,4.080351829528809,109.7580795288086
1779207093.1187804,2.2199392318725586,hold-xy,0,0.0,-0.0008784677,0.0004731398,0.0,0.009041848,-0.0011151275,0.037859086,-0.00348494085483253,0.016494015231728554,-0.6550498604774475,-0.755397617816925,81.87479761033151,0.007326364517211914,295,1.0170043e-06,2.4717301e-05,2.473821426573926e-05,-0.00020221983,0.00011106154,0.0002307109171119941,-2.4612918e-05,-2.4866665e-06,8.136557e-05,0.00021588692,4.080351829528809,109.7580795288086
1779207093.139753,2.2409119606018066,hold-xy,0,0.0,0.0014178045,-0.002073714,0.0,0.009068783,-0.0011588223,0.037811678,-0.0031179022043943405,0.015792328864336014,-0.6552659869194031,-0.7552266716957092,81.90532886755366,0.006895780563354492,296,2.7952716e-05,-1.897756e-05,3.3786123113699185e-05,0.0002359911,-0.00053470687,0.0005844683273766181,1.4852485e-05,3.0346431e-05,-0.00049614976,-0.00030893149,4.080351829528809,109.74268341064453
1779207093.1814318,2.282590627670288,hold-xy,0,0.0,0.0012469704,-0.0011751862,0.0,0.009074092,-0.001152819,0.03779648,-0.0030279799830168486,0.01560779195278883,-0.6552000641822815,-0.7552881240844727,81.89474486283208,0.018018722534179688,297,3.3261254e-05,-1.2974255e-05,3.5702134272833586e-05,0.00021731367,-0.00031535357,0.0003829792450097686,8.155081e-06,3.4758265e-05,-0.00028156393,-0.0002596052,4.080351829528809,109.74268341064453
1779207093.2444556,2.345614433288574,hold-xy,0,0.0,0.00014937068,0.00041783147,0.0,0.009047195,-0.0010922635,0.037837967,-0.0037858090363442898,0.0175162460654974,-0.6550201177597046,-0.7553988695144653,81.87382716803538,0.007643699645996094,299,6.3646585e-06,4.758127e-05,4.800506387305566e-05,4.2186213e-05,2.6758615e-05,4.995698240518486e-05,-4.800318e-05,-4.2502506e-07,3.2453103e-05,-3.7980208e-05,4.080351829528809,109.75479125976562
1779207093.2648423,2.3660011291503906,hold-xy,0,0.0,0.0024772328,-0.002678721,0.0,0.009076623,-0.0011438336,0.037814826,-0.0033413819037377834,0.016557849943637848,-0.6551603078842163,-0.7553009986877441,81.8918212463415,0.00775599479675293,300,3.579259e-05,-3.9888546e-06,3.6014169155857125e-05,0.00046497502,-0.00074435136,0.0008776449887697755,-1.0992976e-06,3.599739e-05,-0.0006713292,-0.0005653121,4.080351829528809,109.75479125976562
1779207093.3054957,2.4066545963287354,hold-xy,0,0.0,-0.0008361465,-0.0024961368,0.0,0.009015745,-0.001149388,0.037825048,-0.0028889651875942945,0.016050711274147034,-0.6554117202758789,-0.7550957202911377,81.92837867852617,0.017052412033081055,301,-2.5086105e-05,-9.543262e-06,2.6840017291498512e-05,-0.00025695778,-0.0005741862,0.0006290604969783606,1.2971082e-05,-2.3497607e-05,-0.0006045776,0.0001737902,4.080351829528809,109.75479125976562
1779207093.3488388,2.449997663497925,hold-xy,0,0.0,0.00042666987,-0.0016333263,0.0,0.009045616,-0.0011497289,0.03780808,-0.002719014184549451,0.015351827256381512,-0.6553240418434143,-0.7551869750022888,81.91281576457924,0.01981973648071289,302,4.7851354e-06,-9.8841265e-06,1.0981506255822008e-05,4.0984974e-05,-0.00040445055,0.00040652183802581814,9.1126585e-06,6.1280443e-06,-0.00039466258,-9.74754e-05,4.080351829528809,109.69825744628906
1779207093.3693876,2.4705464839935303,hold-xy,0,0.0,0.003472907,-0.00174604,0.0,0.009096848,-0.0011669602,0.03781583,-0.0032982397824525833,0.01670190319418907,-0.6552847027778625,-0.7551901340484619,81.91121464500841,0.01794600486755371,303,5.601719e-05,-2.7115457e-05,6.223482772289825e-05,0.000714143,-0.00051366,0.0008796856296873168,1.8963656e-05,5.9275233e-05,-0.00040806452,-0.0007793139,4.080351829528809,109.69825744628906
1779207093.430494,2.5316529273986816,hold-xy,0,0.0,0.0017331986,-0.0014159288,0.0,0.0090649035,-0.001168699,0.03782198,-0.0029656202532351017,0.014966071583330631,-0.6553741097450256,-0.755150318145752,81.9191159441009,0.017923355102539062,304,2.4072826e-05,-2.8854236e-05,3.757749202710697e-05,0.0003431284,-0.00036809532,0.0005032208893855195,2.5183794e-05,2.7889864e-05,-0.0003162065,-0.00039146486,4.080351829528809,109.69825744628906
1779207093.4511015,2.552260398864746,hold-xy,0,0.0,0.0021315217,0.00060724904,0.0,0.00908887,-0.0011356398,0.03782075,-0.0031713598873466253,0.016121383756399155,-0.6551854014396667,-0.7552894353866577,81.89418608067108,0.008156538009643555,305,4.803948e-05,4.2049214e-06,4.82231598651504e-05,0.00047690317,6.8851135e-05,0.000481847605438926,-1.0936559e-05,4.6966637e-05,0.00013540742,-0.00046243047,4.080351829528809,109.74454498291016
1779207093.4918044,2.592963218688965,hold-xy,0,0.0,0.001739456,0.0003254508,0.0,0.00909207,-0.0011387654,0.037814286,-0.003183096181601286,0.016326097771525383,-0.6551898717880249,-0.7552810907363892,81.89555739736088,0.018187999725341797,306,5.1239505e-05,1.0794029e-06,5.125087323167783e-05,0.000365132,1.7624745e-05,0.00036555712809208384,-8.292265e-06,5.057559e-05,6.89243e-05,-0.0003590006,4.080351829528809,109.74454498291016
1779207093.5330002,2.6341590881347656,hold-xy,1000,1.525902189669642,0.0006074584,0.00045212894,0.0,0.00907325,-0.0011300957,0.037838012,-0.003175140591338277,0.015926767140626907,-0.6552283763885498,-0.7552562952041626,81.90005218453872,0.018454313278198242,307,3.241934e-05,9.749085e-06,3.3853480430824134e-05,0.00011764685,7.58832e-05,0.00013999657991900372,-1.4219721e-05,3.0722265e-05,9.1702655e-05,-0.00010578121,4.080351829528809,109.74454498291016
1779207093.5546272,2.6557860374450684,hold-xy,1000,1.525902189669642,0.0011725224,-0.0035197265,0.0,0.009075448,-0.0011911774,0.037802774,-0.0033030188642442226,0.016416991129517555,-0.6552295684814453,-0.7552441954612732,81.90185648080612,0.019458770751953125,308,3.461726e-05,-5.1332638e-05,6.191441262522406e-05,0.00011432645,-0.0008354513,0.0008432374405542051,4.5944256e-05,4.150325e-05,-0.00081101526,-0.00023087574,4.080351829528809,109.74562072753906
1779207093.5952175,2.696376323699951,hold-xy,1000,1.525902189669642,0.000531018,-0.0007097721,0.0,0.0090725515,-0.0011381591,0.03780928,-0.0031704639550298452,0.015905506908893585,-0.6552096009254456,-0.7552729845046997,81.89713284713872,0.019045352935791016,309,3.1720847e-05,1.6856939e-06,3.176560607735329e-05,5.883716e-05,-0.00019691195,0.00020551429130748067,-6.139943e-06,3.1166564e-05,-0.00018665295,-8.600466e-05,4.080351829528809,109.74562072753906
1779207093.6155124,2.7166712284088135,hold-xy,1000,1.525902189669642,-0.0007756291,-0.0010446089,0.0,0.009044072,-0.001146758,0.03781725,-0.0029092258773744106,0.015722960233688354,-0.6551793217658997,-0.7553041577339172,81.89201077954797,0.008254289627075195,310,3.2410026e-06,-6.9132075e-06,7.635216713793306e-06,-0.0002336632,-0.00022082341,0.0003214987904644128,6.3869943e-06,4.1836392e-06,-0.00025157174,0.00020018272,4.080351829528809,109.74562072753906
1779207093.6358497,2.737008571624756,hold-xy,1000,1.525902189669642,0.00049189787,-0.00014686502,0.0,0.009060511,-0.0011401139,0.03780751,-0.0031113664153963327,0.01625754125416279,-0.655154287815094,-0.7553138136863708,81.88994647481013,0.008911848068237305,311,1.9680709e-05,-2.6915222e-07,1.968254864121477e-05,8.704378e-05,-5.3293938e-05,0.00010206303409069252,-2.5099944e-06,1.9521853e-05,-4.0481245e-05,-9.3691684e-05,4.080351829528809,109.74562072753906
1779207093.6780558,2.77921462059021,hold-xy,1000,1.525902189669642,0.000822952,0.00025343572,0.0,0.009074708,-0.0011318196,0.037837222,-0.003110631601884961,0.015869349241256714,-0.6551033854484558,-0.7553661465644836,81.88091422409435,0.008896827697753906,313,3.387779e-05,8.025207e-06,3.481534898090086e-05,0.0001618074,2.1629461e-05,0.00016324664900021883,-1.2729362e-05,3.2404812e-05,4.4264885e-05,-0.0001571308,4.080351829528809,109.80911254882812
1779207093.6986609,2.7998197078704834,hold-xy,1000,1.525902189669642,0.0033474283,0.00044464727,0.0,0.009116599,-0.0011339774,0.037827894,-0.0029756801668554544,0.015349388122558594,-0.6552433371543884,-0.7552560567855835,81.90048684820849,0.009141921997070312,314,7.576868e-05,5.867332e-06,7.59955159578504e-05,0.0007305182,-1.665518e-05,0.0007307080213046042,-1.6484068e-05,7.418621e-05,8.643572e-05,-0.00072557776,4.080351829528809,109.80911254882812
1779207093.7193747,2.820533514022827,hold-xy,2000,3.051804379339284,-0.0030387354,-0.0016981895,0.0,0.009070246,-0.001143977,0.037822153,-0.0030082636512815952,0.015430246479809284,-0.6550530195236206,-0.7554193735122681,81.8718621754934,0.019687175750732422,315,2.9414892e-05,-4.1322783e-06,2.9703730618559468e-05,-0.0008562003,-0.00030667437,0.0009094658504288474,-6.8128884e-08,2.9703653e-05,-0.00042464957,0.0008042393,4.080351829528809,109.80911254882812
1779207093.7411084,2.8422672748565674,hold-xy,2000,3.051804379339284,-0.0020116875,-0.0017347716,0.0,0.009069897,-0.0011562603,0.037789103,-0.002779677975922823,0.015214362181723118,-0.6551333665847778,-0.7553549408912659,81.88342395651605,0.010467052459716797,316,2.9066578e-05,-1.6415492e-05,3.338164602753504e-05,-0.000602716,-0.00033371896,0.0006889375167951809,1.2147213e-05,3.1093077e-05,-0.00041547208,0.0005495615,4.080351829528809,109.82044982910156
1779207093.764853,2.86601185798645,hold-xy,2000,3.051804379339284,-0.00045731547,-0.00058035774,0.0,0.009093089,-0.0011438737,0.03782347,-0.0030105081386864185,0.015674499794840813,-0.6552650928497314,-0.7552303671836853,81.90483637800506,0.0010635852813720703,317,5.2258372e-05,-4.0289015e-06,5.241344868363878e-05,-0.00021200835,-0.00012150082,0.0002443562764518121,-3.3701463e-06,5.2304986e-05,-0.00015014465,0.00019278635,4.080351829528809,109.82044982910156
1779207093.7921407,2.8932995796203613,hold-xy,2000,3.051804379339284,0.00045915504,-0.0005509394,0.0,0.009099325,-0.0011462066,0.037788656,-0.0030201750341802835,0.01577584072947502,-0.655211865901947,-0.7552744150161743,81.89709121341424,0.016273021697998047,319,5.849451e-05,-6.3618645e-06,5.883944972745608e-05,6.487069e-06,-0.00014299662,0.0001431436909904392,-1.9465379e-06,5.8807243e-05,-0.00014065467,-2.6577894e-05,4.080351829528809,109.82044982910156
1779207093.813237,2.914395809173584,hold-xy,2000,3.051804379339284,0.0009022895,-0.0010302501,0.0,0.009107938,-0.0011623045,0.03780465,-0.0031381044536828995,0.015880344435572624,-0.6552531123161316,-0.7552359700202942,81.90366211501255,0.005800008773803711,320,6.710738e-05,-2.2459775e-05,7.076610556530702e-05,8.638838e-05,-0.0002530748,0.0002674131814801454,1.2784646e-05,6.960169e-05,-0.00023838555,-0.00012116986,4.080351829528809,109.82044982910156
1779207093.8337789,2.9349377155303955,hold-xy,2000,3.051804379339284,0.0010023201,-0.0008456398,0.0,0.009111444,-0.0011643739,0.037846602,-0.0032188971526920795,0.015655245631933212,-0.655258059501648,-0.755236029624939,81.9036442218159,0.006085395812988281,321,7.061288e-05,-2.4529174e-05,7.475198368169756e-05,0.00011238846,-0.00020780024,0.00023624585744453318,1.43396865e-05,7.33637e-05,-0.00018990041,-0.00014053447,4.080351829528809,109.82044982910156
1779207093.85428,2.9554388523101807,hold-xy,2000,3.051804379339284,-0.0037257439,0.002155325,0.0,0.009078249,-0.0011370974,0.037839282,-0.0032986230216920376,0.01625031977891922,-0.6551948189735413,-0.7552779912948608,81.89601410532227,0.01643514633178711,322,3.741868e-05,2.7474016e-06,3.7519404709579716e-05,-0.00090230344,0.00066063396,0.0011182972559006413,-7.99488e-06,3.6657708e-05,0.00052683894,0.0009864225,4.080351829528809,109.81529998779297
1779207093.8749325,2.9760913848876953,hold-xy,2000,3.051804379339284,-0.003767805,0.00035133923,0.0,0.009047417,-0.001159193,0.037803352,-0.0029187886975705624,0.015298539772629738,-0.6553084850311279,-0.7552008032798767,81.91022608239442,0.006098747253417969,323,6.5863132e-06,-1.9348226e-05,2.0438527427969978e-05,-0.00093009666,0.00024853874,0.000962731181655246,1.8228833e-05,9.243541e-06,0.00011517806,0.00095581653,4.080351829528809,109.81529998779297
1779207093.895346,2.996504783630371,hold-xy,2000,3.051804379339284,-0.0026908754,0.0048855934,0.0,0.009052509,-0.0011190977,0.03784022,-0.003033461980521679,0.015181170776486397,-0.6552643775939941,-0.7552410364151001,81.90312492242126,0.015565872192382812,324,1.1678785e-05,2.0747073e-05,2.3808298529600162e-05,-0.0005115004,0.0012728525,0.001371782147805413,-2.2185177e-05,8.640196e-06,0.0011881206,0.00068567914,4.080351829528809,109.81529998779297
1779207093.915821,3.016979932785034,hold-xy,3000,4.577706569008926,-0.0032945727,0.0022421342,0.0,0.009028221,-0.0011344953,0.037834097,-0.0031067945528775454,0.015632402151823044,-0.6550641655921936,-0.7554051280021667,81.87418236390549,0.015753984451293945,325,-1.2610108e-05,5.349517e-06,1.3697888374911579e-05,-0.0007172288,0.00066330127,0.000976926695631106,-3.513403e-06,-1.32396435e-05,0.0005552634,0.0008037837,4.080351829528809,109.81529998779297
1779207093.9360826,3.0372414588928223,hold-xy,3000,4.577706569008926,-0.00031607886,0.0010006137,0.0,0.009070724,-0.0011534784,0.037841767,-0.0031507182866334915,0.016053378582000732,-0.6550787687301636,-0.7553834319114685,81.87778324375381,0.005240678787231445,327,2.9893592e-05,-1.3633631e-05,3.285578654429945e-05,-8.7724504e-05,0.00027925885,0.0002927133311271981,9.273352e-06,3.1519958e-05,0.00026406345,0.00012629965,4.080351829528809,109.81529998779297
1779207093.9563668,3.057525634765625,hold-xy,3000,4.577706569008926,-0.0013725065,0.0031818878,0.0,0.009057792,-0.001112937,0.037817527,-0.0031554396264255047,0.01568661630153656,-0.6551302671432495,-0.7553464770317078,81.8843749246047,0.005257606506347656,328,1.6961247e-05,2.6907772e-05,3.1807421264097264e-05,-0.0002528344,0.0007955834,0.0008347923113826393,-2.9032735e-05,1.2992779e-05,0.00075192284,0.0003626158,4.080351829528809,109.74681854248047
1779207093.978213,3.079371929168701,hold-xy,3000,4.577706569008926,-0.00010854598,-0.0010139137,0.0,0.009063471,-0.0011668233,0.037822846,-0.003027979051694274,0.01559457741677761,-0.6552850008010864,-0.7552146315574646,81.90758955519853,0.00593256950378418,329,2.2640452e-05,-2.6978552e-05,3.521977318842143e-05,-9.650914e-05,-0.00020666653,0.00022809004515213555,2.352281e-05,2.621278e-05,-0.00021819421,6.6455665e-05,4.080351829528809,109.74681854248047
1779207093.9987292,3.0998880863189697,hold-xy,3000,4.577706569008926,-0.00054246647,-0.0006825389,0.0,0.009055678,-0.0011646161,0.037851013,-0.0026622533332556486,0.014353418722748756,-0.6552267074584961,-0.755291223526001,81.89494630846295,0.00576472282409668,330,1.48471445e-05,-2.4771318e-05,2.888002658288369e-05,-0.00018059023,-0.000112652924,0.00021284621690999494,2.2430606e-05,1.8191313e-05,-0.00013698882,0.00016290358,4.080351829528809,109.74681854248047
1779207094.0193284,3.1204872131347656,hold-xy,4000,6.103608758678568,0.0011282471,-0.004472634,0.0,0.009062966,-0.0011978569,0.037841924,-0.0035108323208987713,0.016900431364774704,-0.6552590727806091,-0.7552070021629333,81.90795689451798,0.01619696617126465,331,2.2135675e-05,-5.8012083e-05,6.209178516680905e-05,8.865366e-05,-0.0010597112,0.0010634130940530993,5.431857e-05,3.0081274e-05,-0.0010366807,-0.00023693987,4.080351829528809,109.74681854248047
1779207094.0397704,3.1409292221069336,hold-xy,4000,6.103608758678568,0.0014005374,-0.0014779911,0.0,0.0090806745,-0.001161092,0.037862077,-0.0027178190648555756,0.014419843442738056,-0.6551629900932312,-0.7553450465202332,81.88546427768186,0.0058689117431640625,332,3.9843842e-05,-2.1247193e-05,4.515501067267527e-05,0.00023470752,-0.00038334986,0.00044949387690909766,1.541041e-05,4.244401e-05,-0.00034638218,-0.00028646833,4.080351829528809,109.71105194091797
1779207094.060306,3.1614649295806885,hold-xy,4000,6.103608758678568,-0.00041329666,0.0006028443,0.0,0.009060906,-0.0011310326,0.037836432,-0.002973375376313925,0.01501073781400919,-0.6552717685699463,-0.7552381753921509,81.9037229794097,0.004876613616943359,333,2.007559e-05,8.812174e-06,2.1924500337611852e-05,-0.00011118202,0.0001505425,0.00018714829586687025,-1.1551725e-05,1.8634411e-05,0.00013338348,0.00013127578,4.080351829528809,109.71105194091797
1779207094.0824313,3.1835901737213135,hold-xy,4000,6.103608758678568,-0.009531109,-0.0002697721,0.0,0.00897759,-0.0011255965,0.03781942,-0.002556713530793786,0.01505599170923233,-0.6550782322883606,-0.7554067373275757,81.87461882832967,0.015618324279785156,334,-6.324053e-05,1.4248304e-05,6.482575449023563e-05,-0.0022735284,0.00024864275,0.002287084300083066,-5.166866e-06,-6.461952e-05,-7.5193326e-05,0.002285848,4.080351829528809,109.71105194091797
1779207094.1044495,3.205608367919922,hold-xy,4000,6.103608758678568,-0.004469116,-0.00064061803,0.0,0.009032009,-0.0011447854,0.037811596,-0.0030070021748542786,0.015836114063858986,-0.6552551984786987,-0.7552356123924255,81.90387060097665,0.003339052200317383,336,-8.821487e-06,-4.9406663e-06,1.0110827000267363e-05,-0.0011154664,6.203976e-06,0.0011154836123486093,6.133792e-06,-8.0377495e-06,-0.00015095383,0.0011052224,4.080351829528809,109.71105194091797
1779207094.1286204,3.2297792434692383,hold-xy,4000,6.103608758678568,-0.0032619247,-0.0018172121,0.0,0.009027069,-0.0011660829,0.03782047,-0.002615612465888262,0.014916403219103813,-0.6554883122444153,-0.7550534605979919,81.93639077663755,0.006241321563720703,337,-1.3761222e-05,-2.623815e-05,2.9627889280709658e-05,-0.00085050287,-0.00029606457,0.0009005605953351614,2.7909053e-05,-9.944677e-06,-0.00041243943,0.0008005642,4.080351829528809,109.71105194091797
1779207094.1512842,3.2524430751800537,hold-xy,4000,6.103608758678568,-0.00035858672,0.00033575032,0.0,0.00906517,-0.0011418872,0.03784074,-0.0030641609337180853,0.01536684948951006,-0.655173659324646,-0.7553157806396484,81.88994447298275,0.00518798828125,339,2.4339184e-05,-2.0423904e-06,2.4424727133854185e-05,-0.000113417394,9.8808596e-05,0.00015042155320900563,-1.4116858e-06,2.4383897e-05,8.182005e-05,0.00012622253,4.080351829528809,109.66619110107422
1779207094.1718462,3.2730050086975098,hold-xy,4000,6.103608758678568,-0.0006169452,0.0014491696,0.0,0.009062057,-0.001125237,0.03784134,-0.003145193913951516,0.015595069155097008,-0.6552237868309021,-0.7552672624588013,81.89826759560131,0.008486032485961914,340,2.1226704e-05,1.4607795e-05,2.57674341801176e-05,-0.00013347871,0.0003585015,0.00038254396608349516,-1.7453503e-05,1.8956154e-05,0.00033611213,0.00018267054,4.080351829528809,109.66619110107422
1779207094.1929266,3.2940855026245117,hold-xy,5000,7.629510948348211,-0.00036831538,0.0017914728,0.0,0.009064121,-0.0011139568,0.03783791,-0.002988004358485341,0.015051581896841526,-0.6552170515060425,-0.75528484582901,81.89554543497533,0.009253263473510742,342,2.3290515e-05,2.5887974e-05,3.482291379949557e-05,-6.295534e-05,0.00041754436,0.00042226375391112215,-2.8912877e-05,1.9408266e-05,0.0004044989,0.000121191246,4.080351829528809,109.66619110107422
1779207094.2341442,3.3353030681610107,hold-xy,5000,7.629510948348211,-0.00026267808,-1.4976311e-05,0.0,0.009057753,-0.0011507124,0.03782511,-0.0027081966400146484,0.014771047048270702,-0.6552687287330627,-0.7552465200424194,81.90258669870587,0.009697198867797852,343,1.6922131e-05,-1.0867603e-05,2.0111273553511495e-05,-9.092537e-05,2.1844637e-05,9.351262619201488e-05,8.37566e-06,1.828419e-05,8.819413e-06,9.3095805e-05,4.080351829528809,109.66619110107422
1779207094.2746427,3.3758015632629395,hold-xy,6000,9.155413138017853,0.000585929,0.00034017573,0.0,0.009079682,-0.001143462,0.03781828,-0.0028179080691188574,0.014350425451993942,-0.6552503705024719,-0.7552701830863953,81.89848572608634,0.009680747985839844,345,3.8851053e-05,-3.6172569e-06,3.9019082532747536e-05,9.8728786e-05,6.89777e-05,0.00012043793638000293,-1.8940218e-06,3.897309e-05,8.2202896e-05,-8.8022614e-05,4.080351829528809,109.63834381103516
1779207094.2961383,3.3972971439361572,hold-xy,6000,9.155413138017853,-0.00062991696,0.003246909,0.0,0.009069059,-0.0010941848,0.037800957,-0.0027536519337445498,0.014815757051110268,-0.6551878452301025,-0.7553157210350037,81.89044070962946,0.01032710075378418,346,2.8228387e-05,4.5659952e-05,5.3681217593733596e-05,-8.3739615e-05,0.0007573352,0.0007619507537473987,-4.9185433e-05,2.1505022e-05,0.0007379491,0.00018973678,4.080351829528809,109.63834381103516
1779207094.3366492,3.437808036804199,hold-xy,6000,9.155413138017853,-0.00024767383,0.0014158427,0.0,0.009069713,-0.0011264598,0.037835207,-0.0029463532846421003,0.015242896042764187,-0.6552391648292542,-0.7552619576454163,81.8995204753823,0.00015974044799804688,347,2.8882176e-05,1.3384968e-05,3.1832961124906336e-05,-5.47475e-05,0.00033907645,0.0003434677922832033,-1.7321194e-05,2.6707934e-05,0.00032797887,0.00010198036,4.080351829528809,109.61040496826172
1779207094.3570201,3.458178997039795,hold-xy,6000,9.155413138017853,-0.00036227625,0.00014417674,0.0,0.009064196,-0.0011393297,0.037826356,-0.0030839703977108,0.01579400710761547,-0.6552907228469849,-0.7552053332328796,81.9090985205783,0.00017690658569335938,348,2.336502e-05,5.150214e-07,2.337069590362647e-05,-0.00011964206,4.7659923e-05,0.00012878544577238512,-3.7983816e-06,2.305996e-05,3.0346611e-05,0.000125159,4.080351829528809,109.61040496826172
1779207094.3985758,3.49973464012146,hold-xy,7000,10.681315327687495,0.00047545042,-0.0023427496,0.0,0.009071959,-0.0011975197,0.037765186,-0.0030146155040711164,0.01613331027328968,-0.6554082036018372,-0.7550964951515198,81.92808615678584,0.00960850715637207,349,3.1128526e-05,-5.7674944e-05,6.553918287968208e-05,-1.1247626e-05,-0.0005100625,0.0005101864853152669,5.2732597e-05,3.8918603e-05,-0.0005065885,-6.0484697e-05,4.080351829528809,109.61040496826172
1779207094.439171,3.540329933166504,hold-xy,7000,10.681315327687495,-0.0005178143,0.0015325896,0.0,0.009062013,-0.0011235112,0.037819985,-0.0028724169824272394,0.015253441408276558,-0.6552870273590088,-0.7552205324172974,81.90683872541925,0.01979351043701172,350,2.1182e-05,1.6333535e-05,2.67481125195695e-05,-0.00010599662,0.00037305598,0.0003878221912905523,-1.9152929e-05,1.8671553e-05,0.000354418,0.0001574609,4.080351829528809,109.59198760986328
1779207094.4798393,3.580998182296753,hold-xy,7000,10.681315327687495,-0.0013178557,0.0005923498,0.0,0.0090265665,-0.0011359751,0.037863016,-0.003227093257009983,0.0157060194760561,-0.6549641489982605,-0.7554898262023926,81.85921513231871,0.00972294807434082,352,-1.4264137e-05,3.8696453e-06,1.4779706983551773e-05,-0.00028377766,0.00018744476,0.0003400960178196385,-1.8107648e-06,-1.4668363e-05,0.0001453713,0.00030746136,4.080351829528809,109.59198760986328
1779207094.526164,3.6273229122161865,hold-xy,7000,10.681315327687495,0.00042998692,0.0005380397,0.0,0.009069463,-0.0011383332,0.037851583,-0.002747153863310814,0.014608105644583702,-0.6552740931510925,-0.7552450299263,81.90288886018878,0.010261297225952148,353,2.8632581e-05,1.5115365e-06,2.8672450821001345e-05,8.2422106e-05,0.00011576061,0.00014210532353944755,-5.5294045e-06,2.8134235e-05,0.00012621582,-6.529538e-05,4.080351829528809,109.59198760986328
1779207094.5473664,3.6485252380371094,hold-xy,8000,12.207217517357137,-0.0004378722,0.0012892198,0.0,0.009055063,-0.0011162274,0.03781293,-0.002720084972679615,0.014870929531753063,-0.6552874445915222,-0.7552283406257629,81.90573500648068,0.0010495185852050781,354,1.4232472e-05,2.361741e-05,2.757435922613958e-05,-8.434498e-05,0.00029908132,0.00031074701916038313,-2.5386089e-05,1.0765302e-05,0.00028422583,0.000125616,4.0750732421875,109.59678649902344
1779207094.588268,3.689426898956299,hold-xy,8000,12.207217517357137,0.00016047382,0.0013951425,0.0,0.009066237,-0.0011078492,0.0378367,-0.0028772323857992887,0.01505059190094471,-0.6552680730819702,-0.7552409768104553,81.90331533434748,0.011414051055908203,355,2.540648e-05,3.1995587e-05,4.0855927021706686e-05,5.0733164e-05,0.00029166503,0.0002960444922376586,-3.5254998e-05,2.064684e-05,0.00029590313,-9.148196e-06,4.0750732421875,109.59678649902344
1779207094.6311884,3.732347249984741,hold-xy,8000,12.207217517357137,-0.0008387426,0.00031865996,0.0,0.009029662,-0.0011273259,0.03780371,-0.0028770091012120247,0.015714006498456,-0.6553177833557129,-0.7551843523979187,81.91300192718012,0.003336191177368164,356,-1.116842e-05,1.2518838e-05,1.6776618101689145e-05,-0.00017964083,8.959237e-05,0.00020074267418741665,-1.0823212e-05,-1.2818465e-05,6.3430176e-05,0.00019045795,4.0750732421875,109.59678649902344
1779207094.671852,3.7730109691619873,hold-xy,9000,13.733119707026779,-0.00029866828,-0.0006591412,0.0,0.009034075,-0.0011500744,0.037823867,-0.00320504535920918,0.016255002468824387,-0.6553654670715332,-0.7551302313804626,81.92195601721053,0.009881973266601562,357,-6.755814e-06,-1.0229647e-05,1.2259147594820347e-05,-8.694841e-05,-0.00013731341,0.0001625269207397373,1.1077484e-05,-5.2512905e-06,-0.00014816909,6.679013e-05,4.0750732421875,109.60102081298828
