wall_time_s,elapsed_s,phase_index,phase_name,phase_elapsed_s,roll_norm,pitch_norm,yaw_norm,thrust_norm,roll_deg,pitch_deg,yawrate_deg_s,thrust_raw,thrust_axis_seen,button_5,button_9,event_count,last_event_age_s,mocap_x,mocap_y,mocap_z,height_above_floor,mocap_qx,mocap_qy,mocap_qz,mocap_qw,mocap_age_s,mocap_frame_count,mocap_vx_m_s,mocap_vy_m_s,mocap_vz_m_s,horizontal_distance_from_start_m
1779126767.053326,0.4325673580169678,-1,preflight_wait,0.0010554790496826172,0.0,0.0,0.0,0.0,0.0,0.0,0.0,0,0,0,0,1,0.42429518699645996,0.0052492805,0.008536001,0.03672053,-0.00027947128,-0.01113121584057808,0.0038277741987258196,0.5891661047935486,0.8079261779785156,0.004583120346069336,3,,,,0.0
1779126767.073413,0.4526543617248535,-1,preflight_wait,0.021130800247192383,0.0,0.0,0.0,0.0,0.0,0.0,0.0,0,0,0,0,1,0.4443850517272949,0.0052492805,0.008536001,0.03672053,-0.00027947128,-0.01113121584057808,0.0038277741987258196,0.5891661047935486,0.8079261779785156,0.024675607681274414,3,,,,0.0
1779126767.0935562,0.4727976322174072,-1,preflight_wait,0.041290998458862305,0.0,0.0,0.0,0.0,0.0,0.0,0.0,0,0,0,0,1,0.46453285217285156,0.0052492805,0.008536001,0.03672053,-0.00027947128,-0.01113121584057808,0.0038277741987258196,0.5891661047935486,0.8079261779785156,0.04482531547546387,3,,,,0.0
1779126767.1134536,0.4926950931549072,-1,preflight_wait,0.06119871139526367,0.0,0.0,0.0,0.0,0.0,0.0,0.0,0,0,0,0,1,0.48443174362182617,0.0052492805,0.008536001,0.03672053,-0.00027947128,-0.01113121584057808,0.0038277741987258196,0.5891661047935486,0.8079261779785156,0.06472897529602051,3,,,,0.0
1779126767.133402,0.512643575668335,-1,preflight_wait,0.08111977577209473,0.0,0.0,0.0,0.0,0.0,0.0,0.0,0,0,0,0,1,0.50437331199646,0.0052492805,0.008536001,0.03672053,-0.00027947128,-0.01113121584057808,0.0038277741987258196,0.5891661047935486,0.8079261779785156,0.08466434478759766,3,,,,0.0
1779126767.153406,0.5326473712921143,-1,preflight_wait,0.1011350154876709,0.0,0.0,0.0,0.0,0.0,0.0,0.0,0,0,0,0,1,0.5243768692016602,0.0052725933,0.008549719,0.036759976,-0.00024002418,-0.011149721220135689,0.004080628044903278,0.5892932415008545,0.8078320026397705,0.012926578521728516,4,0.00025411588,0.00014953368,0.0004299829,2.7049653e-05
1779126767.1734023,0.5526437759399414,-1,preflight_wait,0.1211249828338623,0.0,0.0,0.0,0.0,0.0,0.0,0.0,0,0,0,0,1,0.5443747043609619,0.0052725933,0.008549719,0.036759976,-0.00024002418,-0.011149721220135689,0.004080628044903278,0.5892932415008545,0.8078320026397705,0.03292417526245117,4,0.00025411588,0.00014953368,0.0004299829,2.7049653e-05
1779126767.193407,0.5726485252380371,-1,preflight_wait,0.1411292552947998,0.0,0.0,0.0,0.0,0.0,0.0,0.0,0,0,0,0,1,0.5643792152404785,0.0052725933,0.008549719,0.036759976,-0.00024002418,-0.011149721220135689,0.004080628044903278,0.5892932415008545,0.8078320026397705,0.05292963981628418,4,0.00025411588,0.00014953368,0.0004299829,2.7049653e-05
1779126767.213423,0.5926644802093506,-1,preflight_wait,0.1611330509185791,0.0,0.0,0.0,0.0,0.0,0.0,0.0,0,0,0,0,1,0.5843908786773682,0.0052725933,0.008549719,0.036759976,-0.00024002418,-0.011149721220135689,0.004080628044903278,0.5892932415008545,0.8078320026397705,0.07293939590454102,4,0.00025411588,0.00014953368,0.0004299829,2.7049653e-05
1779126767.2337353,0.6129767894744873,-1,preflight_wait,0.18148446083068848,0.0,0.0,0.0,0.0,0.0,0.0,0.0,0,0,0,0,1,0.604712963104248,0.005250741,0.008554077,0.036746092,-0.00025390834,-0.011354660615324974,0.004735925234854221,0.5891587734222412,0.8079236149787903,0.0017309188842773438,5,-0.00023873603,4.7606794e-05,-0.00015168243,1.8134931e-05
1779126767.2534132,0.6326546669006348,-1,preflight_wait,0.20113444328308105,0.0,0.0,0.0,0.0,0.0,0.0,0.0,0,0,0,0,1,0.624384880065918,0.005250741,0.008554077,0.036746092,-0.00025390834,-0.011354660615324974,0.004735925234854221,0.5891587734222412,0.8079236149787903,0.02140069007873535,5,-0.00023873603,4.7606794e-05,-0.00015168243,1.8134931e-05
1779126767.2733972,0.6526386737823486,-1,preflight_wait,0.22112250328063965,0.0,0.0,0.0,0.0,0.0,0.0,0.0,0,0,0,0,1,0.6443700790405273,0.005250741,0.008554077,0.036746092,-0.00025390834,-0.011354660615324974,0.004735925234854221,0.5891587734222412,0.8079236149787903,0.04138517379760742,5,-0.00023873603,4.7606794e-05,-0.00015168243,1.8134931e-05
1779126767.2933943,0.6726357936859131,-1,preflight_wait,0.2411038875579834,0.0,0.0,0.0,0.0,0.0,0.0,0.0,0,0,0,0,1,0.664362907409668,0.005250741,0.008554077,0.036746092,-0.00025390834,-0.011354660615324974,0.004735925234854221,0.5891587734222412,0.8079236149787903,0.06137681007385254,5,-0.00023873603,4.7606794e-05,-0.00015168243,1.8134931e-05
1779126767.3133948,0.692636251449585,-1,preflight_wait,0.2611212730407715,0.0,0.0,0.0,0.0,0.0,0.0,0.0,0,0,0,0,1,0.684380054473877,0.005250741,0.008554077,0.036746092,-0.00025390834,-0.011354660615324974,0.004735925234854221,0.5891587734222412,0.8079236149787903,0.08139467239379883,5,-0.00023873603,4.7606794e-05,-0.00015168243,1.8134931e-05
1779126767.3334095,0.7126510143280029,-1,preflight_wait,0.28113222122192383,0.0,0.0,0.0,0.0,0.0,0.0,0.0,0,0,0,0,1,0.7043771743774414,0.005243985,0.008507978,0.036806725,-0.00019327551,-0.01038296427577734,0.002550354925915599,0.5895050168037415,0.8076940178871155,0.00019073486328125,6,-6.6755725e-05,-0.00045551074,0.0005991267,2.8518529e-05
1779126767.3534045,0.7326459884643555,-1,preflight_wait,0.3011174201965332,0.0,0.0,0.0,0.0,0.0,0.0,0.0,0,0,0,0,1,0.7243735790252686,0.005243985,0.008507978,0.036806725,-0.00019327551,-0.01038296427577734,0.002550354925915599,0.5895050168037415,0.8076940178871155,0.02018594741821289,6,-6.6755725e-05,-0.00045551074,0.0005991267,2.8518529e-05
1779126767.3734853,0.7527267932891846,-1,preflight_wait,0.3211953639984131,0.0,0.0,0.0,0.0,0.0,0.0,0.0,0,0,0,0,1,0.744452953338623,0.005243985,0.008507978,0.036806725,-0.00019327551,-0.01038296427577734,0.002550354925915599,0.5895050168037415,0.8076940178871155,0.040264129638671875,6,-6.6755725e-05,-0.00045551074,0.0005991267,2.8518529e-05
1779126767.3934019,0.7726433277130127,-1,preflight_wait,0.341113805770874,0.0,0.0,0.0,0.0,0.0,0.0,0.0,0,0,0,0,1,0.7643697261810303,0.005243985,0.008507978,0.036806725,-0.00019327551,-0.01038296427577734,0.002550354925915599,0.5895050168037415,0.8076940178871155,0.06018352508544922,6,-6.6755725e-05,-0.00045551074,0.0005991267,2.8518529e-05
1779126767.4133973,0.7926387786865234,-1,preflight_wait,0.36112451553344727,0.0,0.0,0.0,0.0,0.0,0.0,0.0,0,0,0,0,1,0.7843787670135498,0.005243985,0.008507978,0.036806725,-0.00019327551,-0.01038296427577734,0.002550354925915599,0.5895050168037415,0.8076940178871155,0.08019280433654785,6,-6.6755725e-05,-0.00045551074,0.0005991267,2.8518529e-05
1779126767.4334052,0.8126466274261475,-1,preflight_wait,0.3811309337615967,0.0,0.0,0.0,0.0,0.0,0.0,0.0,0,0,0,0,1,0.8043758869171143,0.005240092,0.008546175,0.03673571,-0.00026429072,-0.011278940364718437,0.004392625764012337,0.5891360640525818,0.8079431653022766,0.00896000862121582,7,-4.2671956e-05,0.0004186956,-0.0007784263,1.37095485e-05
1779126767.4533985,0.8326399326324463,-1,preflight_wait,0.4011056423187256,0.0,0.0,0.0,0.0,0.0,0.0,0.0,0,0,0,0,1,0.8243649005889893,0.005240092,0.008546175,0.03673571,-0.00026429072,-0.011278940364718437,0.004392625764012337,0.5891360640525818,0.8079431653022766,0.028946876525878906,7,-4.2671956e-05,0.0004186956,-0.0007784263,1.37095485e-05
1779126767.4733965,0.8526380062103271,-1,preflight_wait,0.4211149215698242,0.0,0.0,0.0,0.0,0.0,0.0,0.0,0,0,0,0,1,0.8443660736083984,0.005240092,0.008546175,0.03673571,-0.00026429072,-0.011278940364718437,0.004392625764012337,0.5891360640525818,0.8079431653022766,0.048949241638183594,7,-4.2671956e-05,0.0004186956,-0.0007784263,1.37095485e-05
1779126767.4934368,0.872678279876709,-1,preflight_wait,0.44121789932250977,0.0,0.0,0.0,0.0,0.0,0.0,0.0,0,0,0,0,1,0.8644297122955322,0.005240092,0.008546175,0.03673571,-0.00026429072,-0.011278940364718437,0.004392625764012337,0.5891360640525818,0.8079431653022766,0.06902456283569336,7,-4.2671956e-05,0.0004186956,-0.0007784263,1.37095485e-05
1779126767.513423,0.8926644325256348,-1,preflight_wait,0.46114444732666016,0.0,0.0,0.0,0.0,0.0,0.0,0.0,0,0,0,0,1,0.884397029876709,0.005240092,0.008546175,0.03673571,-0.00026429072,-0.011278940364718437,0.004392625764012337,0.5891360640525818,0.8079431653022766,0.08898115158081055,7,-4.2671956e-05,0.0004186956,-0.0007784263,1.37095485e-05
1779126767.533403,0.9126443862915039,-1,preflight_wait,0.4811277389526367,0.0,0.0,0.0,0.0,0.0,0.0,0.0,0,0,0,0,1,0.9043703079223633,0.0052354345,0.008575397,0.036739007,-0.00026099384,-0.011167985387146473,0.003970571793615818,0.5891765356063843,0.8079174160957336,0.0174713134765625,8,-5.0912182e-05,0.0003194202,3.6038615e-05,4.1758187e-05
1779126767.5534053,0.9326467514038086,-1,preflight_wait,0.5011248588562012,0.0,0.0,0.0,0.0,0.0,0.0,0.0,0,0,0,0,1,0.9243757724761963,0.0052354345,0.008575397,0.036739007,-0.00026099384,-0.011167985387146473,0.003970571793615818,0.5891765356063843,0.8079174160957336,0.037477970123291016,8,-5.0912182e-05,0.0003194202,3.6038615e-05,4.1758187e-05
1779126767.5733998,0.9526412487030029,-1,preflight_wait,0.5211188793182373,0.0,0.0,0.0,0.0,0.0,0.0,0.0,0,0,0,0,1,0.9443702697753906,0.0052354345,0.008575397,0.036739007,-0.00026099384,-0.011167985387146473,0.003970571793615818,0.5891765356063843,0.8079174160957336,0.05747342109680176,8,-5.0912182e-05,0.0003194202,3.6038615e-05,4.1758187e-05
1779126767.5934143,0.9726557731628418,-1,preflight_wait,0.5411314964294434,0.0,0.0,0.0,0.0,0.0,0.0,0.0,0,0,0,0,1,0.9643838405609131,0.0052354345,0.008575397,0.036739007,-0.00026099384,-0.011167985387146473,0.003970571793615818,0.5891765356063843,0.8079174160957336,0.07748532295227051,8,-5.0912182e-05,0.0003194202,3.6038615e-05,4.1758187e-05
1779126767.6137278,0.992969274520874,-1,preflight_wait,0.5614562034606934,0.0,0.0,0.0,0.0,0.0,0.0,0.0,0,0,0,0,1,0.9846980571746826,0.0052657984,0.008547927,0.036746442,-0.00025355816,-0.011142915114760399,0.003975157160311937,0.5892311930656433,0.8078778982162476,0.006675004959106445,9,0.0003332142,-0.00030144936,8.1599304e-05,2.037361e-05
1779126767.633406,1.0126473903656006,-1,preflight_wait,0.5811295509338379,0.0,0.0,0.0,0.0,0.0,0.0,0.0,0,0,0,0,1,1.0043795108795166,0.0052657984,0.008547927,0.036746442,-0.00025355816,-0.011142915114760399,0.003975157160311937,0.5892311930656433,0.8078778982162476,0.026358366012573242,9,0.0003332142,-0.00030144936,8.1599304e-05,2.037361e-05
1779126767.653415,1.0326564311981201,-1,preflight_wait,0.6011357307434082,0.0,0.0,0.0,0.0,0.0,0.0,0.0,0,0,0,0,1,1.0243866443634033,0.0052657984,0.008547927,0.036746442,-0.00025355816,-0.011142915114760399,0.003975157160311937,0.5892311930656433,0.8078778982162476,0.046364784240722656,9,0.0003332142,-0.00030144936,8.1599304e-05,2.037361e-05
1779126767.673402,1.0526435375213623,-1,preflight_wait,0.6211245059967041,0.0,0.0,0.0,0.0,0.0,0.0,0.0,0,0,0,0,1,1.044374942779541,0.0052657984,0.008547927,0.036746442,-0.00025355816,-0.011142915114760399,0.003975157160311937,0.5892311930656433,0.8078778982162476,0.06635379791259766,9,0.0003332142,-0.00030144936,8.1599304e-05,2.037361e-05
1779126767.6935997,1.0728411674499512,-1,preflight_wait,0.641324520111084,0.0,0.0,0.0,0.0,0.0,0.0,0.0,0,0,0,0,1,1.0645699501037598,0.005268598,0.008502356,0.03680037,-0.00019963086,-0.010355423204600811,0.002570202574133873,0.589570939540863,0.8076461553573608,0.015471220016479492,10,3.938838e-05,-0.0006411684,0.00075873075,3.8796246e-05
1779126767.713642,1.0928833484649658,-1,preflight_wait,0.6613638401031494,0.0,0.0,0.0,0.0,0.0,0.0,0.0,0,0,0,0,1,1.0846149921417236,0.005268598,0.008502356,0.03680037,-0.00019963086,-0.010355423204600811,0.002570202574133873,0.589570939540863,0.8076461553573608,0.035518646240234375,10,3.938838e-05,-0.0006411684,0.00075873075,3.8796246e-05
1779126767.7334065,1.1126480102539062,-1,preflight_wait,0.6811223030090332,0.0,0.0,0.0,0.0,0.0,0.0,0.0,0,0,0,0,1,1.1043758392333984,0.005268598,0.008502356,0.03680037,-0.00019963086,-0.010355423204600811,0.002570202574133873,0.589570939540863,0.8076461553573608,0.05527758598327637,10,3.938838e-05,-0.0006411684,0.00075873075,3.8796246e-05
1779126767.753407,1.1326484680175781,-1,preflight_wait,0.7011218070983887,0.0,0.0,0.0,0.0,0.0,0.0,0.0,0,0,0,0,1,1.124377727508545,0.005268598,0.008502356,0.03680037,-0.00019963086,-0.010355423204600811,0.002570202574133873,0.589570939540863,0.8076461553573608,0.07527899742126465,10,3.938838e-05,-0.0006411684,0.00075873075,3.8796246e-05
1779126767.7734058,1.1526472568511963,-1,preflight_wait,0.7211368083953857,0.0,0.0,0.0,0.0,0.0,0.0,0.0,0,0,0,0,1,1.144376277923584,0.0052542463,0.008495438,0.036789794,-0.00021020696,-0.01062094047665596,0.003020819742232561,0.5895806550979614,0.8076340556144714,0.013921976089477539,11,-0.00017640323,-8.503071e-05,-0.0001299958,4.0865656e-05
1779126767.7935555,1.1727969646453857,-1,preflight_wait,0.7412824630737305,0.0,0.0,0.0,0.0,0.0,0.0,0.0,0,0,0,0,1,1.1645278930664062,0.0052542463,0.008495438,0.036789794,-0.00021020696,-0.01062094047665596,0.003020819742232561,0.5895806550979614,0.8076340556144714,0.03407597541809082,11,-0.00017640323,-8.503071e-05,-0.0001299958,4.0865656e-05
1779126767.8133998,1.192641258239746,-1,preflight_wait,0.7611312866210938,0.0,0.0,0.0,0.0,0.0,0.0,0.0,0,0,0,0,1,1.1843698024749756,0.0052542463,0.008495438,0.036789794,-0.00021020696,-0.01062094047665596,0.003020819742232561,0.5895806550979614,0.8076340556144714,0.05391335487365723,11,-0.00017640323,-8.503071e-05,-0.0001299958,4.0865656e-05
1779126767.8334017,1.2126431465148926,-1,preflight_wait,0.7811203002929688,0.0,0.0,0.0,0.0,0.0,0.0,0.0,0,0,0,0,1,1.2043731212615967,0.0052542463,0.008495438,0.036789794,-0.00021020696,-0.01062094047665596,0.003020819742232561,0.5895806550979614,0.8076340556144714,0.07391858100891113,11,-0.00017640323,-8.503071e-05,-0.0001299958,4.0865656e-05
1779126767.853402,1.2326433658599854,-1,preflight_wait,0.8011322021484375,0.0,0.0,0.0,0.0,0.0,0.0,0.0,0,0,0,0,1,1.2243714332580566,0.00525513,0.008554641,0.036741816,-0.00025818497,-0.011421775445342064,0.004572758916765451,0.5892096161842346,0.80788654088974,0.012938261032104492,12,1.0914237e-05,0.0007310928,-0.00059247395,1.9536723e-05
1779126767.8734035,1.2526450157165527,-1,preflight_wait,0.821124792098999,0.0,0.0,0.0,0.0,0.0,0.0,0.0,0,0,0,0,1,1.2443737983703613,0.00525513,0.008554641,0.036741816,-0.00025818497,-0.011421775445342064,0.004572758916765451,0.5892096161842346,0.80788654088974,0.03294038772583008,12,1.0914237e-05,0.0007310928,-0.00059247395,1.9536723e-05
1779126767.8935142,1.2727556228637695,-1,preflight_wait,0.8412330150604248,0.0,0.0,0.0,0.0,0.0,0.0,0.0,0,0,0,0,1,1.2644851207733154,0.00525513,0.008554641,0.036741816,-0.00025818497,-0.011421775445342064,0.004572758916765451,0.5892096161842346,0.80788654088974,0.053050994873046875,12,1.0914237e-05,0.0007310928,-0.00059247395,1.9536723e-05
1779126767.9134018,1.2926433086395264,-1,preflight_wait,0.8611366748809814,0.0,0.0,0.0,0.0,0.0,0.0,0.0,0,0,0,0,1,1.2843897342681885,0.00525513,0.008554641,0.036741816,-0.00025818497,-0.011421775445342064,0.004572758916765451,0.5892096161842346,0.80788654088974,0.07295632362365723,12,1.0914237e-05,0.0007310928,-0.00059247395,1.9536723e-05
1779126767.9334002,1.3126416206359863,-1,preflight_wait,0.8811218738555908,0.0,0.0,0.0,0.0,0.0,0.0,0.0,0,0,0,0,1,1.3043670654296875,0.005252255,0.008560858,0.036746737,-0.00025326386,-0.011352403089404106,0.004424425773322582,0.5892187356948853,0.8078817129135132,0.011199235916137695,13,-3.5175428e-05,7.6059594e-05,6.0209575e-05,2.5034355e-05
1779126767.9533968,1.3326382637023926,-1,preflight_wait,0.9011154174804688,0.0,0.0,0.0,0.0,0.0,0.0,0.0,0,0,0,0,1,1.3243634700775146,0.005252255,0.008560858,0.036746737,-0.00025326386,-0.011352403089404106,0.004424425773322582,0.5892187356948853,0.8078817129135132,0.031195640563964844,13,-3.5175428e-05,7.6059594e-05,6.0209575e-05,2.5034355e-05
1779126767.973401,1.35264253616333,-1,preflight_wait,0.9211292266845703,0.0,0.0,0.0,0.0,0.0,0.0,0.0,0,0,0,0,1,1.3443710803985596,0.005252255,0.008560858,0.036746737,-0.00025326386,-0.011352403089404106,0.004424425773322582,0.5892187356948853,0.8078817129135132,0.05121660232543945,13,-3.5175428e-05,7.6059594e-05,6.0209575e-05,2.5034355e-05
1779126767.9933977,1.3726391792297363,-1,preflight_wait,0.9411113262176514,0.0,0.0,0.0,0.0,0.0,0.0,0.0,0,0,0,0,1,1.364365816116333,0.005252255,0.008560858,0.036746737,-0.00025326386,-0.011352403089404106,0.004424425773322582,0.5892187356948853,0.8078817129135132,0.0711979866027832,13,-3.5175428e-05,7.6059594e-05,6.0209575e-05,2.5034355e-05
1779126768.0134115,1.392652988433838,-1,preflight_wait,0.9611334800720215,0.0,0.0,0.0,0.0,0.0,0.0,0.0,0,0,0,0,1,1.384385347366333,0.005252255,0.008560858,0.036746737,-0.00025326386,-0.011352403089404106,0.004424425773322582,0.5892187356948853,0.8078817129135132,0.09122562408447266,13,-3.5175428e-05,7.6059594e-05,6.0209575e-05,2.5034355e-05
1779126768.0333989,1.4126403331756592,-1,preflight_wait,0.981133222579956,0.0,0.0,0.0,0.0,0.0,0.0,0.0,0,0,0,0,1,1.4043715000152588,0.0052559506,0.008538383,0.036694173,-0.0003058277,-0.011351721361279488,0.004401726648211479,0.5892106890678406,0.8078876733779907,0.009777545928955078,14,3.6434667e-05,-0.00022158302,-0.0005182391,7.082805e-06
1779126768.053399,1.432640552520752,-1,preflight_wait,1.0011157989501953,0.0,0.0,0.0,0.0,0.0,0.0,0.0,0,0,0,0,1,1.4243700504302979,0.0052559506,0.008538383,0.036694173,-0.0003058277,-0.011351721361279488,0.004401726648211479,0.5892106890678406,0.8078876733779907,0.029774904251098633,14,3.6434667e-05,-0.00022158302,-0.0005182391,7.082805e-06
1779126768.073399,1.4526405334472656,-1,preflight_wait,1.021113395690918,0.0,0.0,0.0,0.0,0.0,0.0,0.0,0,0,0,0,1,1.4443695545196533,0.0052559506,0.008538383,0.036694173,-0.0003058277,-0.011351721361279488,0.004401726648211479,0.5892106890678406,0.8078876733779907,0.0497736930847168,14,3.6434667e-05,-0.00022158302,-0.0005182391,7.082805e-06
1779126768.0934026,1.4726440906524658,-1,preflight_wait,1.0411109924316406,0.0,0.0,0.0,0.0,0.0,0.0,0.0,0,0,0,0,1,1.4643690586090088,0.0052559506,0.008538383,0.036694173,-0.0003058277,-0.011351721361279488,0.004401726648211479,0.5892106890678406,0.8078876733779907,0.06977224349975586,14,3.6434667e-05,-0.00022158302,-0.0005182391,7.082805e-06
1779126768.1134691,1.4927105903625488,-1,preflight_wait,1.0611844062805176,0.0,0.0,0.0,0.0,0.0,0.0,0.0,0,0,0,0,1,1.4844403266906738,0.0052559506,0.008538383,0.036694173,-0.0003058277,-0.011351721361279488,0.004401726648211479,0.5892106890678406,0.8078876733779907,0.08984518051147461,14,3.6434667e-05,-0.00022158302,-0.0005182391,7.082805e-06
1779126768.1334157,1.5126571655273438,-1,preflight_wait,1.0814974308013916,0.0,0.0,0.0,0.0,0.0,0.0,0.0,0,0,0,0,1,1.5043847560882568,0.005248068,0.008508657,0.036804296,-0.0001957044,-0.010473961941897869,0.0032818145118653774,0.5895206928253174,0.8076786398887634,0.01864337921142578,15,-8.648516e-05,-0.00032613816,0.0012082173,2.7370505e-05
1779126768.1534002,1.5326416492462158,-1,preflight_wait,1.101111650466919,0.0,0.0,0.0,0.0,0.0,0.0,0.0,0,0,0,0,1,1.524369239807129,0.005248068,0.008508657,0.036804296,-0.0001957044,-0.010473961941897869,0.0032818145118653774,0.5895206928253174,0.8076786398887634,0.03862786293029785,15,-8.648516e-05,-0.00032613816,0.0012082173,2.7370505e-05
1779126768.1734002,1.5526416301727295,-1,preflight_wait,1.1211152076721191,0.0,0.0,0.0,0.0,0.0,0.0,0.0,0,0,0,0,1,1.544367790222168,0.005248068,0.008508657,0.036804296,-0.0001957044,-0.010473961941897869,0.0032818145118653774,0.5895206928253174,0.8076786398887634,0.05862617492675781,15,-8.648516e-05,-0.00032613816,0.0012082173,2.7370505e-05
1779126768.1933992,1.5726406574249268,-1,preflight_wait,1.1411139965057373,0.0,0.0,0.0,0.0,0.0,0.0,0.0,0,0,0,0,1,1.5643701553344727,0.005248068,0.008508657,0.036804296,-0.0001957044,-0.010473961941897869,0.0032818145118653774,0.5895206928253174,0.8076786398887634,0.0786292552947998,15,-8.648516e-05,-0.00032613816,0.0012082173,2.7370505e-05
1779126768.2134054,1.592646837234497,-1,preflight_wait,1.1611433029174805,0.0,0.0,0.0,0.0,0.0,0.0,0.0,0,0,0,0,1,1.5843796730041504,0.005239401,0.008496359,0.036807556,-0.00019244477,-0.010338997468352318,0.002726771868765354,0.5895562171936035,0.8076565861701965,0.0070590972900390625,16,-9.462684e-05,-0.0001342733,3.558929e-05,4.0854276e-05
1779126768.2333958,1.6126372814178467,-1,preflight_wait,1.1811110973358154,0.0,0.0,0.0,0.0,0.0,0.0,0.0,0,0,0,0,1,1.6043651103973389,0.005239401,0.008496359,0.036807556,-0.00019244477,-0.010338997468352318,0.002726771868765354,0.5895562171936035,0.8076565861701965,0.027033567428588867,16,-9.462684e-05,-0.0001342733,3.558929e-05,4.0854276e-05
1779126768.2534044,1.632645845413208,-1,preflight_wait,1.2011268138885498,0.0,0.0,0.0,0.0,0.0,0.0,0.0,0,0,0,0,1,1.6243760585784912,0.005239401,0.008496359,0.036807556,-0.00019244477,-0.010338997468352318,0.002726771868765354,0.5895562171936035,0.8076565861701965,0.04704689979553223,16,-9.462684e-05,-0.0001342733,3.558929e-05,4.0854276e-05
1779126768.2733986,1.6526401042938232,-1,preflight_wait,1.2211196422576904,0.0,0.0,0.0,0.0,0.0,0.0,0.0,0,0,0,0,1,1.6443703174591064,0.005239401,0.008496359,0.036807556,-0.00019244477,-0.010338997468352318,0.002726771868765354,0.5895562171936035,0.8076565861701965,0.06704139709472656,16,-9.462684e-05,-0.0001342733,3.558929e-05,4.0854276e-05
1779126768.2934024,1.6726438999176025,-1,preflight_wait,1.2411210536956787,0.0,0.0,0.0,0.0,0.0,0.0,0.0,0,0,0,0,1,1.6643753051757812,0.005239401,0.008496359,0.036807556,-0.00019244477,-0.010338997468352318,0.002726771868765354,0.5895562171936035,0.8076565861701965,0.08704614639282227,16,-9.462684e-05,-0.0001342733,3.558929e-05,4.0854276e-05
1779126768.313412,1.6926534175872803,-1,preflight_wait,1.261155605316162,0.0,0.0,0.0,0.0,0.0,0.0,0.0,0,0,0,0,1,1.6843888759613037,0.0052600224,0.008506357,0.03676572,-0.00023427978,-0.01072008442133665,0.0034446408972144127,0.5895200967788696,0.8076752424240112,0.015639543533325195,17,0.00022555196,0.000109353285,-0.00045758262,3.1530217e-05
1779126768.3334012,1.7126426696777344,-1,preflight_wait,1.2811203002929688,0.0,0.0,0.0,0.0,0.0,0.0,0.0,0,0,0,0,1,1.7043712139129639,0.0052600224,0.008506357,0.03676572,-0.00023427978,-0.01072008442133665,0.0034446408972144127,0.5895200967788696,0.8076752424240112,0.0356142520904541,17,0.00022555196,0.000109353285,-0.00045758262,3.1530217e-05
1779126768.3534,1.7326414585113525,-1,preflight_wait,1.3011069297790527,0.0,0.0,0.0,0.0,0.0,0.0,0.0,0,0,0,0,1,1.7243661880493164,0.0052600224,0.008506357,0.03676572,-0.00023427978,-0.01072008442133665,0.0034446408972144127,0.5895200967788696,0.8076752424240112,0.05560779571533203,17,0.00022555196,0.000109353285,-0.00045758262,3.1530217e-05
1779126768.373401,1.7526423931121826,-1,preflight_wait,1.3211190700531006,0.0,0.0,0.0,0.0,0.0,0.0,0.0,0,0,0,0,1,1.7443702220916748,0.0052600224,0.008506357,0.03676572,-0.00023427978,-0.01072008442133665,0.0034446408972144127,0.5895200967788696,0.8076752424240112,0.07561373710632324,17,0.00022555196,0.000109353285,-0.00045758262,3.1530217e-05
1779126768.3934026,1.77264404296875,-1,preflight_wait,1.3411390781402588,0.0,0.0,0.0,0.0,0.0,0.0,0.0,0,0,0,0,1,1.764376163482666,0.005248865,0.00850985,0.036765814,-0.00023418665,-0.010423311032354832,0.002993377624079585,0.5895305275917053,0.8076732754707336,0.004530906677246094,18,-0.00012248599,3.8350998e-05,1.0224206e-06,2.6153906e-05
1779126768.4134135,1.7926549911499023,-1,preflight_wait,1.3611721992492676,0.0,0.0,0.0,0.0,0.0,0.0,0.0,0,0,0,0,1,1.78438138961792,0.005248865,0.00850985,0.036765814,-0.00023418665,-0.010423311032354832,0.002993377624079585,0.5895305275917053,0.8076732754707336,0.024533987045288086,18,-0.00012248599,3.8350998e-05,1.0224206e-06,2.6153906e-05
1779126768.4333992,1.81264066696167,-1,preflight_wait,1.3811089992523193,0.0,0.0,0.0,0.0,0.0,0.0,0.0,0,0,0,0,1,1.804368257522583,0.005248865,0.00850985,0.036765814,-0.00023418665,-0.010423311032354832,0.002993377624079585,0.5895305275917053,0.8076732754707336,0.044519901275634766,18,-0.00012248599,3.8350998e-05,1.0224206e-06,2.6153906e-05
1779126768.4534218,1.8326632976531982,-1,preflight_wait,1.4011399745941162,0.0,0.0,0.0,0.0,0.0,0.0,0.0,0,0,0,0,1,1.8243896961212158,0.005248865,0.00850985,0.036765814,-0.00023418665,-0.010423311032354832,0.002993377624079585,0.5895305275917053,0.8076732754707336,0.0645437240600586,18,-0.00012248599,3.8350998e-05,1.0224206e-06,2.6153906e-05
1779126768.4733996,1.8526411056518555,-1,preflight_wait,1.4211134910583496,0.0,0.0,0.0,0.0,0.0,0.0,0.0,0,0,0,0,1,1.8443694114685059,0.005248865,0.00850985,0.036765814,-0.00023418665,-0.010423311032354832,0.002993377624079585,0.5895305275917053,0.8076732754707336,0.08452200889587402,18,-0.00012248599,3.8350998e-05,1.0224206e-06,2.6153906e-05
1779126768.4934015,1.872642993927002,-1,preflight_wait,1.4411225318908691,0.0,0.0,0.0,0.0,0.0,0.0,0.0,0,0,0,0,1,1.8643691539764404,0.00527227,0.00855177,0.036739867,-0.0002601333,-0.011235116980969906,0.004049730021506548,0.5891906023025513,0.8079057931900024,0.013325691223144531,19,0.00025664494,0.00045966514,-0.00028451424,2.7878172e-05
1779126768.513407,1.892648458480835,-1,preflight_wait,1.461125135421753,0.0,0.0,0.0,0.0,0.0,0.0,0.0,0,0,0,0,1,1.8843822479248047,0.00527227,0.00855177,0.036739867,-0.0002601333,-0.011235116980969906,0.004049730021506548,0.5891906023025513,0.8079057931900024,0.033338069915771484,19,0.00025664494,0.00045966514,-0.00028451424,2.7878172e-05
1779126768.5334,1.9126415252685547,-1,preflight_wait,1.4811115264892578,0.0,0.0,0.0,0.0,0.0,0.0,0.0,0,0,0,0,1,1.9043676853179932,0.00527227,0.00855177,0.036739867,-0.0002601333,-0.011235116980969906,0.004049730021506548,0.5891906023025513,0.8079057931900024,0.053323984146118164,19,0.00025664494,0.00045966514,-0.00028451424,2.7878172e-05
1779126768.5533977,1.9326391220092773,-1,preflight_wait,1.5011060237884521,0.0,0.0,0.0,0.0,0.0,0.0,0.0,0,0,0,0,1,1.9243643283843994,0.00527227,0.00855177,0.036739867,-0.0002601333,-0.011235116980969906,0.004049730021506548,0.5891906023025513,0.8079057931900024,0.07332086563110352,19,0.00025664494,0.00045966514,-0.00028451424,2.7878172e-05
1779126768.573397,1.9526383876800537,-1,preflight_wait,1.5211195945739746,0.0,0.0,0.0,0.0,0.0,0.0,0.0,0,0,0,0,1,1.9443659782409668,0.005256203,0.008530889,0.03673083,-0.00026917085,-0.011301178485155106,0.004522552713751793,0.589209794998169,0.807888388633728,0.0016226768493652344,20,-0.0001752158,-0.0002277135,-9.8556346e-05,8.6054715e-06
1779126768.5933986,1.972640037536621,-1,preflight_wait,1.5411133766174316,0.0,0.0,0.0,0.0,0.0,0.0,0.0,0,0,0,0,1,1.9643676280975342,0.005256203,0.008530889,0.03673083,-0.00026917085,-0.011301178485155106,0.004522552713751793,0.589209794998169,0.807888388633728,0.021625757217407227,20,-0.0001752158,-0.0002277135,-9.8556346e-05,8.6054715e-06
1779126768.6134012,1.9926426410675049,-1,preflight_wait,1.5611343383789062,0.0,0.0,0.0,0.0,0.0,0.0,0.0,0,0,0,0,1,1.9843883514404297,0.005256203,0.008530889,0.03673083,-0.00026917085,-0.011301178485155106,0.004522552713751793,0.589209794998169,0.807888388633728,0.041646718978881836,20,-0.0001752158,-0.0002277135,-9.8556346e-05,8.6054715e-06
1779126768.6334002,2.012641668319702,-1,preflight_wait,1.5811066627502441,0.0,0.0,0.0,0.0,0.0,0.0,0.0,0,0,0,0,1,2.004366636276245,0.005256203,0.008530889,0.03673083,-0.00026917085,-0.011301178485155106,0.004522552713751793,0.589209794998169,0.807888388633728,0.06162238121032715,20,-0.0001752158,-0.0002277135,-9.8556346e-05,8.6054715e-06
1779126768.653564,2.0328054428100586,-1,preflight_wait,1.6012816429138184,0.0,0.0,0.0,0.0,0.0,0.0,0.0,0,0,0,0,1,2.0245325565338135,0.0052505806,0.0085434,0.036758773,-0.00024122745,-0.011025494895875454,0.003663828130811453,0.5892980098724365,0.8078321814537048,0.010923147201538086,21,-7.933827e-05,0.00017654966,0.00039431264,7.512711e-06
1779126768.673396,2.0526375770568848,-1,preflight_wait,1.621103048324585,0.0,0.0,0.0,0.0,0.0,0.0,0.0,0,0,0,0,1,2.044363021850586,0.0052505806,0.0085434,0.036758773,-0.00024122745,-0.011025494895875454,0.003663828130811453,0.5892980098724365,0.8078321814537048,0.03075408935546875,21,-7.933827e-05,0.00017654966,0.00039431264,7.512711e-06
1779126768.6933935,2.0726349353790283,-1,preflight_wait,1.6411018371582031,0.0,0.0,0.0,0.0,0.0,0.0,0.0,0,0,0,0,1,2.0643606185913086,0.0052505806,0.0085434,0.036758773,-0.00024122745,-0.011025494895875454,0.003663828130811453,0.5892980098724365,0.8078321814537048,0.050751447677612305,21,-7.933827e-05,0.00017654966,0.00039431264,7.512711e-06
1779126768.713415,2.092656373977661,-1,preflight_wait,1.6611380577087402,0.0,0.0,0.0,0.0,0.0,0.0,0.0,0,0,0,0,1,2.084385633468628,0.0052505806,0.0085434,0.036758773,-0.00024122745,-0.011025494895875454,0.003663828130811453,0.5892980098724365,0.8078321814537048,0.07077789306640625,21,-7.933827e-05,0.00017654966,0.00039431264,7.512711e-06
1779126768.7334077,2.1126492023468018,-1,preflight_wait,1.6811439990997314,0.0,0.0,0.0,0.0,0.0,0.0,0.0,0,0,0,0,1,2.1043808460235596,0.0052620443,0.008561948,0.0367531,-0.00024690107,-0.011252430267632008,0.004358335398137569,0.58920818567276,0.8078911304473877,0.009656429290771484,22,0.00014132255,0.00022866033,-6.99437e-05,2.8916964e-05
1779126768.753401,2.1326425075531006,-1,preflight_wait,1.7011141777038574,0.0,0.0,0.0,0.0,0.0,0.0,0.0,0,0,0,0,1,2.12437105178833,0.0052620443,0.008561948,0.0367531,-0.00024690107,-0.011252430267632008,0.004358335398137569,0.58920818567276,0.8078911304473877,0.02964472770690918,22,0.00014132255,0.00022866033,-6.99437e-05,2.8916964e-05
1779126768.7733986,2.1526401042938232,-1,preflight_wait,1.7211143970489502,0.0,0.0,0.0,0.0,0.0,0.0,0.0,0,0,0,0,1,2.144366979598999,0.0052620443,0.008561948,0.0367531,-0.00024690107,-0.011252430267632008,0.004358335398137569,0.58920818567276,0.8078911304473877,0.04964089393615723,22,0.00014132255,0.00022866033,-6.99437e-05,2.8916964e-05
1779126768.7934036,2.172645092010498,-1,preflight_wait,1.7411179542541504,0.0,0.0,0.0,0.0,0.0,0.0,0.0,0,0,0,0,1,2.164374351501465,0.0052620443,0.008561948,0.0367531,-0.00024690107,-0.011252430267632008,0.004358335398137569,0.58920818567276,0.8078911304473877,0.06964898109436035,22,0.00014132255,0.00022866033,-6.99437e-05,2.8916964e-05
1779126768.8134172,2.1926586627960205,-1,preflight_wait,1.7611443996429443,0.0,0.0,0.0,0.0,0.0,0.0,0.0,0,0,0,0,1,2.184389114379883,0.0052615274,0.008547981,0.03673404,-0.00026595965,-0.011295598931610584,0.004352477379143238,0.5892914533615112,0.8078297972679138,0.008750438690185547,23,-6.3881594e-06,-0.00017261843,-0.00023554466,1.7132412e-05
1779126768.8334062,2.2126476764678955,-1,preflight_wait,1.7811267375946045,0.0,0.0,0.0,0.0,0.0,0.0,0.0,0,0,0,0,1,2.204378604888916,0.0052615274,0.008547981,0.03673404,-0.00026595965,-0.011295598931610584,0.004352477379143238,0.5892914533615112,0.8078297972679138,0.028740882873535156,23,-6.3881594e-06,-0.00017261843,-0.00023554466,1.7132412e-05
1779126768.8534887,2.2327301502227783,-1,preflight_wait,1.8012094497680664,0.0,0.0,0.0,0.0,0.0,0.0,0.0,0,0,0,0,1,2.2244601249694824,0.0052615274,0.008547981,0.03673404,-0.00026595965,-0.011295598931610584,0.004352477379143238,0.5892914533615112,0.8078297972679138,0.04882168769836426,23,-6.3881594e-06,-0.00017261843,-0.00023554466,1.7132412e-05
1779126768.8733976,2.252639055252075,-1,preflight_wait,1.8211140632629395,0.0,0.0,0.0,0.0,0.0,0.0,0.0,0,0,0,0,1,2.2443687915802,0.0052615274,0.008547981,0.03673404,-0.00026595965,-0.011295598931610584,0.004352477379143238,0.5892914533615112,0.8078297972679138,0.06873059272766113,23,-6.3881594e-06,-0.00017261843,-0.00023554466,1.7132412e-05
1779126768.8934443,2.2726857662200928,-1,preflight_wait,1.8412630558013916,0.0,0.0,0.0,0.0,0.0,0.0,0.0,0,0,0,0,1,2.2644383907318115,0.0052423235,0.0084912,0.03677989,-0.00022010878,-0.010597237385809422,0.0027355102356523275,0.5895969867706299,0.8076235055923462,0.00794363021850586,24,-0.00023747461,-0.0007021509,0.00056699076,4.5337292e-05
1779126768.9134157,2.2926571369171143,-1,preflight_wait,1.8611385822296143,0.0,0.0,0.0,0.0,0.0,0.0,0.0,0,0,0,0,1,2.2843942642211914,0.0052423235,0.0084912,0.03677989,-0.00022010878,-0.010597237385809422,0.0027355102356523275,0.5895969867706299,0.8076235055923462,0.027887582778930664,24,-0.00023747461,-0.0007021509,0.00056699076,4.5337292e-05
1779126768.9333994,2.312640905380249,-1,preflight_wait,1.881115436553955,0.0,0.0,0.0,0.0,0.0,0.0,0.0,0,0,0,0,1,2.3043696880340576,0.0052423235,0.0084912,0.03677989,-0.00022010878,-0.010597237385809422,0.0027355102356523275,0.5895969867706299,0.8076235055923462,0.04786562919616699,24,-0.00023747461,-0.0007021509,0.00056699076,4.5337292e-05
1779126768.9534004,2.332641839981079,-1,preflight_wait,1.9011116027832031,0.0,0.0,0.0,0.0,0.0,0.0,0.0,0,0,0,0,1,2.324368953704834,0.0052423235,0.0084912,0.03677989,-0.00022010878,-0.010597237385809422,0.0027355102356523275,0.5895969867706299,0.8076235055923462,0.06786227226257324,24,-0.00023747461,-0.0007021509,0.00056699076,4.5337292e-05
1779126768.973396,2.352637529373169,-1,preflight_wait,1.9211153984069824,0.0,0.0,0.0,0.0,0.0,0.0,0.0,0,0,0,0,1,2.3443689346313477,0.0052423235,0.0084912,0.03677989,-0.00022010878,-0.010597237385809422,0.0027355102356523275,0.5895969867706299,0.8076235055923462,0.08786416053771973,24,-0.00023747461,-0.0007021509,0.00056699076,4.5337292e-05
1779126768.9933999,2.3726413249969482,-1,preflight_wait,1.9411265850067139,0.0,0.0,0.0,0.0,0.0,0.0,0.0,0,0,0,0,1,2.3643710613250732,0.005261844,0.008511001,0.036798842,-0.00020115823,-0.010646573267877102,0.003341489238664508,0.5894774794578552,0.8077077269554138,0.016498804092407227,25,0.00021364956,0.00021671772,0.00020741133,2.797887e-05
1779126769.0134094,2.392650842666626,-1,preflight_wait,1.9611539840698242,0.0,0.0,0.0,0.0,0.0,0.0,0.0,0,0,0,0,1,2.384399175643921,0.005261844,0.008511001,0.036798842,-0.00020115823,-0.010646573267877102,0.003341489238664508,0.5894774794578552,0.8077077269554138,0.036528825759887695,25,0.00021364956,0.00021671772,0.00020741133,2.797887e-05
1779126769.033416,2.4126574993133545,-1,preflight_wait,1.9811310768127441,0.0,0.0,0.0,0.0,0.0,0.0,0.0,0,0,0,0,1,2.4043872356414795,0.005261844,0.008511001,0.036798842,-0.00020115823,-0.010646573267877102,0.003341489238664508,0.5894774794578552,0.8077077269554138,0.05651450157165527,25,0.00021364956,0.00021671772,0.00020741133,2.797887e-05
1779126769.0533953,2.4326367378234863,-1,preflight_wait,2.0011067390441895,0.0,0.0,0.0,0.0,0.0,0.0,0.0,0,0,0,0,1,2.4243648052215576,0.005261844,0.008511001,0.036798842,-0.00020115823,-0.010646573267877102,0.003341489238664508,0.5894774794578552,0.8077077269554138,0.0764918327331543,25,0.00021364956,0.00021671772,0.00020741133,2.797887e-05
1779126769.0734026,2.452644109725952,-1,preflight_wait,2.021131753921509,0.0,0.0,0.0,0.0,0.0,0.0,0.0,0,0,0,0,1,2.4443740844726562,0.005258249,0.008554215,0.03674293,-0.0002570711,-0.011150656268000603,0.00403895927593112,0.5891591906547546,0.8079299330711365,0.0032999515533447266,26,-3.8570968e-05,0.00046365103,-0.00059990847,2.030226e-05
1779126769.0933995,2.4726409912109375,-1,preflight_wait,2.041112184524536,0.0,0.0,0.0,0.0,0.0,0.0,0.0,0,0,0,0,1,2.464370012283325,0.005258249,0.008554215,0.03674293,-0.0002570711,-0.011150656268000603,0.00403895927593112,0.5891591906547546,0.8079299330711365,0.023294925689697266,26,-3.8570968e-05,0.00046365103,-0.00059990847,2.030226e-05
1779126769.1134026,2.4926440715789795,-1,preflight_wait,2.061127185821533,0.0,0.0,0.0,0.0,0.0,0.0,0.0,0,0,0,0,1,2.4843833446502686,0.005258249,0.008554215,0.03674293,-0.0002570711,-0.011150656268000603,0.00403895927593112,0.5891591906547546,0.8079299330711365,0.043308258056640625,26,-3.8570968e-05,0.00046365103,-0.00059990847,2.030226e-05
1779126769.133397,2.512638568878174,-1,preflight_wait,2.0811071395874023,0.0,0.0,0.0,0.0,0.0,0.0,0.0,0,0,0,0,1,2.5043671131134033,0.005258249,0.008554215,0.03674293,-0.0002570711,-0.011150656268000603,0.00403895927593112,0.5891591906547546,0.8079299330711365,0.06329178810119629,26,-3.8570968e-05,0.00046365103,-0.00059990847,2.030226e-05
1779126769.1533961,2.532637596130371,-1,preflight_wait,2.10111141204834,0.0,0.0,0.0,0.0,0.0,0.0,0.0,0,0,0,0,1,2.5243680477142334,0.005258249,0.008554215,0.03674293,-0.0002570711,-0.011150656268000603,0.00403895927593112,0.5891591906547546,0.8079299330711365,0.08329248428344727,26,-3.8570968e-05,0.00046365103,-0.00059990847,2.030226e-05
1779126769.173443,2.5526845455169678,-1,preflight_wait,2.1211631298065186,0.0,0.0,0.0,0.0,0.0,0.0,0.0,0,0,0,0,1,2.5444109439849854,0.005265614,0.008550842,0.036752664,-0.00024733692,-0.011229303665459156,0.004246847704052925,0.5891606211662292,0.8079267144203186,0.01200556755065918,27,8.064069e-05,-3.6924623e-05,0.00010658276,2.206935e-05
1779126769.1934035,2.5726449489593506,-1,preflight_wait,2.1411118507385254,0.0,0.0,0.0,0.0,0.0,0.0,0.0,0,0,0,0,1,2.564370632171631,0.005265614,0.008550842,0.036752664,-0.00024733692,-0.011229303665459156,0.004246847704052925,0.5891606211662292,0.8079267144203186,0.031965017318725586,27,8.064069e-05,-3.6924623e-05,0.00010658276,2.206935e-05
1779126769.2133994,2.5926408767700195,-1,preflight_wait,2.1611287593841553,0.0,0.0,0.0,0.0,0.0,0.0,0.0,0,0,0,0,1,2.584385633468628,0.005265614,0.008550842,0.036752664,-0.00024733692,-0.011229303665459156,0.004246847704052925,0.5891606211662292,0.8079267144203186,0.05198049545288086,27,8.064069e-05,-3.6924623e-05,0.00010658276,2.206935e-05
1779126769.2333984,2.612639904022217,-1,preflight_wait,2.1811110973358154,0.0,0.0,0.0,0.0,0.0,0.0,0.0,0,0,0,0,1,2.6043686866760254,0.005265614,0.008550842,0.036752664,-0.00024733692,-0.011229303665459156,0.004246847704052925,0.5891606211662292,0.8079267144203186,0.07196402549743652,27,8.064069e-05,-3.6924623e-05,0.00010658276,2.206935e-05
1779126769.2533982,2.6326396465301514,-1,preflight_wait,2.201115846633911,0.0,0.0,0.0,0.0,0.0,0.0,0.0,0,0,0,0,1,2.624366283416748,0.005265384,0.00852472,0.036741972,-0.0002580285,-0.011260841973125935,0.004576236940920353,0.5892002582550049,0.8078956007957458,0.0006964206695556641,28,-2.5205563e-06,-0.0002862311,-0.00011714974,1.9661793e-05
1779126769.2734325,2.6526739597320557,-1,preflight_wait,2.221193313598633,0.0,0.0,0.0,0.0,0.0,0.0,0.0,0,0,0,0,1,2.644425868988037,0.005265384,0.00852472,0.036741972,-0.0002580285,-0.011260841973125935,0.004576236940920353,0.5892002582550049,0.8078956007957458,0.020767927169799805,28,-2.5205563e-06,-0.0002862311,-0.00011714974,1.9661793e-05
1779126769.2933915,2.672632932662964,-1,preflight_wait,2.241095781326294,0.0,0.0,0.0,0.0,0.0,0.0,0.0,0,0,0,0,1,2.6643576622009277,0.005265384,0.00852472,0.036741972,-0.0002580285,-0.011260841973125935,0.004576236940920353,0.5892002582550049,0.8078956007957458,0.04068756103515625,28,-2.5205563e-06,-0.0002862311,-0.00011714974,1.9661793e-05
1779126769.313426,2.6926674842834473,-1,preflight_wait,2.2611303329467773,0.0,0.0,0.0,0.0,0.0,0.0,0.0,0,0,0,0,1,2.6843929290771484,0.005265384,0.00852472,0.036741972,-0.0002580285,-0.011260841973125935,0.004576236940920353,0.5892002582550049,0.8078956007957458,0.06072354316711426,28,-2.5205563e-06,-0.0002862311,-0.00011714974,1.9661793e-05
1779126769.3333993,2.7126407623291016,-1,preflight_wait,2.281114339828491,0.0,0.0,0.0,0.0,0.0,0.0,0.0,0,0,0,0,1,2.7043704986572266,0.005265384,0.00852472,0.036741972,-0.0002580285,-0.011260841973125935,0.004576236940920353,0.5892002582550049,0.8078956007957458,0.08070135116577148,28,-2.5205563e-06,-0.0002862311,-0.00011714974,1.9661793e-05
1779126769.3533998,2.7326412200927734,-1,preflight_wait,2.301126480102539,0.0,0.0,0.0,0.0,0.0,0.0,0.0,0,0,0,0,1,2.7243707180023193,0.0052437987,0.0085392175,0.036725555,-0.00027444586,-0.011323097161948681,0.004553757607936859,0.5892212986946106,0.8078795075416565,0.009680509567260742,29,-0.00023714332,0.00015927904,-0.00018036686,6.3559005e-06
1779126769.3734603,2.752701759338379,-1,preflight_wait,2.321171998977661,0.0,0.0,0.0,0.0,0.0,0.0,0.0,0,0,0,0,1,2.744429111480713,0.0052437987,0.0085392175,0.036725555,-0.00027444586,-0.011323097161948681,0.004553757607936859,0.5892212986946106,0.8078795075416565,0.029736757278442383,29,-0.00023714332,0.00015927904,-0.00018036686,6.3559005e-06
1779126769.393721,2.7729625701904297,-1,preflight_wait,2.341434955596924,0.0,0.0,0.0,0.0,0.0,0.0,0.0,0,0,0,0,1,2.7646918296813965,0.0052437987,0.0085392175,0.036725555,-0.00027444586,-0.011323097161948681,0.004553757607936859,0.5892212986946106,0.8078795075416565,0.05000019073486328,29,-0.00023714332,0.00015927904,-0.00018036686,6.3559005e-06
1779126769.413404,2.7926454544067383,-1,preflight_wait,2.3611419200897217,0.0,0.0,0.0,0.0,0.0,0.0,0.0,0,0,0,0,1,2.784383535385132,0.0052437987,0.0085392175,0.036725555,-0.00027444586,-0.011323097161948681,0.004553757607936859,0.5892212986946106,0.8078795075416565,0.0697021484375,29,-0.00023714332,0.00015927904,-0.00018036686,6.3559005e-06
1779126769.4333987,2.8126401901245117,-1,preflight_wait,2.381106376647949,0.0,0.0,0.0,0.0,0.0,0.0,0.0,0,0,0,0,1,2.804365873336792,0.0052437987,0.0085392175,0.036725555,-0.00027444586,-0.011323097161948681,0.004553757607936859,0.5892212986946106,0.8078795075416565,0.08967328071594238,29,-0.00023714332,0.00015927904,-0.00018036686,6.3559005e-06
1779126769.4534318,2.8326733112335205,-1,preflight_wait,2.401153326034546,0.0,0.0,0.0,0.0,0.0,0.0,0.0,0,0,0,0,1,2.8244004249572754,0.005247549,0.008561552,0.036737543,-0.00026245788,-0.011175849474966526,0.0036422014236450195,0.5892490744590759,0.8078659176826477,0.018688201904296875,30,4.120437e-05,0.00024537422,0.00013170665,2.5609424e-05
1779126769.4733977,2.8526391983032227,-1,preflight_wait,2.4211151599884033,0.0,0.0,0.0,0.0,0.0,0.0,0.0,0,0,0,0,1,2.844367504119873,0.005247549,0.008561552,0.036737543,-0.00026245788,-0.011175849474966526,0.0036422014236450195,0.5892490744590759,0.8078659176826477,0.03865528106689453,30,4.120437e-05,0.00024537422,0.00013170665,2.5609424e-05
1779126769.4933968,2.87263822555542,-1,preflight_wait,2.441110372543335,0.0,0.0,0.0,0.0,0.0,0.0,0.0,0,0,0,0,1,2.864366292953491,0.005247549,0.008561552,0.036737543,-0.00026245788,-0.011175849474966526,0.0036422014236450195,0.5892490744590759,0.8078659176826477,0.05865478515625,30,4.120437e-05,0.00024537422,0.00013170665,2.5609424e-05
1779126769.5134034,2.8926448822021484,-1,preflight_wait,2.461129665374756,0.0,0.0,0.0,0.0,0.0,0.0,0.0,0,0,0,0,1,2.8843705654144287,0.005247549,0.008561552,0.036737543,-0.00026245788,-0.011175849474966526,0.0036422014236450195,0.5892490744590759,0.8078659176826477,0.0786581039428711,30,4.120437e-05,0.00024537422,0.00013170665,2.5609424e-05
1779126769.5334036,2.912645101547241,-1,preflight_wait,2.4811301231384277,0.0,0.0,0.0,0.0,0.0,0.0,0.0,0,0,0,0,1,2.9043710231781006,0.0052426066,0.008549935,0.036727514,-0.00027248636,-0.011169864796102047,0.004016689956188202,0.5891932845115662,0.8079049587249756,0.007270336151123047,31,-5.4082633e-05,-0.00012710999,-0.000109734654,1.5450218e-05
1779126769.5533993,2.932640790939331,-1,preflight_wait,2.5011186599731445,0.0,0.0,0.0,0.0,0.0,0.0,0.0,0,0,0,0,1,2.924367666244507,0.0052426066,0.008549935,0.036727514,-0.00027248636,-0.011169864796102047,0.004016689956188202,0.5891932845115662,0.8079049587249756,0.027268409729003906,31,-5.4082633e-05,-0.00012710999,-0.000109734654,1.5450218e-05
1779126769.5733995,2.952641010284424,-1,preflight_wait,2.521118640899658,0.0,0.0,0.0,0.0,0.0,0.0,0.0,0,0,0,0,1,2.944368362426758,0.0052426066,0.008549935,0.036727514,-0.00027248636,-0.011169864796102047,0.004016689956188202,0.5891932845115662,0.8079049587249756,0.04727029800415039,31,-5.4082633e-05,-0.00012710999,-0.000109734654,1.5450218e-05
1779126769.5934007,2.972642183303833,-1,preflight_wait,2.5411217212677,0.0,0.0,0.0,0.0,0.0,0.0,0.0,0,0,0,0,1,2.9643726348876953,0.0052426066,0.008549935,0.036727514,-0.00027248636,-0.011169864796102047,0.004016689956188202,0.5891932845115662,0.8079049587249756,0.06727385520935059,31,-5.4082633e-05,-0.00012710999,-0.000109734654,1.5450218e-05
1779126769.6133986,2.9926400184631348,-1,preflight_wait,2.561128616333008,0.0,0.0,0.0,0.0,0.0,0.0,0.0,0,0,0,0,1,2.9843854904174805,0.0052426066,0.008549935,0.036727514,-0.00027248636,-0.011169864796102047,0.004016689956188202,0.5891932845115662,0.8079049587249756,0.08728551864624023,31,-5.4082633e-05,-0.00012710999,-0.000109734654,1.5450218e-05
1779126769.6333961,3.0126376152038574,-1,preflight_wait,2.5811264514923096,0.0,0.0,0.0,0.0,0.0,0.0,0.0,0,0,0,0,1,3.0043671131134033,0.005241696,0.008527876,0.036740866,-0.00025913492,-0.011160417459905148,0.0039955307729542255,0.5892489552497864,0.8078645467758179,0.015525579452514648,32,-9.928151e-06,-0.00024044802,0.00014553165,1.1114894e-05
1779126769.6533926,3.0326340198516846,-1,preflight_wait,2.601104259490967,0.0,0.0,0.0,0.0,0.0,0.0,0.0,0,0,0,0,1,3.024362087249756,0.005241696,0.008527876,0.036740866,-0.00025913492,-0.011160417459905148,0.0039955307729542255,0.5892489552497864,0.8078645467758179,0.03551936149597168,32,-9.928151e-06,-0.00024044802,0.00014553165,1.1114894e-05
1779126769.6733959,3.0526373386383057,-1,preflight_wait,2.6211049556732178,0.0,0.0,0.0,0.0,0.0,0.0,0.0,0,0,0,0,1,3.044363021850586,0.005241696,0.008527876,0.036740866,-0.00025913492,-0.011160417459905148,0.0039955307729542255,0.5892489552497864,0.8078645467758179,0.05551958084106445,32,-9.928151e-06,-0.00024044802,0.00014553165,1.1114894e-05
1779126769.6933968,3.0726382732391357,-1,preflight_wait,2.6411049365997314,0.0,0.0,0.0,0.0,0.0,0.0,0.0,0,0,0,0,1,3.0643630027770996,0.005241696,0.008527876,0.036740866,-0.00025913492,-0.011160417459905148,0.0039955307729542255,0.5892489552497864,0.8078645467758179,0.07552003860473633,32,-9.928151e-06,-0.00024044802,0.00014553165,1.1114894e-05
1779126769.7133968,3.0926382541656494,-1,preflight_wait,2.6611366271972656,0.0,0.0,0.0,0.0,0.0,0.0,0.0,0,0,0,0,1,3.084376335144043,0.0052385703,0.008521153,0.036791537,-0.00020846352,-0.010631196200847626,0.0032457043416798115,0.5894394516944885,0.8077361583709717,0.014499664306640625,33,-3.856878e-05,-8.296426e-05,0.00062528317,1.8307757e-05
1779126769.7333953,3.1126368045806885,-1,preflight_wait,2.681105852127075,0.0,0.0,0.0,0.0,0.0,0.0,0.0,0,0,0,0,1,3.1043648719787598,0.0052385703,0.008521153,0.036791537,-0.00020846352,-0.010631196200847626,0.0032457043416798115,0.5894394516944885,0.8077361583709717,0.034484148025512695,33,-3.856878e-05,-8.296426e-05,0.00062528317,1.8307757e-05
1779126769.7534328,3.132674217224121,-1,preflight_wait,2.7011499404907227,0.0,0.0,0.0,0.0,0.0,0.0,0.0,0,0,0,0,1,3.124403476715088,0.0052385703,0.008521153,0.036791537,-0.00020846352,-0.010631196200847626,0.0032457043416798115,0.5894394516944885,0.8077361583709717,0.05452394485473633,33,-3.856878e-05,-8.296426e-05,0.00062528317,1.8307757e-05
1779126769.773397,3.1526384353637695,-1,preflight_wait,2.721129894256592,0.0,0.0,0.0,0.0,0.0,0.0,0.0,0,0,0,0,1,3.1443686485290527,0.0052557457,0.0085518565,0.036699783,-0.00030021742,-0.011265626177191734,0.004195832647383213,0.5892090201377869,0.8078911900520325,0.0034918785095214844,34,0.0002419188,0.00043246822,-0.0012923673,1.712322e-05
1779126769.7934082,3.172649621963501,-1,preflight_wait,2.7411210536956787,0.0,0.0,0.0,0.0,0.0,0.0,0.0,0,0,0,0,1,3.1643781661987305,0.0052557457,0.0085518565,0.036699783,-0.00030021742,-0.011265626177191734,0.004195832647383213,0.5892090201377869,0.8078911900520325,0.023500680923461914,34,0.0002419188,0.00043246822,-0.0012923673,1.712322e-05
1779126769.8134363,3.1926777362823486,-1,preflight_wait,2.761155366897583,0.0,0.0,0.0,0.0,0.0,0.0,0.0,0,0,0,0,1,3.18440842628479,0.0052557457,0.0085518565,0.036699783,-0.00030021742,-0.011265626177191734,0.004195832647383213,0.5892090201377869,0.8078911900520325,0.04353165626525879,34,0.0002419188,0.00043246822,-0.0012923673,1.712322e-05
1779126769.8335085,3.21274995803833,-1,preflight_wait,2.781240224838257,0.0,0.0,0.0,0.0,0.0,0.0,0.0,0,0,0,0,1,3.2044854164123535,0.0052557457,0.0085518565,0.036699783,-0.00030021742,-0.011265626177191734,0.004195832647383213,0.5892090201377869,0.8078911900520325,0.06361699104309082,34,0.0002419188,0.00043246822,-0.0012923673,1.712322e-05
1779126769.853427,3.232668399810791,-1,preflight_wait,2.801147222518921,0.0,0.0,0.0,0.0,0.0,0.0,0.0,0,0,0,0,1,3.2243950366973877,0.0052467417,0.00849606,0.036787782,-0.00021221861,-0.01046493835747242,0.002724009333178401,0.589565098285675,0.8076484799385071,0.002539396286010742,35,-0.00011119016,-0.000689027,0.0010866917,4.0021307e-05
1779126769.8733983,3.2526397705078125,-1,preflight_wait,2.8211147785186768,0.0,0.0,0.0,0.0,0.0,0.0,0.0,0,0,0,0,1,3.2443666458129883,0.0052467417,0.00849606,0.036787782,-0.00021221861,-0.01046493835747242,0.002724009333178401,0.589565098285675,0.8076484799385071,0.022511005401611328,35,-0.00011119016,-0.000689027,0.0010866917,4.0021307e-05
1779126769.8934,3.27264142036438,-1,preflight_wait,2.8411200046539307,0.0,0.0,0.0,0.0,0.0,0.0,0.0,0,0,0,0,1,3.264370918273926,0.0052467417,0.00849606,0.036787782,-0.00021221861,-0.01046493835747242,0.002724009333178401,0.589565098285675,0.8076484799385071,0.04251718521118164,35,-0.00011119016,-0.000689027,0.0010866917,4.0021307e-05
1779126769.913397,3.2926385402679443,-1,preflight_wait,2.861133337020874,0.0,0.0,0.0,0.0,0.0,0.0,0.0,0,0,0,0,1,3.2843689918518066,0.0052467417,0.00849606,0.036787782,-0.00021221861,-0.01046493835747242,0.002724009333178401,0.589565098285675,0.8076484799385071,0.0625145435333252,35,-0.00011119016,-0.000689027,0.0010866917,4.0021307e-05
1779126769.9334025,3.3126440048217773,-1,preflight_wait,2.8811137676239014,0.0,0.0,0.0,0.0,0.0,0.0,0.0,0,0,0,0,1,3.3043723106384277,0.0052467417,0.00849606,0.036787782,-0.00021221861,-0.01046493835747242,0.002724009333178401,0.589565098285675,0.8076484799385071,0.08251643180847168,35,-0.00011119016,-0.000689027,0.0010866917,4.0021307e-05
1779126769.9533985,3.3326399326324463,-1,preflight_wait,2.901127815246582,0.0,0.0,0.0,0.0,0.0,0.0,0.0,0,0,0,0,1,3.324368953704834,0.005240365,0.0085472725,0.036740977,-0.00025902316,-0.011312331072986126,0.004555422812700272,0.589289665222168,0.8078297972679138,0.011174440383911133,36,-6.981309e-05,0.0005606765,-0.0005124181,1.4371515e-05
1779126769.973422,3.352663516998291,-1,preflight_wait,2.921142101287842,0.0,0.0,0.0,0.0,0.0,0.0,0.0,0,0,0,0,1,3.344393491744995,0.005240365,0.0085472725,0.036740977,-0.00025902316,-0.011312331072986126,0.004555422812700272,0.589289665222168,0.8078297972679138,0.031200885772705078,36,-6.981309e-05,0.0005606765,-0.0005124181,1.4371515e-05
1779126769.9933925,3.372633934020996,-1,preflight_wait,2.9413411617279053,0.0,0.0,0.0,0.0,0.0,0.0,0.0,0,0,0,0,1,3.364358901977539,0.005240365,0.0085472725,0.036740977,-0.00025902316,-0.011312331072986126,0.004555422812700272,0.589289665222168,0.8078297972679138,0.05140209197998047,36,-6.981309e-05,0.0005606765,-0.0005124181,1.4371515e-05
1779126770.0134082,3.3926496505737305,-1,preflight_wait,2.9611291885375977,0.0,0.0,0.0,0.0,0.0,0.0,0.0,0,0,0,0,1,3.3843789100646973,0.005240365,0.0085472725,0.036740977,-0.00025902316,-0.011312331072986126,0.004555422812700272,0.589289665222168,0.8078297972679138,0.07118344306945801,36,-6.981309e-05,0.0005606765,-0.0005124181,1.4371515e-05
1779126770.0336637,3.412905216217041,-1,preflight_wait,2.981386661529541,0.0,0.0,0.0,0.0,0.0,0.0,0.0,0,0,0,0,1,3.404630422592163,0.0052484674,0.008548537,0.03673351,-0.00026648864,-0.01126957032829523,0.004545468837022781,0.5891901850700378,0.807902991771698,0.010411977767944336,37,0.00010000463,1.560992e-05,-9.21422e-05,1.256287e-05
1779126770.0533953,3.4326367378234863,-1,preflight_wait,3.0011093616485596,0.0,0.0,0.0,0.0,0.0,0.0,0.0,0,0,0,0,1,3.4243650436401367,0.0052484674,0.008548537,0.03673351,-0.00026648864,-0.01126957032829523,0.004545468837022781,0.5891901850700378,0.807902991771698,0.030147790908813477,37,0.00010000463,1.560992e-05,-9.21422e-05,1.256287e-05
1779126770.0733986,3.4526400566101074,-1,preflight_wait,3.0211129188537598,0.0,0.0,0.0,0.0,0.0,0.0,0.0,0,0,0,0,1,3.444368362426758,0.0052484674,0.008548537,0.03673351,-0.00026648864,-0.01126957032829523,0.004545468837022781,0.5891901850700378,0.807902991771698,0.05015134811401367,37,0.00010000463,1.560992e-05,-9.21422e-05,1.256287e-05
1779126770.0934036,3.4726450443267822,-1,preflight_wait,3.041124105453491,0.0,0.0,0.0,0.0,0.0,0.0,0.0,0,0,0,0,1,3.4643747806549072,0.0052484674,0.008548537,0.03673351,-0.00026648864,-0.01126957032829523,0.004545468837022781,0.5891901850700378,0.807902991771698,0.07015800476074219,37,0.00010000463,1.560992e-05,-9.21422e-05,1.256287e-05
1779126770.113415,3.4926564693450928,-1,preflight_wait,3.0611331462860107,0.0,0.0,0.0,0.0,0.0,0.0,0.0,0,0,0,0,1,3.4843833446502686,0.005258724,0.008553834,0.036722988,-0.0002770126,-0.011171613819897175,0.003941825125366449,0.5892669558525085,0.8078515529632568,0.019380807876586914,38,0.00014490106,7.482542e-05,-0.0001486772,2.0179108e-05
1779126770.1333973,3.512638807296753,-1,preflight_wait,3.081116199493408,0.0,0.0,0.0,0.0,0.0,0.0,0.0,0,0,0,0,1,3.5043678283691406,0.005258724,0.008553834,0.036722988,-0.0002770126,-0.011171613819897175,0.003941825125366449,0.5892669558525085,0.8078515529632568,0.0393674373626709,38,0.00014490106,7.482542e-05,-0.0001486772,2.0179108e-05
1779126770.1533933,3.532634735107422,-1,preflight_wait,3.1010990142822266,0.0,0.0,0.0,0.0,0.0,0.0,0.0,0,0,0,0,1,3.5243589878082275,0.005258724,0.008553834,0.036722988,-0.0002770126,-0.011171613819897175,0.003941825125366449,0.5892669558525085,0.8078515529632568,0.0593562126159668,38,0.00014490106,7.482542e-05,-0.0001486772,2.0179108e-05
1779126770.173419,3.5526604652404785,-1,preflight_wait,3.1211369037628174,0.0,0.0,0.0,0.0,0.0,0.0,0.0,0,0,0,0,1,3.5443880558013916,0.005258724,0.008553834,0.036722988,-0.0002770126,-0.011171613819897175,0.003941825125366449,0.5892669558525085,0.8078515529632568,0.07938814163208008,38,0.00014490106,7.482542e-05,-0.0001486772,2.0179108e-05
1779126770.1934006,3.5726420879364014,-1,preflight_wait,3.1411242485046387,0.0,0.0,0.0,0.0,0.0,0.0,0.0,0,0,0,0,1,3.5643723011016846,0.005258724,0.008553834,0.036722988,-0.0002770126,-0.011171613819897175,0.003941825125366449,0.5892669558525085,0.8078515529632568,0.09937238693237305,38,0.00014490106,7.482542e-05,-0.0001486772,2.0179108e-05
1779126770.2134,3.5926413536071777,-1,preflight_wait,3.1611528396606445,0.0,0.0,0.0,0.0,0.0,0.0,0.0,0,0,0,0,1,3.5843701362609863,0.0052442253,0.00856291,0.036726568,-0.00027343258,-0.011242896318435669,0.004516518209129572,0.5892242193222046,0.8078787326812744,0.017877578735351562,39,-0.00014285228,8.9429486e-05,3.527262e-05,2.738035e-05
1779126770.2334032,3.612644672393799,-1,preflight_wait,3.181126117706299,0.0,0.0,0.0,0.0,0.0,0.0,0.0,0,0,0,0,1,3.604377508163452,0.0052442253,0.00856291,0.036726568,-0.00027343258,-0.011242896318435669,0.004516518209129572,0.5892242193222046,0.8078787326812744,0.03788352012634277,39,-0.00014285228,8.9429486e-05,3.527262e-05,2.738035e-05
1779126770.2534006,3.6326420307159424,-1,preflight_wait,3.201124429702759,0.0,0.0,0.0,0.0,0.0,0.0,0.0,0,0,0,0,1,3.624375820159912,0.0052442253,0.00856291,0.036726568,-0.00027343258,-0.011242896318435669,0.004516518209129572,0.5892242193222046,0.8078787326812744,0.057881832122802734,39,-0.00014285228,8.9429486e-05,3.527262e-05,2.738035e-05
1779126770.2733989,3.6526403427124023,-1,preflight_wait,3.2211124897003174,0.0,0.0,0.0,0.0,0.0,0.0,0.0,0,0,0,0,1,3.644367218017578,0.0052442253,0.00856291,0.036726568,-0.00027343258,-0.011242896318435669,0.004516518209129572,0.5892242193222046,0.8078787326812744,0.07787013053894043,39,-0.00014285228,8.9429486e-05,3.527262e-05,2.738035e-05
1779126770.2934494,3.6726908683776855,-1,preflight_wait,3.2411797046661377,0.0,0.0,0.0,0.0,0.0,0.0,0.0,0,0,0,0,1,3.664419174194336,0.0052400846,0.008550905,0.036754698,-0.00024530292,-0.011275007389485836,0.004567996598780155,0.5892724990844727,0.8078427910804749,0.006512880325317383,40,-4.5296885e-05,-0.0001313365,0.0003077254,1.7512626e-05
1779126770.3134167,3.6926581859588623,-1,preflight_wait,3.2611501216888428,0.0,0.0,0.0,0.0,0.0,0.0,0.0,0,0,0,0,1,3.6843998432159424,0.0052400846,0.008550905,0.036754698,-0.00024530292,-0.011275007389485836,0.004567996598780155,0.5892724990844727,0.8078427910804749,0.02649235725402832,40,-4.5296885e-05,-0.0001313365,0.0003077254,1.7512626e-05
1779126770.333464,3.712705373764038,-1,preflight_wait,3.2812089920043945,0.0,0.0,0.0,0.0,0.0,0.0,0.0,0,0,0,0,1,3.7044384479522705,0.0052400846,0.008550905,0.036754698,-0.00024530292,-0.011275007389485836,0.004567996598780155,0.5892724990844727,0.8078427910804749,0.046532630920410156,40,-4.5296885e-05,-0.0001313365,0.0003077254,1.7512626e-05
1779126770.353401,3.732642412185669,-1,preflight_wait,3.3011224269866943,0.0,0.0,0.0,0.0,0.0,0.0,0.0,0,0,0,0,1,3.724369525909424,0.0052400846,0.008550905,0.036754698,-0.00024530292,-0.011275007389485836,0.004567996598780155,0.5892724990844727,0.8078427910804749,0.06646203994750977,40,-4.5296885e-05,-0.0001313365,0.0003077254,1.7512626e-05
1779126770.3733938,3.7526352405548096,-1,preflight_wait,3.321106195449829,0.0,0.0,0.0,0.0,0.0,0.0,0.0,0,0,0,0,1,3.744363784790039,0.0052400846,0.008550905,0.036754698,-0.00024530292,-0.011275007389485836,0.004567996598780155,0.5892724990844727,0.8078427910804749,0.08645486831665039,40,-4.5296885e-05,-0.0001313365,0.0003077254,1.7512626e-05
1779126770.3933961,3.7726376056671143,-1,preflight_wait,3.3411190509796143,0.0,0.0,0.0,0.0,0.0,0.0,0.0,0,0,0,0,1,3.764366388320923,0.0052367784,0.008502235,0.03680693,-0.00019307062,-0.010448656976222992,0.002607760950922966,0.5895829796791077,0.8076360821723938,0.014579296112060547,41,-3.5984274e-05,-0.00052971893,0.0005684907,3.6006204e-05
1779126770.413427,3.792668581008911,-1,preflight_wait,3.361149311065674,0.0,0.0,0.0,0.0,0.0,0.0,0.0,0,0,0,0,1,3.784398078918457,0.0052367784,0.008502235,0.03680693,-0.00019307062,-0.010448656976222992,0.002607760950922966,0.5895829796791077,0.8076360821723938,0.03461313247680664,41,-3.5984274e-05,-0.00052971893,0.0005684907,3.6006204e-05
1779126770.4334,3.8126413822174072,-1,preflight_wait,3.3811163902282715,0.0,0.0,0.0,0.0,0.0,0.0,0.0,0,0,0,0,1,3.804370164871216,0.0052367784,0.008502235,0.03680693,-0.00019307062,-0.010448656976222992,0.002607760950922966,0.5895829796791077,0.8076360821723938,0.05458402633666992,41,-3.5984274e-05,-0.00052971893,0.0005684907,3.6006204e-05
1779126770.4533954,3.832636833190918,-1,preflight_wait,3.4011125564575195,0.0,0.0,0.0,0.0,0.0,0.0,0.0,0,0,0,0,1,3.8243672847747803,0.0052367784,0.008502235,0.03680693,-0.00019307062,-0.010448656976222992,0.002607760950922966,0.5895829796791077,0.8076360821723938,0.07458114624023438,41,-3.5984274e-05,-0.00052971893,0.0005684907,3.6006204e-05
1779126770.4734018,3.8526432514190674,-1,preflight_wait,3.4211342334747314,0.0,0.0,0.0,0.0,0.0,0.0,0.0,0,0,0,0,1,3.8443727493286133,0.005245637,0.008540529,0.03673081,-0.00026918948,-0.011152464896440506,0.004069607704877853,0.5892412066459656,0.8078699111938477,0.0035140514373779297,42,9.727098e-05,0.00042047814,-0.00083580235,5.81184e-06
1779126770.493412,3.8726534843444824,-1,preflight_wait,3.441127061843872,0.0,0.0,0.0,0.0,0.0,0.0,0.0,0,0,0,0,1,3.8643829822540283,0.005245637,0.008540529,0.03673081,-0.00026918948,-0.011152464896440506,0.004069607704877853,0.5892412066459656,0.8078699111938477,0.02352428436279297,42,9.727098e-05,0.00042047814,-0.00083580235,5.81184e-06
1779126770.5133998,3.892641305923462,-1,preflight_wait,3.461134433746338,0.0,0.0,0.0,0.0,0.0,0.0,0.0,0,0,0,0,1,3.8843846321105957,0.005245637,0.008540529,0.03673081,-0.00026918948,-0.011152464896440506,0.004069607704877853,0.5892412066459656,0.8078699111938477,0.04352903366088867,42,9.727098e-05,0.00042047814,-0.00083580235,5.81184e-06
