wall_time_s,elapsed_s,mode,thrust_raw,thrust_percent,roll_cmd_deg,pitch_cmd_deg,yawrate_cmd_deg_s,mocap_x,mocap_y,mocap_z,mocap_qx,mocap_qy,mocap_qz,mocap_qw,yaw_deg,mocap_age_s,mocap_frame_count,drift_x_m,drift_y_m,horizontal_drift_m,velocity_x_m_s,velocity_y_m_s,horizontal_speed_m_s,body_error_x_m,body_error_y_m,body_velocity_x_m_s,body_velocity_y_m_s,battery_v,estimate_z
1779206431.8559575,0.0008754730224609375,hold-xy,0,0.0,-5.1226823e-05,-2.2846209e-05,0.0,0.014872402,-0.0021463633,0.037210744,-0.008712089620530605,-0.0004738385323435068,0.6548551917076111,0.7557039856910706,81.81689603905455,0.0006101131439208984,220,-8.992851e-06,-2.5536865e-06,9.348405020583823e-06,0.0,0.0,0.0,3.8077014e-06,-8.537804e-06,0.0,0.0,4.0170087814331055,107.81317901611328
1779206431.8783505,0.023268461227416992,hold-xy,0,0.0,-0.001287217,-0.0012645879,0.0,0.014850592,-0.0021627732,0.03719421,-0.008602539077401161,-0.0008448706357739866,0.6549080610275269,0.7556591033935547,81.82502964057683,0.002381563186645508,221,-3.0802563e-05,-1.896359e-05,3.617202937507714e-05,-0.00031728542,-0.00023872958,0.0003970665491687109,2.3150908e-05,-2.7793003e-05,-0.0002814206,0.00028011476,4.0170087814331055,107.81317901611328
1779206431.8993618,0.04427981376647949,hold-xy,0,0.0,0.0026140318,0.003952726,0.0,0.014890157,-0.002122295,0.03721118,-0.008590012788772583,-0.000734129745978862,0.6547510027885437,0.7557954788208008,81.8011828648181,0.011484384536743164,222,8.761883e-06,2.1514483e-05,2.3230229272794387e-05,0.00077460875,0.00085261394,0.0011519415152160164,-2.2544105e-05,5.6041813e-06,0.0009543653,-0.00064510165,4.0170087814331055,107.8328628540039
1779206431.9196954,0.06461334228515625,hold-xy,0,0.0,0.000926022,0.0012014777,0.0,0.014865195,-0.0021543931,0.037223227,-0.008688421919941902,-0.0008939213585108519,0.6549956798553467,0.7555821537971497,81.8383239836676,0.0013926029205322266,224,-1.6199425e-05,-1.058355e-05,1.9350268049706945e-05,0.00029610234,0.00028033633,0.0004077561198569158,1.2776134e-05,-1.4532833e-05,0.00031953363,-0.00025330475,4.0170087814331055,107.8328628540039
1779206431.9606159,0.10553383827209473,hold-xy,0,0.0,0.00047447145,0.0012612545,0.0,0.014862858,-0.0021413565,0.03722262,-0.008726372383534908,-0.0004312746459618211,0.6547331809997559,0.7558095455169678,81.79838457723464,0.0012536048889160156,226,-1.8537045e-05,2.4531037e-06,1.869865593651221e-05,0.00019019187,0.00029148738,0.0003480486239653611,2.1642222e-07,-1.8697403e-05,0.00031563826,-0.00014666397,4.0170087814331055,107.8328628540039
1779206431.9812732,0.1261911392211914,hold-xy,0,0.0,-2.7656875e-05,-0.0036208865,0.0,0.014848126,-0.0022088932,0.03720517,-0.008626488968729973,-0.0011293053394183517,0.6550499796867371,0.7555354833602905,81.84664956472066,0.0016803741455078125,227,-3.3268705e-05,-6.5083615e-05,7.309366339731164e-05,-8.532255e-05,-0.0007974657,0.0008020171013050892,6.914402e-05,-2.3702069e-05,-0.0008015056,-2.8638882e-05,4.0170087814331055,107.8328628540039
1779206432.021723,0.1666409969329834,hold-xy,0,0.0,0.00095693325,1.5571204e-05,0.0,0.014880599,-0.0021503419,0.03720046,-0.008669202215969563,-0.0005571278161369264,0.6547988653182983,0.7557532787322998,81.8083818019934,0.00946807861328125,229,-7.953495e-07,-6.5322965e-06,6.580537885179364e-06,0.00023854013,-2.043543e-05,0.00023941387361099323,6.5789727e-06,1.4351411e-07,1.3761261e-05,-0.00023901805,4.0170087814331055,107.82437896728516
1779206432.0420327,0.18695068359375,hold-xy,0,0.0,0.00025098474,0.00073681906,0.0,0.01487582,-0.002138149,0.037205845,-0.008685247041285038,-0.0005122264265082777,0.6547488570213318,0.7557964324951172,81.80078612507486,0.009364128112792969,231,-5.574897e-06,5.6605786e-06,7.944911955563429e-06,9.673758e-05,0.00016488243,0.00019116583020381786,-4.8076513e-06,-6.3251964e-06,0.00017699329,-7.2233976e-05,4.0170087814331055,107.82437896728516
1779206432.0623577,0.2072756290435791,hold-xy,0,0.0,-0.0005777481,-2.643053e-05,0.0,0.014863271,-0.0021449327,0.03723635,-0.00870454777032137,-0.0001870533887995407,0.6548333764076233,0.7557231187820435,81.81352832941992,0.009277820587158203,232,-1.8123537e-05,-1.123175e-06,1.8158306890432474e-05,-0.000116720796,1.5711608e-05,0.00011777350674784803,3.692435e-06,-1.777892e-05,-1.06898e-06,0.00011776865,4.0170087814331055,107.82437896728516
1779206432.0833967,0.22831463813781738,hold-xy,0,0.0,-0.00046895648,0.00035068177,0.0,0.014863601,-0.0021391641,0.037203208,-0.009015442803502083,-0.00019949056149926037,0.654632031917572,0.755893886089325,81.78296627189538,0.010090351104736328,233,-1.779385e-05,4.645437e-06,1.8390245614589436e-05,-7.6814606e-05,9.655843e-05,0.00012338563145443092,-2.0545924e-06,-1.8275114e-05,8.458855e-05,8.982645e-05,4.0170087814331055,107.82437896728516
1779206432.1037204,0.24863839149475098,hold-xy,0,0.0,-0.0014528888,-0.0011827222,0.0,0.014852529,-0.002150042,0.037226923,-0.008702171966433525,-0.00040956807788461447,0.6548559665679932,0.7557035088539124,81.81699997231023,0.019507646560668945,234,-2.8865412e-05,-6.2324107e-06,2.9530576158775675e-05,-0.00035831172,-0.00023162214,0.00042665689203890377,1.0277521e-05,-2.7684428e-05,-0.00028026427,0.00032169558,4.0170087814331055,107.80673217773438
1779206432.1241848,0.2691028118133545,hold-xy,0,0.0,0.00013487236,-0.001721498,0.0,0.014875941,-0.0021728491,0.037195954,-0.008761974982917309,-0.0004153683839831501,0.6548054814338684,0.7557465434074402,81.80933916343483,0.009575128555297852,236,-5.453825e-06,-2.903957e-05,2.9547263939578523e-05,-1.9759536e-05,-0.00038722882,0.0003877326444992897,2.9520343e-05,-1.2609953e-06,-0.00038609398,-3.5609584e-05,4.0170087814331055,107.80673217773438
1779206432.14471,0.2896280288696289,hold-xy,0,0.0,-0.0028189532,-0.00039574585,0.0,0.014833413,-0.002153295,0.0372233,-0.008666224777698517,-0.0003999310720246285,0.654808759689331,0.7557448148727417,81.80984385235938,0.009714365005493164,237,-4.798174e-05,-9.48552e-06,4.8910350848829296e-05,-0.0006396723,1.669713e-05,0.0006398901493789339,1.62242e-05,-4.614106e-05,-7.460017e-05,0.0006355267,4.0170087814331055,107.80673217773438
1779206432.1649415,0.3098595142364502,hold-xy,0,0.0,0.0014201958,0.0025976845,0.0,0.0148925,-0.002116846,0.037226297,-0.008645989000797272,-0.0008282304042950273,0.6546753644943237,0.7558602690696716,81.78973841282121,0.009693622589111328,238,1.110509e-05,2.6963651e-05,2.9160958547945267e-05,0.00042749365,0.0005516163,0.0006978763094236575,-2.8273167e-05,7.140694e-06,0.0006070114,-0.0003443379,4.0170087814331055,107.80673217773438
1779206432.1859684,0.3308863639831543,hold-xy,0,0.0,-6.2968065e-05,-0.0002542945,0.0,0.01487037,-0.0021485118,0.03723036,-0.008294668048620224,-0.0015614377334713936,0.6548749208450317,0.7556901574134827,81.82031750796112,0.00911855697631836,240,-1.1024997e-05,-4.7022477e-06,1.1985895034353154e-05,-8.089497e-06,-5.363376e-05,5.4240392541238984e-05,6.2230242e-06,-1.0243811e-05,-5.4239088e-05,3.762998e-07,4.0170087814331055,107.80673217773438
1779206432.20635,0.35126805305480957,hold-xy,0,0.0,-0.0016137089,-0.00040341396,0.0,0.014846358,-0.0021483414,0.0372171,-0.008890066295862198,0.0004267428594175726,0.6543207764625549,0.7561647295951843,81.73572895367144,0.009238481521606445,241,-3.5036355e-05,-4.5318156e-06,3.532822561943995e-05,-0.00036117996,-3.502018e-05,0.0003628737823088487,9.520851e-06,-3.4021126e-05,-8.657221e-05,0.00035239555,4.011730194091797,107.79383850097656
1779206432.2278647,0.37278270721435547,hold-xy,0,0.0,0.0019090995,0.0014406072,0.0,0.014897862,-0.0021284837,0.0372322,-0.00860452838242054,-0.0007486245012842119,0.6547269821166992,0.7558161020278931,81.79754371903269,0.01020359992980957,242,1.6467646e-05,1.5325844e-05,2.249588532791731e-05,0.0004990743,0.0002653853,0.0005652473108248363,-1.7518525e-05,1.4112625e-05,0.00033387402,-0.00045610595,4.011730194091797,107.79383850097656
1779206432.2694595,0.41437745094299316,hold-xy,0,0.0,-0.00082201103,-0.0006279859,0.0,0.014882857,-0.002133092,0.037236672,-3.6893488147419103e+19,1.8139322996139526,-8.404655456542969,4.661061683302027e+23,-90.0,0.020974159240722656,243,1.4621764e-06,1.071766e-05,1.081694025121837e-05,0.0002033095,0.00014091999,0.00024737257519554337,1.071766e-05,-1.4621764e-06,-0.00014091999,0.0002033095,4.011730194091797,107.79383850097656
1779206432.2930446,0.43796253204345703,hold-xy,0,0.0,-0.00053223665,-0.0010976614,0.0,0.014845626,-0.002176487,0.037209764,-0.008584295399487019,-0.0008534130756743252,0.6549132466316223,0.7556548118591309,81.82582074427376,0.0014996528625488281,246,-3.5768375e-05,-3.2677315e-05,4.8447740490412943e-05,-0.00011707195,-0.0002036927,0.00023493947823854562,3.743098e-05,-3.0758827e-05,-0.00021826889,8.6920925e-05,4.011730194091797,107.79383850097656
1779206432.316559,0.46147704124450684,hold-xy,0,0.0,-0.00074810034,0.0018716326,0.0,0.014846874,-0.0021266937,0.037248217,-0.008665998466312885,-0.0005561885773204267,0.6548593640327454,0.7557008266448975,81.81755448218742,0.0003914833068847656,247,-3.4520403e-05,1.7115846e-05,3.853064280008585e-05,-6.6745204e-05,0.0004640895,0.0004688645783029935,-1.2028466e-05,-3.6605004e-05,0.00044986547,0.00013211758,4.0170087814331055,107.78626251220703
1779206432.339647,0.48456501960754395,hold-xy,0,0.0,-0.0017549199,-0.0044296044,0.0,0.014830677,-0.0021721013,0.037233833,-0.008531936444342136,-0.0006084121996536851,0.6547378301620483,0.755807638168335,81.7991563606749,0.013127565383911133,248,-5.0717965e-05,-2.8291717e-05,5.807523744103392e-05,-0.0005161302,-0.0009910575,0.0011174011139307746,3.5236997e-05,-4.6163696e-05,-0.0010545456,0.00036948442,4.0170087814331055,107.78626251220703
1779206432.36417,0.5090880393981934,hold-xy,0,0.0,-0.00041576373,-0.0022534851,0.0,0.01484862,-0.0021584611,0.037225302,-0.008828993886709213,-4.2957581172231585e-05,0.6548691391944885,0.7556906938552856,81.81891168374217,0.013979434967041016,249,-3.2775104e-05,-1.4651567e-05,3.590091619830949e-05,-0.00013388948,-0.0005208696,0.000537802533389864,1.9166431e-05,-3.0356608e-05,-0.00053462165,5.8406018e-05,4.0170087814331055,107.78626251220703
1779206432.3862798,0.5311977863311768,hold-xy,0,0.0,0.001113223,-0.00022836956,0.0,0.014889941,-0.0021292176,0.037214957,-0.008669480681419373,-0.0007803102489560843,0.6546000838279724,0.7559252381324768,81.77830865392363,0.00048661231994628906,250,8.545816e-06,1.4591962e-05,1.691024287771369e-05,0.00025446224,-0.000118192285,0.0002805716560083102,-1.5664073e-05,6.3712796e-06,-8.05885e-05,-0.00026874884,4.0170087814331055,107.78626251220703
1779206432.408058,0.5529758930206299,hold-xy,0,0.0,-0.0010139196,-0.0033598428,0.0,0.014855413,-0.0021743886,0.037195813,-0.008549299091100693,-0.0013348812935873866,0.654844343662262,0.7557142376899719,81.81555572240076,0.0019392967224121094,251,-2.5982037e-05,-3.0579045e-05,4.012660264912286e-05,-0.0003315021,-0.0007494516,0.0008194945306059475,3.3966404e-05,-2.1364169e-05,-0.0007890111,0.00022143364,4.0170087814331055,107.80074310302734
1779206432.44893,0.5938479900360107,hold-xy,0,0.0,-0.0012128178,-0.0015501411,0.0,0.014847998,-0.002154136,0.037205193,-0.008862125687301159,-0.0004398752935230732,0.6548964977264404,0.7556665539741516,81.82313479742368,0.012377023696899414,252,-3.3397228e-05,-1.0326505e-05,3.495728095829202e-05,-0.00030514505,-0.0003249812,0.00044578724658545497,1.4971586e-05,-3.158897e-05,-0.0003650779,0.000255821,4.0170087814331055,107.80074310302734
1779206432.4895208,0.6344387531280518,hold-xy,0,0.0,-0.0006382265,-0.00029250685,0.0,0.01485827,-0.002133308,0.03723906,-0.008680441416800022,-0.0006836514221504331,0.6548038721084595,0.7557486891746521,81.80917409779491,0.014417648315429688,253,-2.312474e-05,1.0501593e-05,2.539757909317853e-05,-0.00013366027,-6.540104e-05,0.0001488031001360905,-7.099876e-06,-2.4385012e-05,-8.3776526e-05,0.00012297911,4.0170087814331055,107.80074310302734
1779206432.5116124,0.6565303802490234,hold-xy,0,0.0,-0.00032460317,-0.00041694962,0.0,0.014861286,-0.002138922,0.037218485,-0.008581754751503468,-0.0005903197452425957,0.6548503637313843,0.755709707736969,81.81620975565693,0.004836320877075195,254,-2.0109117e-05,4.887581e-06,2.069456533843189e-05,-6.499881e-05,-9.8955556e-05,0.0001183936108014114,-1.9752977e-06,-2.0600079e-05,-0.00010720035,5.0250677e-05,4.0170087814331055,107.84131622314453
1779206432.5524385,0.6973564624786377,hold-xy,0,0.0,-0.00042306012,0.0005753127,0.0,0.014860541,-0.002119651,0.037204422,-0.008637676015496254,-0.0005604454781860113,0.6546846032142639,0.7558526396751404,81.79106286774336,0.015312433242797852,255,-2.0854175e-05,2.4158508e-05,3.1914419141049315e-05,-5.286383e-05,0.00012121823,0.00013224388254418182,-2.093335e-05,-2.4089934e-05,0.000112428155,6.963013e-05,4.0170087814331055,107.84131622314453
1779206432.5729609,0.7178788185119629,hold-xy,0,0.0,-0.00072312274,-0.00018484499,0.0,0.014850112,-0.002132196,0.037248578,-0.008506011217832565,-0.0008484771242365241,0.6547059416770935,0.7558352947235107,81.79439495489186,0.0050394535064697266,256,-3.1283125e-05,1.16135925e-05,3.336928987591213e-05,-0.00013860075,-3.7356476e-05,0.0001435467645467492,-7.029787e-06,-3.2620414e-05,-5.675593e-05,0.00013185006,4.0170087814331055,107.84131622314453
1779206432.6148279,0.7597458362579346,hold-xy,0,0.0,-0.0007181305,-0.00049682526,0.0,0.014843935,-0.002142829,0.037215818,-0.008582190610468388,-0.0006058165454305708,0.6547437906265259,0.7558020353317261,81.8000551152077,0.003000020980834961,257,-3.7459657e-05,9.806827e-07,3.747249197799368e-05,-0.00013922296,-9.8801116e-05,0.00017071817058962198,4.372139e-06,-3.7216556e-05,-0.0001176481,0.0001237078,4.0170087814331055,107.78944396972656
1779206432.6353297,0.780247688293457,hold-xy,0,0.0,8.293707e-05,-0.00055179175,0.0,0.014848914,-0.0021451432,0.037235226,-0.008905374445021152,-0.0001031814026646316,0.6546974182128906,0.7558385729789734,81.7928753144893,0.013341426849365234,258,-3.2480806e-05,-1.3336539e-06,3.2508173266300275e-05,4.9550785e-05,-0.0001374945,0.00014615066799213023,5.9566955e-06,-3.195777e-05,-0.00012901289,-6.8670925e-05,4.0170087814331055,107.78944396972656
1779206432.675879,0.8207969665527344,hold-xy,0,0.0,-0.00031927746,-0.00021795514,0.0,0.014840731,-0.0021388773,0.037216123,-0.008692081086337566,-0.0004562783578876406,0.6547321677207947,0.7558108568191528,81.79824142148844,0.01329350471496582,259,-4.0663406e-05,4.9322844e-06,4.0961446374452066e-05,-2.5781184e-05,-4.9942915e-05,5.620466351943575e-05,9.191772e-07,-4.095113e-05,-5.311002e-05,1.839267e-05,4.0170087814331055,107.78944396972656
1779206432.6961846,0.8411026000976562,hold-xy,0,0.0,-0.0026526027,-0.0010728276,0.0,0.01480178,-0.0021479232,0.037215203,-0.008675728924572468,-0.0003487340291030705,0.6545592546463013,0.7559609413146973,81.77200675765596,0.012628793716430664,260,-7.961504e-05,-4.113652e-06,7.972124581024324e-05,-0.0005752857,-0.00016437046,0.0005983070183170103,1.5465215e-05,-7.820681e-05,-0.00024500908,0.0005458405,4.011730194091797,107.76598358154297
1779206432.7179353,0.8628532886505127,hold-xy,0,0.0,-0.0005043174,-0.00019140595,0.0,0.0148362275,-0.002139818,0.0372111,-0.008969916962087154,-0.00019894794968422502,0.6546534299850464,0.7558758854866028,81.78621559741725,0.0038793087005615234,261,-4.5167282e-05,3.9916486e-06,4.534332023829761e-05,-6.38715e-05,-3.5335514e-05,7.299429290471075e-05,2.502215e-06,-4.5274224e-05,-4.4098168e-05,5.8168018e-05,4.011730194091797,107.76598358154297
1779206432.7586617,0.9035797119140625,hold-xy,0,0.0,-0.0010606481,-0.0035207174,0.0,0.014811497,-0.002213074,0.037174754,-0.008634660392999649,-0.0008828475838527083,0.6549487709999084,0.755623459815979,81.83121246599924,0.013430356979370117,262,-6.989762e-05,-6.926432e-05,9.840337392799031e-05,-0.0002826896,-0.0007296756,0.0007825214852040241,7.8493285e-05,-5.934668e-05,-0.00076243945,0.000176142,4.011730194091797,107.76598358154297
1779206432.7994647,0.9443826675415039,hold-xy,0,0.0,-0.00046291933,-0.0019725072,0.0,0.014824895,-0.0021968726,0.03720335,-0.008857152424752712,-0.0007572356262244284,0.6550359725952148,0.7555453777313232,81.84437227868371,0.013267755508422852,263,-5.6499615e-05,-5.3063035e-05,7.75105925774101e-05,-9.97661e-05,-0.00039212726,0.00040461965009275865,6.0541548e-05,-4.8400554e-05,-0.0004023145,4.3129003e-05,4.0170087814331055,107.82047271728516
1779206432.8208811,0.96579909324646,hold-xy,0,0.0,0.00036985436,0.0010334622,0.0,0.014851112,-0.0021415856,0.03721798,-0.008623975329101086,-0.000821353925857693,0.6547945737838745,0.7557572722434998,81.80781216588147,0.0023970603942871094,265,-3.0282885e-05,2.2239983e-06,3.0364440629156727e-05,0.00017375994,0.00023921762,0.0002956646573594903,2.1138246e-06,-3.0290776e-05,0.0002615363,-0.00013789975,4.0170087814331055,107.82047271728516
1779206432.8412936,0.9862115383148193,hold-xy,0,0.0,0.0021332332,0.0017316304,0.0,0.014882935,-0.002130326,0.03720714,-0.008717156015336514,-0.0005968835321255028,0.6547542810440063,0.7557913064956665,81.80162689225142,0.0023069381713867188,266,1.5404075e-06,1.3483688e-05,1.357139259147031e-05,0.0005872804,0.00033220765,0.0006747296968340114,-1.3565552e-05,-3.9812016e-07,0.00041255928,-0.00053390546,4.0170087814331055,107.82047271728516
1779206432.8625917,1.007509708404541,hold-xy,0,0.0,8.683215e-05,-0.0012782934,0.0,0.014855763,-0.0021658614,0.03720481,-0.00872515607625246,-0.000207816920010373,0.6547315120697021,0.7558111548423767,81.79808521718041,0.0030591487884521484,267,-2.563186e-05,-2.2051856e-05,3.3812373245814865e-05,1.4342804e-05,-0.00028632372,0.00028668272725371105,2.548299e-05,-2.2223721e-05,-0.00028134888,-5.504362e-05,4.0170087814331055,107.82047271728516
1779206432.8828962,1.0278141498565674,hold-xy,0,0.0,-0.0005637668,6.898747e-05,0.0,0.014848996,-0.002148997,0.037225183,-0.009038206189870834,7.065884710755199e-05,0.6546574234962463,0.7558716535568237,81.7867691296905,0.0027480125427246094,269,-3.239885e-05,-5.1874667e-06,3.2811511050051935e-05,-8.8433975e-05,4.4985747e-05,9.921837222441157e-05,9.762679e-06,-3.132548e-05,3.1890886e-05,9.395348e-05,4.0170087814331055,107.82047271728516
1779206432.9032588,1.0481767654418945,hold-xy,0,0.0,2.2403357e-05,-0.0012489075,0.0,0.014853403,-0.00216953,0.037202764,-0.00868445448577404,-0.0007512816810049117,0.6548384428024292,0.7557185888290405,81.81443499626734,0.002764463424682617,270,-2.7991831e-05,-2.5720336e-05,3.801418523736593e-05,3.0767987e-06,-0.0002712629,0.000271280337390307,2.9443767e-05,-2.4044604e-05,-0.00026806124,-4.1667747e-05,4.011730194091797,107.81693267822266
1779206432.929978,1.0748958587646484,hold-xy,0,0.0,-0.00027202553,0.0009146389,0.0,0.014853729,-0.0021403097,0.037195683,-0.008555755950510502,-0.0007670274353586137,0.6546707153320312,0.7558653950691223,81.78902451053288,0.008644819259643555,271,-2.7665868e-05,3.4999102e-06,2.788637062945278e-05,6.846408e-06,0.00023077843,0.00023087996681803855,4.8716606e-07,-2.7882115e-05,0.00022939048,2.6183212e-05,4.011730194091797,107.81693267822266
1779206432.9503846,1.0953025817871094,hold-xy,0,0.0,-6.053591e-05,0.0027592676,0.0,0.0148583,-0.0021205675,0.037238467,-0.008784150704741478,-0.00013734235835727304,0.6548258662223816,0.7557287216186523,81.81237118716896,0.01692819595336914,272,-2.3094937e-05,2.3242086e-05,3.276538839693029e-05,0.00011790312,0.00065007777,0.0006606831566413528,-1.9716108e-05,-2.6169557e-05,0.00066024275,-2.412036e-05,4.011730194091797,107.81693267822266
1779206432.970843,1.1157610416412354,hold-xy,0,0.0,-0.00036920665,0.0014954836,0.0,0.014850665,-0.0021300446,0.037228283,-0.008589621633291245,-0.0009373705834150314,0.6547858119010925,0.7557651400566101,81.80652560200359,0.006647586822509766,273,-3.072992e-05,1.3764948e-05,3.367197230899225e-05,8.018054e-06,0.00036256167,0.0003626503140019101,-9.24493e-06,-3.237797e-05,0.0003600035,4.3734704e-05,4.011730194091797,107.81693267822266
1779206432.9911788,1.136096715927124,hold-xy,0,0.0,-0.0007438164,-0.0048460714,0.0,0.0148400515,-0.0021786224,0.037212647,-0.008540041744709015,-0.0012454604730010033,0.6548067927360535,0.7557470202445984,81.80982583781422,0.01637864112854004,274,-4.134327e-05,-3.4812838e-05,5.40481241724233e-05,-0.0002946344,-0.0011204509,0.0011585420413767903,4.03475e-05,-3.5962188e-05,-0.0011509965,0.00013201081,4.011730194091797,107.81693267822266
1779206433.0118876,1.1568055152893066,hold-xy,0,0.0,-0.0029439921,-0.0030956296,0.0,0.014789283,-0.0021629632,0.03720262,-0.008630854077637196,-0.0009349053725600243,0.6544551253318787,0.7560510039329529,81.7563909047,0.006315469741821289,275,-9.211153e-05,-1.915358e-05,9.408184413591378e-05,-0.0007011905,-0.0006316515,0.0009437434681618612,3.2162832e-05,-8.841349e-05,-0.00072566315,0.00060337776,4.011730194091797,107.81117248535156
1779206433.0557349,1.200652837753296,hold-xy,0,0.0,0.001096091,-0.000945247,0.0,0.0148677565,-0.002145037,0.037221126,-0.008649050258100033,-0.0005606066551990807,0.6548221111297607,0.7557333111763,81.81190904337271,0.018725872039794922,276,-1.3638288e-05,-1.2274832e-06,1.3693414660529154e-05,0.0002580305,-0.00027108873,0.0003742577116814531,3.1573786e-06,-1.3324435e-05,-0.00023157569,-0.0002940094,4.011730194091797,107.81117248535156
1779206433.0770564,1.2219743728637695,hold-xy,0,0.0,0.001705836,-0.00043149877,0.0,0.014889475,-0.0021429434,0.037204433,-0.008843234740197659,-0.0005690814577974379,0.6545120477676392,0.7559996843338013,81.76488427159734,0.009582281112670898,277,8.080155e-06,8.6613e-07,8.126443070904921e-06,0.0003944899,-0.00016914563,0.0004292231741519537,-2.0145642e-06,7.872777e-06,-0.00011089654,-0.00041464984,4.011730194091797,107.81117248535156
1779206433.0979748,1.2428927421569824,hold-xy,0,0.0,-0.00037226963,0.0002955325,0.0,0.014866201,-0.002130134,0.03718572,-0.008752509020268917,-0.0008669045637361705,0.6546006202697754,0.7559237480163574,81.77840863037748,0.009652137756347656,279,-1.51935965e-05,1.3675541e-05,2.0441766007846966e-05,-5.8755075e-05,6.591929e-05,8.830351681141853e-05,-1.13622755e-05,-1.6993072e-05,5.6839708e-05,6.75778e-05,4.0170087814331055,107.8133544921875
1779206433.1183758,1.263293743133545,hold-xy,0,0.0,-0.00034165278,-0.0027506405,0.0,0.014858915,-0.0021752827,0.037218217,-0.008603920228779316,-0.0009857555851340294,0.6547755599021912,0.7557737827301025,81.80498622369447,0.009758472442626953,280,-2.2480264e-05,-3.1473115e-05,3.867711568019184e-05,-0.0001488416,-0.00062125345,0.0006388346079317748,3.4356133e-05,-1.7764443e-05,-0.0006361259,5.8766527e-05,4.0170087814331055,107.8133544921875
1779206433.1418517,1.2867696285247803,hold-xy,0,0.0,0.0014976028,0.0051188436,0.0,0.014851179,-0.0022013728,0.03720638,1.0842021724855044e-19,1.8139575719833374,-8.404655456542969,4.661061683302027e+23,-90.0,0.022915124893188477,281,-3.021583e-05,-5.7563186e-05,6.501166752383532e-05,-0.00032907695,-0.0011933661,0.001237907238261669,-5.7563186e-05,3.021583e-05,0.0011933661,-0.00032907695,4.0170087814331055,107.8133544921875
1779206433.1639197,1.308837652206421,hold-xy,0,0.0,-0.0006213711,-0.0015302752,0.0,0.014855873,-0.002162004,0.03724375,-0.008366015739738941,-0.0012779482640326023,0.6547714471817017,0.7557795643806458,81.80449752231101,0.021647930145263672,283,-2.5521964e-05,-1.8194318e-05,3.134332185579856e-05,-0.00017000904,-0.00032922602,0.00037053048965018514,2.1646694e-05,-2.2667697e-05,-0.00035009877,0.000121341225,4.0170087814331055,107.8133544921875
1779206433.1842992,1.3292171955108643,hold-xy,0,0.0,-0.001401966,-0.0011752059,0.0,0.014834775,-0.0021604542,0.037198856,-0.008641470223665237,-0.0011506384471431375,0.6546772718429565,0.7558582425117493,81.79014145091749,0.010367155075073242,284,-4.6620145e-05,-1.6644597e-05,4.950232807852941e-05,-0.00031892394,-0.0002157737,0.0003850594391265635,2.3131339e-05,-4.3765533e-05,-0.00025910448,0.0002848432,4.0170087814331055,107.8133544921875
1779206433.2046854,1.3496034145355225,hold-xy,0,0.0,0.00073195645,0.00029212507,0.0,0.01486465,-0.0021467544,0.03722305,-0.008645014837384224,-0.0008959316764958203,0.6548859477043152,0.7556777596473694,81.82168884074648,0.010378599166870117,285,-1.674518e-05,-2.944842e-06,1.7002150644757378e-05,0.00021663491,5.0674833e-05,0.00022248286196106017,5.2969663e-06,-1.6155967e-05,8.0976715e-05,-0.00020722306,4.011730194091797,107.85006713867188
1779206433.2280629,1.3729808330535889,hold-xy,0,0.0,0.00057612255,0.0005813858,0.0,0.014867881,-0.0021386333,0.037224934,-0.008629162795841694,-0.000798156950622797,0.654838502407074,0.7557191252708435,81.81446447807087,0.003348112106323242,287,-1.3513491e-05,5.176291e-06,1.4470950462261654e-05,0.00018352781,0.00011559431,0.00021689744495411746,-3.1995176e-06,-1.4112813e-05,0.00014054717,-0.00016519986,4.011730194091797,107.85006713867188
1779206433.2488449,1.3937628269195557,hold-xy,0,0.0,-0.0006494956,2.8758914e-05,0.0,0.014850613,-0.0021423995,0.03722303,-0.008767860941588879,-0.0008966927416622639,0.6547951102256775,0.7557551264762878,81.80790292602059,0.0027217864990234375,288,-3.0782074e-05,1.4100224e-06,3.081435115356152e-05,-0.00011351942,2.8138376e-05,0.00011695480491005979,2.9905775e-06,-3.066889e-05,1.1675595e-05,0.00011637056,4.011730194091797,107.85006713867188
1779206433.2893062,1.4342241287231445,hold-xy,0,0.0,-0.00020575197,-0.00042603505,0.0,0.014857482,-0.0021562297,0.03721407,-0.00864753220230341,-0.0009325342834927142,0.6548506021499634,0.7557082772254944,81.81634085420964,0.001344919204711914,290,-2.3912638e-05,-1.2420118e-05,2.6945752729148805e-05,-3.0206404e-05,-7.9471974e-05,8.501894833999196e-05,1.5697526e-05,-2.190117e-05,-8.296248e-05,1.858624e-05,4.011730194091797,107.85006713867188
1779206433.3138247,1.458742618560791,hold-xy,0,0.0,-0.0009305524,0.0010953374,0.0,0.014853168,-0.0021440648,0.037219718,-0.008928379975259304,-4.30580839747563e-05,0.654769241809845,0.7557761669158936,81.80375295431244,0.0157320499420166,291,-2.8226525e-05,-2.5518239e-07,2.822767775099659e-05,-0.00014888312,0.00030458593,0.00033902621047562264,4.276665e-06,-2.7901826e-05,0.00028024937,0.00019078537,4.0170087814331055,107.8028793334961
1779206433.3341627,1.4790806770324707,hold-xy,0,0.0,-0.00042028117,0.00041289593,0.0,0.014856752,-0.0021500532,0.037206545,-0.008462117984890938,-0.001307908445596695,0.6548078060150146,0.7557469010353088,81.81001271287845,0.015350341796875,292,-2.4642795e-05,-6.2435865e-06,2.54214421385581e-05,-5.2329626e-05,0.00012650448,0.0001369006002714388,9.690422e-06,-2.350203e-05,0.00011775961,6.9817244e-05,4.0170087814331055,107.8028793334961
1779206433.355014,1.499932050704956,hold-xy,0,0.0,-2.9266703e-05,0.0003848956,0.0,0.014863793,-0.00214855,0.037212256,-0.008688893169164658,-0.0011305680964142084,0.6547415852546692,0.7558020353317261,81.79987924050835,0.005816936492919922,294,-1.7601997e-05,-4.740432e-06,1.822915148117378e-05,3.288564e-05,0.00010339433,0.00010849817378203958,7.202556e-06,-1.67459e-05,0.000107027736,-1.7802175e-05,4.0170087814331055,107.8028793334961
1779206433.3758388,1.520756721496582,hold-xy,0,0.0,0.0014043335,0.0021017177,0.0,0.014889898,-0.0021237526,0.037213795,-0.008700724691152573,-0.0006527428049594164,0.6546443104743958,0.7558866739273071,81.78497169502681,0.006393909454345703,295,8.502975e-06,2.0056963e-05,2.1784911599540913e-05,0.00040980423,0.00043978664,0.0006011254400778202,-2.1066131e-05,5.549813e-06,0.00049383024,-0.00034275866,4.0170087814331055,107.8028793334961
1779206433.3968935,1.541811466217041,hold-xy,0,0.0,-0.0076258862,-0.014110463,0.0,0.014803493,-0.0022382336,0.03719038,-0.008847071789205074,-0.00047689597704447806,0.6550948619842529,0.7554946541786194,81.8532278842443,0.017311811447143555,296,-7.790141e-05,-9.4424e-05,0.00012241128243592185,-0.0022702762,-0.0030802153,0.003826470921852422,0.00010451046,-6.373448e-05,-0.0033708499,0.0018108698,4.0170087814331055,107.78585052490234
1779206433.4175167,1.5624346733093262,hold-xy,0,0.0,-0.004187745,-0.005906176,0.0,0.014843838,-0.0021516401,0.037188046,-0.008687463589012623,-0.0006410890491679311,0.6547467708587646,0.7557980418205261,81.80050288888255,0.007578372955322266,298,-3.7556514e-05,-7.83056e-06,3.8364167410088214e-05,-0.0011904843,-0.0013003898,0.0017630276105074518,1.3106832e-05,-3.6055797e-05,-0.0014568837,0.0009928526,4.0170087814331055,107.78585052490234
1779206433.4382756,1.5831935405731201,hold-xy,0,0.0,-0.0014449375,-0.0070682154,0.0,0.014861161,-0.0021994654,0.03717423,-0.008627400733530521,-0.001343395677395165,0.6549392342567444,0.755631148815155,81.82994100024614,0.007957935333251953,299,-2.0233914e-05,-5.5655837e-05,5.9219790546878756e-05,-0.0005783362,-0.0016143,0.001714770267621812,5.796644e-05,-1.2119207e-05,-0.0016801042,0.00034305558,4.0170087814331055,107.78585052490234
1779206433.4587808,1.60369873046875,hold-xy,0,0.0,-0.00028173448,0.0018825323,0.0,0.01487576,-0.002142476,0.037192155,-0.009025245904922485,-7.204976100183558e-06,0.6546035408973694,0.7559185028076172,81.77861372047728,0.017803430557250977,300,-5.6345016e-06,1.3336539e-06,5.790184868492652e-06,6.0417515e-06,0.00047386775,0.0004739062715424395,-5.142233e-07,-5.7673055e-06,0.00046986173,6.178266e-05,4.0170087814331055,107.78585052490234
1779206433.4791255,1.6240434646606445,hold-xy,0,0.0,-0.00089023716,0.0018204815,0.0,0.014861459,-0.0021284241,0.037231743,-0.008648655377328396,-0.0007739139837212861,0.6547387838363647,0.7558053731918335,81.79933605726946,0.0050661563873291016,301,-1.9935891e-05,1.5385449e-05,2.5182370552395792e-05,-0.00012546113,0.00045913435,0.0004759672694133732,-1.2384463e-05,-2.1926626e-05,0.0004365437,0.00018966934,4.0170087814331055,107.78585052490234
1779206433.4996169,1.6445348262786865,hold-xy,0,0.0,0.0012035969,0.0019453719,0.0,0.014877055,-0.0021253992,0.037211183,-0.008611232042312622,-0.001002519391477108,0.654802143573761,0.7557505965232849,81.80902143811095,0.015418291091918945,302,-4.339963e-06,1.8410385e-05,1.8915008057748422e-05,0.0003736304,0.000410896,0.0005553694306387217,-1.7604247e-05,-6.9186744e-06,0.0004599366,-0.00031127725,4.0170087814331055,107.81927490234375
1779206433.5205038,1.665421724319458,hold-xy,0,0.0,5.9999045e-05,0.0005835406,0.0,0.014857372,-0.002140917,0.03720934,-0.008780302479863167,-0.0005396940978243947,0.6548249125480652,0.7557294368743896,81.81231394391901,0.005208492279052734,303,-2.4022534e-05,2.892688e-06,2.4196069923654804e-05,7.165708e-05,0.00013792288,0.00015542669165769597,5.579959e-07,-2.4189636e-05,0.00014672214,-5.1284216e-05,4.0170087814331055,107.81927490234375
1779206433.5419583,1.6868762969970703,hold-xy,0,0.0,-0.000465738,-0.0012066844,0.0,0.014846446,-0.0021651965,0.037258856,-0.008661380968987942,-0.0009371228516101837,0.6548505425453186,0.7557081580162048,81.81633182326235,0.00564122200012207,305,-3.494881e-05,-2.1386892e-05,4.097338805418359e-05,-0.000105767525,-0.00024994471,0.0002714021561276437,2.6143956e-05,-3.1548567e-05,-0.00026245517,6.911165e-05,4.0170087814331055,107.81927490234375
1779206433.5648882,1.709806203842163,hold-xy,0,0.0,-0.00045991823,0.000868971,0.0,0.014849292,-0.002136575,0.037235364,-0.008760782890021801,-0.0004177345253992826,0.654812753200531,0.755740225315094,81.81044211067767,0.006861686706542969,306,-3.210269e-05,7.2345138e-06,3.2907762976124414e-05,-3.470707e-05,0.00022055426,0.00022326835425174937,-2.5877562e-06,-3.2805856e-05,0.00021336111,6.577077e-05,4.0170087814331055,107.81927490234375
1779206433.5903623,1.7352802753448486,hold-xy,0,0.0,-0.0073459605,-0.0066785617,0.0,0.01476934,-0.0021992875,0.037208334,-0.00866195373237133,-0.0007303977617993951,0.6547262668609619,0.7558160424232483,81.79742307275143,0.019464731216430664,307,-0.00011205487,-5.5477954e-05,0.00012503638144126388,-0.0018878335,-0.0013073244,0.0022963040843962555,7.089766e-05,-0.0001029933,-0.001563294,0.0016820001,4.0170087814331055,107.81927490234375
1779206433.6119754,1.7568933963775635,hold-xy,0,0.0,-0.0037739612,-0.0019024634,0.0,0.014817132,-0.0021343632,0.037205055,-0.008729955181479454,-0.000527646450791508,0.6545818448066711,0.7559406161308289,81.77546654486666,0.006617069244384766,308,-6.426312e-05,9.446405e-06,6.495369843807663e-05,-0.00090543006,-0.0003499249,0.0009706961450982296,-1.5623482e-07,-6.4953514e-05,-0.0004758502,0.00084606005,4.0170087814331055,107.82481384277344
1779206433.6383293,1.7832472324371338,hold-xy,0,0.0,-6.885937e-06,-0.0023654688,0.0,0.014859326,-0.0021575708,0.037217572,-0.00904874224215746,0.00034030669485218823,0.6547572612762451,0.7557849884033203,81.80187614316793,0.011178970336914062,309,-2.206862e-05,-1.3761222e-05,2.600759922818032e-05,-5.2927877e-05,-0.00056443666,0.000566912783295147,1.6767504e-05,-1.9880796e-05,-0.00056621595,-2.8099708e-05,4.0170087814331055,107.82481384277344
1779206433.7409186,1.8858366012573242,hold-xy,0,0.0,-0.0007592943,-0.001808581,0.0,0.014843315,-0.0021579955,0.03723692,-0.00887579470872879,-0.00022615866328123957,0.6548717021942139,0.755687952041626,81.82879233409409,0.08336544036865234,310,-3.8079917e-05,-1.41859055e-05,4.0636436478280015e-05,-0.00019504067,-0.0003992962,0.000444385338192622,1.9454244e-05,-3.5677054e-05,-0.00042296387,0.000136308,4.0170087814331055,107.82481384277344
1779206433.7625186,1.9074366092681885,hold-xy,0,0.0,0.00044989394,-0.0005855589,0.0,0.014903361,-0.0021284372,0.03721453,-0.00923092383891344,0.00044363195775076747,0.654621422290802,0.7559003829956055,81.78125030988483,0.012096643447875977,313,2.1966174e-05,1.537241e-05,2.681088917358909e-05,5.7442245e-05,-0.00018402323,0.00019278008130934167,-1.8354654e-05,1.954304e-05,-0.0001739217,-8.315893e-05,4.0170087814331055,107.88053894042969
1779206433.7833803,1.9282982349395752,hold-xy,0,0.0,-0.00022915004,-0.00055152195,0.0,0.014890034,-0.002130447,0.03720827,-0.008832497522234917,-0.00010367674985900521,0.6547711491584778,0.7557755708694458,81.80406313425634,0.0020906925201416016,314,8.638948e-06,1.3362616e-05,1.5911974749720525e-05,-8.931689e-05,-0.00014834933,0.00017316186458562018,-1.44576925e-05,6.645755e-06,-0.00015956703,6.7256144e-05,4.0170087814331055,107.88053894042969
1779206433.8245327,1.9694507122039795,hold-xy,0,0.0,-0.001755496,-0.0014853588,0.0,0.01484015,-0.0021556597,0.03723482,-0.009150007739663124,0.0005581419100053608,0.654819130897522,0.7557300329208374,81.8112317045,0.002006053924560547,315,-4.124455e-05,-1.1850148e-05,4.291315686798998e-05,-0.00042542425,-0.00028726738,0.0005133306485025236,1.760399e-05,-3.9136154e-05,-0.0003449337,0.00038016977,4.0170087814331055,107.88928985595703
1779206433.8680425,2.012960433959961,hold-xy,0,0.0,-0.0013335362,-0.00023252759,0.0,0.014842108,-0.0021365564,0.037234146,-0.008977358229458332,6.320333341136575e-05,0.654811680316925,0.7557387351989746,81.81016522083762,0.013705253601074219,316,-3.928691e-05,7.25314e-06,3.995083713473234e-05,-0.00027933478,-2.092708e-05,0.00028011758171809804,-1.5826181e-06,-3.991948e-05,-6.0505823e-05,0.00027350485,4.0170087814331055,107.88928985595703
1779206433.8909078,2.035825729370117,hold-xy,0,0.0,-0.0001046172,7.615936e-05,0.0,0.014858577,-0.0021346807,0.03722685,-0.008757859468460083,-0.0002160195872420445,0.6548024415969849,0.7557492852210999,81.80883659543805,0.012653827667236328,317,-2.2817403e-05,9.128824e-06,2.4575787250907395e-05,1.105135e-05,8.878732e-06,1.4176184870739573e-05,-5.7847546e-06,-2.3885264e-05,1.0362708e-05,-9.673598e-06,4.0170087814331055,107.88928985595703
1779206433.9134247,2.058342695236206,hold-xy,0,0.0,0.0010230677,-0.0012253313,0.0,0.014879663,-0.0021668095,0.03721373,-0.008650165051221848,-0.0005420524976216257,0.6547731161117554,0.7557758092880249,81.80447588775888,0.004216194152832031,318,-1.73226e-06,-2.2999942e-05,2.3065083063337608e-05,0.00021208501,-0.00030516446,0.0003716253573454945,2.301199e-05,1.5641099e-06,-0.00027181485,-0.00025342076,4.0170087814331055,107.87940979003906
1779206433.955076,2.099993944168091,hold-xy,0,0.0,0.00062947196,0.0008392468,0.0,0.014883518,-0.0021249484,0.03720039,-0.009185642935335636,0.00010711896902648732,0.6545769572257996,0.7559396028518677,81.77454743755182,0.011968374252319336,319,2.1234155e-06,1.8861145e-05,1.8980296674052933e-05,0.00018258147,0.00015684716,0.00024070111309164614,-1.8970912e-05,-5.9686636e-07,0.00018135532,-0.0001582633,4.0170087814331055,107.87940979003906
1779206433.977136,2.122053861618042,hold-xy,0,0.0,-0.00019438069,-0.00029084395,0.0,0.014871864,-0.002137443,0.037195485,-0.008563344366848469,-0.0013782363384962082,0.6547302603721619,0.7558128237724304,81.79827556838569,0.013698339462280273,320,-9.531155e-06,6.366521e-06,1.1461915533401027e-05,-4.417426e-05,-7.4584554e-05,8.668460276803592e-05,-4.9417017e-06,-1.034191e-05,-8.0123544e-05,3.3082306e-05,4.0170087814331055,107.87940979003906
1779206433.9977772,2.142695188522339,hold-xy,0,0.0,5.44249e-05,-0.00045651855,0.0,0.014875714,-0.0021439977,0.037229158,-0.008563053794205189,-0.0011805632384493947,0.6548331379890442,0.7557240724563599,81.81379267551746,0.0028333663940429688,321,-5.6810677e-06,-1.8812716e-07,5.684181744007256e-06,5.7381912e-06,-0.00011462193,0.0001147654699335656,9.951412e-07,-5.5963933e-06,-0.000112636924,-2.2000815e-05,4.011730194091797,107.87782287597656
1779206434.0592482,2.2041661739349365,hold-xy,0,0.0,-0.00018320238,-0.0011959339,0.0,0.014862513,-0.0021770485,0.037243553,-0.008611273020505905,-0.0009143011993728578,0.6547955274581909,0.7557565569877625,81.80798914817399,0.0020668506622314453,322,-1.8881634e-05,-3.3238903e-05,3.822748783435133e-05,-5.9613234e-05,-0.00023954817,0.0002468543327934823,3.5590198e-05,-1.39527265e-05,-0.00024559817,2.4871504e-05,4.011730194091797,107.87782287597656
1779206434.0818756,2.2267935276031494,hold-xy,0,0.0,0.00038647192,0.0026660822,0.0,0.014871048,-0.0021487921,0.03721992,-0.00878815446048975,-0.0008933541248552501,0.6547119617462158,0.7558268308639526,81.7952920740667,0.014369964599609375,323,-1.0346994e-05,-4.982576e-06,1.1484177601649916e-05,0.00020626887,0.0006533839,0.0006851695965849567,6.408199e-06,-9.530023e-06,0.00067613286,-0.00011091302,4.011730194091797,107.87782287597656
1779206434.1053686,2.25028657913208,hold-xy,0,0.0,-0.00040928187,0.002021558,0.0,0.014856467,-0.002142799,0.037223324,-0.008884326554834843,-0.0005517977406270802,0.65467369556427,0.7558591961860657,81.78937818782386,0.005721330642700195,324,-2.492778e-05,1.010485e-06,2.494825216278589e-05,8.295901e-06,0.000513306,0.0005133730303874166,2.5598692e-06,-2.4816574e-05,0.00050922926,6.5095606e-05,4.011730194091797,107.86258697509766
1779206434.1267927,2.2717106342315674,hold-xy,0,0.0,0.0008890628,0.0016321117,0.0,0.014876004,-0.0021420978,0.03718658,-0.009274876676499844,9.993356798077002e-05,0.6544784903526306,0.7560237050056458,81.75961041346258,0.006267070770263672,326,-5.390495e-06,1.7117709e-06,5.6557578271422725e-06,0.00028653792,0.00036939097,0.00046749723617544285,-9.214962e-07,-5.580183e-06,0.00040664567,-0.00023063598,4.011730194091797,107.86258697509766
1779206434.1481235,2.293041467666626,hold-xy,0,0.0,-0.001916001,0.00056085864,0.0,0.014847251,-0.0021445043,0.0372303,-0.008818025700747967,-0.0002822882088366896,0.6548097729682922,0.7557422518730164,81.80995442932566,0.013304471969604492,327,-3.414415e-05,-6.9476664e-07,3.415121678135625e-05,-0.00040292414,0.00020806368,0.0004534736573357287,5.5517526e-06,-3.3696935e-05,0.00014854228,0.00042845483,4.011730194091797,107.86258697509766
1779206434.1701412,2.315059185028076,hold-xy,0,0.0,-0.0005410755,0.00037641235,0.0,0.014866073,-0.0021473486,0.037242144,-0.00847224984318018,-0.0013078800402581692,0.6547104120254517,0.7558311820030212,81.79524565837146,0.004729747772216797,329,-1.5322119e-05,-3.5390258e-06,1.572552130120265e-05,-9.747158e-05,0.00011775279,0.00015286081509615214,5.689438e-06,-1.466023e-05,0.00010263725,0.000113278526,4.011730194091797,107.86258697509766
1779206434.1910048,2.3359227180480957,hold-xy,0,0.0,-0.0013776893,0.000926053,0.0,0.014852427,-0.002134678,0.037242893,-0.008586213923990726,-0.0010271392529830337,0.6547210812568665,0.7558211088180542,81.79674294927189,0.004726409912109375,330,-2.8967857e-05,9.131618e-06,3.0373067419640968e-05,-0.00026441293,0.00026459098,0.0003740622630476226,-4.9049e-06,-2.997441e-05,0.0002241559,0.00029946072,4.011730194091797,107.86258697509766
1779206434.2336333,2.3785512447357178,hold-xy,0,0.0,-0.00043471972,3.3084783e-05,0.0,0.014865391,-0.0021532783,0.037218284,-0.008958975784480572,-0.00036682732752524316,0.6548411846160889,0.7557133436203003,81.81471848708469,0.009485244750976562,332,-1.6003847e-05,-9.468757e-06,1.8595173024755328e-05,-8.238941e-05,3.786334e-05,9.06733001655723e-05,1.165084e-05,-1.4492702e-05,2.5747457e-05,8.6940876e-05,4.011730194091797,107.88299560546875
1779206434.2542238,2.399141788482666,hold-xy,0,0.0,-0.001393494,0.0007088167,0.0,0.014847154,-0.0021369494,0.037202947,-0.008601116947829723,-0.0012888405472040176,0.6546035408973694,0.7559223175048828,81.77902362947395,0.004074811935424805,333,-3.4241006e-05,6.860122e-06,3.492145067192701e-05,-0.00026809343,0.0002149074,0.0003435975496608693,-1.8934616e-06,-3.487008e-05,0.00017436397,0.00029606838,4.011730194091797,107.88299560546875
1779206434.2745175,2.419435501098633,hold-xy,0,0.0,-0.00033583137,9.752311e-05,0.0,0.014856927,-0.00214459,0.03722194,-0.00908392108976841,0.0003411717771086842,0.6547466516494751,0.7557937502861023,81.80026268563029,0.00411224365234375,335,-2.4467707e-05,-7.804483e-07,2.4480151021910644e-05,-4.292067e-05,3.7276637e-05,5.684832250014598e-05,4.2621614e-06,-2.410626e-05,3.077402e-05,4.7798447e-05,4.011730194091797,107.88299560546875
1779206434.2949705,2.4398884773254395,hold-xy,0,0.0,-0.00019902522,-0.0001043387,0.0,0.014857583,-0.0021466669,0.03721302,-0.008779781870543957,-0.000990185304544866,0.6547979116439819,0.7557523846626282,81.80835790470852,0.009195089340209961,336,-2.3812056e-05,-2.8572977e-06,2.3982871540932358e-05,-1.7247221e-05,-1.4443083e-05,2.2495984032242372e-05,6.2209947e-06,-2.3161982e-05,-1.6753183e-05,1.5013332e-05,4.011730194091797,107.88188934326172
1779206434.315412,2.460330009460449,hold-xy,0,0.0,0.00061998435,-0.00010820963,0.0,0.014866728,-0.0021482669,0.03721358,-0.008978154510259628,-0.0003090489190071821,0.6546521186828613,0.755876898765564,81.78603804891583,0.014693975448608398,337,-1.4666468e-05,-4.45731e-06,1.5328825860013242e-05,0.00017154077,-4.223323e-05,0.0001766631899356522,6.506984e-06,-1.3879195e-05,-1.729193e-05,-0.00017581487,4.011730194091797,107.88188934326172
1779206434.3360102,2.4809281826019287,hold-xy,0,0.0,-0.00019737911,0.00048822258,0.0,0.014855266,-0.002133742,0.037213087,-0.008937659673392773,-0.0005635431152768433,0.654717743396759,0.7558205127716064,81.79605407060393,0.004672527313232422,339,-2.6129186e-05,1.0067597e-05,2.800162322645467e-05,7.770963e-06,0.00011274654,0.000113014025626448,-6.2360104e-06,-2.7298407e-05,0.00011270163,8.3971645e-06,4.011730194091797,107.88188934326172
1779206434.3568103,2.5017282962799072,hold-xy,0,0.0,-0.0007700436,-0.0028562518,0.0,0.014838895,-0.002182736,0.037199903,-0.008558540605008602,-0.0015343809500336647,0.6548559665679932,0.7557036876678467,81.81740596757626,0.004472970962524414,340,-4.2499974e-05,-3.892649e-05,5.763262534263842e-05,-0.0002284324,-0.0006210039,0.0006616851190104012,4.457915e-05,-3.6526966e-05,-0.0006471942,0.00013772045,4.011730194091797,107.88188934326172
1779206434.3774576,2.5223755836486816,hold-xy,0,0.0,0.0011423711,0.0025647597,0.0,0.014858622,-0.0021468531,0.037227258,-0.008961496874690056,-0.0003723582485690713,0.654831051826477,0.7557221055030823,81.81318314430744,0.01470184326171875,341,-2.27727e-05,-3.0435622e-06,2.2975184216273644e-05,0.00040814752,0.0005985522,0.0007244646984447369,6.255405e-06,-2.2107217e-05,0.00065057306,-0.0003187536,4.011730194091797,107.88188934326172
1779206434.3996105,2.5445284843444824,hold-xy,0,0.0,0.0016351788,0.0019065491,0.0,0.014881341,-0.0021469537,0.037205253,-0.008973903954029083,-2.3391563445329666e-05,0.6547318696975708,0.7558079361915588,81.79807725196088,0.0004055500030517578,343,-5.401671e-08,-3.144145e-06,3.14460898376156e-06,0.00047269242,0.00041815866,0.000631106003278168,3.119691e-06,3.9508632e-07,0.00048131682,-0.00040820206,4.011730194091797,107.87073516845703
1779206434.4208474,2.565765380859375,hold-xy,0,0.0,-0.00084151205,0.0012063866,0.0,0.014853828,-0.0021447074,0.037215807,-0.008731691166758537,-0.0007867984822951257,0.6547954082489014,0.7557553052902222,81.80791560207491,0.0034935474395751953,344,-2.7567148e-05,-8.9779496e-07,2.7581763581609454e-05,-0.00012390543,0.00032984305,0.0003523478350446334,4.816737e-06,-2.7157921e-05,0.00030882176,0.00016964113,4.011730194091797,107.87073516845703
1779206434.4417665,2.586684465408325,hold-xy,0,0.0,-0.00063290255,0.000114897826,0.0,0.014852155,-0.0021569338,0.037203457,-0.00882057473063469,-0.0006388431647792459,0.6547394394874573,0.7558028697967529,81.79937580372922,0.0015172958374023438,346,-2.9239804e-05,-1.3124198e-05,3.205012714285563e-05,-0.00010865078,7.068629e-05,0.00012962076711613317,1.7160757e-05,-2.7068787e-05,5.4465592e-05,0.00011762246,4.011730194091797,107.87073516845703
1779206434.4826756,2.627593517303467,hold-xy,0,0.0,-0.0005747427,0.00111663,0.0,0.014854055,-0.002128074,0.037221316,-0.00886024720966816,-0.0006317220395430923,0.6546617746353149,0.7558696866035461,81.78759485000508,0.003729104995727539,348,-2.7339906e-05,1.5735626e-05,3.154489422159075e-05,-6.13266e-05,0.0002732159,0.0002800140825133348,-1.1668942e-05,-2.930727e-05,0.0002616541,9.9724755e-05,4.011730194091797,107.87073516845703
1779206434.5033994,2.648317337036133,hold-xy,0,0.0,-0.0011286112,-0.00027760564,0.0,0.014840558,-0.0021440666,0.037229855,-0.008835465647280216,-0.00018624134827405214,0.6546011567115784,0.755922794342041,81.77830601993689,0.002565622329711914,350,-4.0836632e-05,-2.5704503e-07,4.083744037550131e-05,-0.00022792256,-2.7953662e-05,0.00022963035769328825,6.094192e-06,-4.038016e-05,-6.026012e-05,0.00022158254,4.011730194091797,107.87557220458984
1779206434.544134,2.689051866531372,hold-xy,0,0.0,-0.00053068146,0.00029272304,0.0,0.014849354,-0.002134269,0.037235834,-0.00884016789495945,-0.0005144710303284228,0.6547238826751709,0.7558162212371826,81.79698184114162,0.012878894805908203,351,-3.2041222e-05,9.540468e-06,3.343142845687454e-05,-7.280962e-05,7.705087e-05,0.00010600979735639862,-4.8711818e-06,-3.3074644e-05,6.587399e-05,8.305839e-05,4.011730194091797,107.87557220458984
1779206434.564792,2.709709882736206,hold-xy,0,0.0,-0.00017706382,0.0002599051,0.0,0.014855064,-0.0021340586,0.03722462,-0.00875113345682621,-0.0006234333850443363,0.6547755599021912,0.7557724714279175,81.80485664108073,0.0028939247131347656,352,-2.6330352e-05,9.750947e-06,2.807789825798223e-05,4.9436494e-06,5.5996232e-05,5.6214033665435864e-05,-5.8981122e-06,-2.7451424e-05,5.6129105e-05,3.0888186e-06,4.011730194091797,107.87557220458984
1779206434.5856512,2.7305691242218018,hold-xy,0,0.0,0.0031684036,-0.002498342,0.0,0.014880549,-0.0021614432,0.037230823,-0.008598093874752522,-0.0005564009770750999,0.6546295881271362,0.7559006810188293,81.78272547095521,0.012712955474853516,353,-8.456409e-07,-1.7633662e-05,1.7653927079801797e-05,0.0006959667,-0.00070493546,0.0009906077067021709,1.7573484e-05,1.6833737e-06,-0.0005982253,-0.00078957586,4.011730194091797,107.87557220458984
1779206434.6090755,2.753993511199951,hold-xy,0,0.0,-0.0031001728,-0.008731835,0.0,0.0147839915,-0.0022559073,0.03721444,-0.008529420010745525,-0.0015410397900268435,0.6547741293907166,0.7557749152183533,81.80500350542312,0.01572871208190918,354,-9.74033e-05,-0.00011209771,0.00014850353406871343,-0.0009321885,-0.0018820446,0.0021002541497382493,0.00012483716,-8.043e-05,-0.001995703,0.00065439823,4.011730194091797,107.91726684570312
1779206434.6315134,2.7764313220977783,hold-xy,0,0.0,0.0042871395,0.0025169232,0.0,0.014909117,-0.0021304581,0.03716951,-0.009471061639487743,0.00015344927669502795,0.6544541120529175,0.7560423612594604,81.75588202212853,0.0168612003326416,355,2.7721748e-05,1.335144e-05,3.076940410488969e-05,0.0011093526,0.00044901692,0.0011967787201216213,-1.7188519e-05,2.5520796e-05,0.000603448,-0.0010335037,4.011730194091797,107.91726684570312
1779206434.6524796,2.7973976135253906,hold-xy,0,0.0,-0.00013486468,-0.0008840872,0.0,0.014826292,-0.002181897,0.037198935,-0.008704263716936111,-0.0009055857080966234,0.654968798160553,0.7556052207946777,81.83424903185187,0.005075931549072266,357,-5.510263e-05,-3.8087368e-05,6.69846825944242e-05,1.7886283e-05,-0.00015686092,0.0001578773745892843,4.552784e-05,-4.9134134e-05,-0.00015273003,-3.9985032e-05,4.011730194091797,107.91726684570312
1779206434.6932921,2.838210105895996,hold-xy,1000,1.525902189669642,0.00015855228,0.0016823222,0.0,0.014841313,-0.0021306593,0.037231483,-0.008891443721950054,-0.0005543794250115752,0.654778778553009,0.7557680606842041,81.80530947301675,0.015189647674560547,358,-4.008226e-05,1.3150275e-05,4.218432673762559e-05,0.00015930511,0.0003909109,0.00042212490842843226,-7.30279e-06,-4.1547402e-05,0.00040962637,-0.00010195917,4.011730194091797,107.87852478027344
1779206434.7142835,2.859201431274414,hold-xy,1000,1.525902189669642,0.0006266722,0.0011978756,0.0,0.014854291,-0.0021323692,0.037219822,-0.009100737050175667,0.00026658427668735385,0.654780387878418,0.7557644844055176,81.80538319638305,0.0054967403411865234,360,-2.710335e-05,1.14403665e-05,2.9418931424837176e-05,0.00023840851,0.00025691983,0.00035049453020923174,-7.460354e-06,-2.8457278e-05,0.00028827836,-0.00019935396,4.011730194091797,107.87852478027344
1779206434.7548175,2.899735450744629,hold-xy,1000,1.525902189669642,0.00047494532,-0.0013568718,0.0,0.014849279,-0.0021807458,0.03719758,-0.008855277672410011,-0.0008006572024896741,0.6548926830291748,0.7556695938110352,81.82265629184748,0.015611410140991211,361,-3.2115728e-05,-3.6936253e-05,4.894595738256695e-05,0.00011745315,-0.0002972533,0.000319616601184597,4.112877e-05,-2.6535472e-05,-0.00027752478,-0.00015853954,4.011730194091797,107.87852478027344
1779206434.7953346,2.9402525424957275,hold-xy,2000,3.051804379339284,-0.00039877818,-0.00204547,0.0,0.014826,-0.0022066496,0.037216384,-0.00867259968072176,-0.0012395165394991636,0.6549530625343323,0.7556188106536865,81.83199013489026,0.015158414840698242,362,-5.5395067e-05,-6.284006e-05,8.377043984497421e-05,-8.82438e-05,-0.00039775576,0.00040742681580278596,7.0072914e-05,-4.5905042e-05,-0.00040625816,3.0836974e-05,4.011730194091797,107.89018249511719
1779206434.8168,2.9617180824279785,hold-xy,2000,3.051804379339284,4.6826317e-06,0.0038974562,0.0,0.014843419,-0.0021249019,0.037208404,-0.00888810120522976,-0.0003755523939616978,0.6547866463661194,0.755761444568634,81.80645968347642,0.016427993774414062,363,-3.797561e-05,1.8907711e-05,4.2422263379957304e-05,0.0001969859,0.00093588966,0.000956395766352765,-1.3302524e-05,-4.028264e-05,0.0009544103,-6.159462e-05,4.011730194091797,107.89018249511719
1779206434.8572712,3.0021891593933105,hold-xy,2000,3.051804379339284,-2.2182328e-05,0.001378586,0.0,0.014839195,-0.0021634838,0.037207365,-0.008801380172371864,-0.0009524281485937536,0.6548963785171509,0.7556668519973755,81.82327284023809,0.016097545623779297,364,-4.220009e-05,-1.967419e-05,4.656094045346047e-05,0.000106828935,0.0003714429,0.0003865000122265955,2.5476169e-05,-3.897289e-05,0.00038286077,-5.291375e-05,4.011730194091797,107.89018249511719
1779206434.8777392,3.0226571559906006,hold-xy,3000,4.577706569008926,0.00045158414,0.0019357713,0.0,0.014849674,-0.0021491013,0.037205335,-0.008730974979698658,-0.0008762127836234868,0.6547176837921143,0.7558225989341736,81.79616061353408,0.0160980224609375,365,-3.1720847e-05,-5.291775e-06,3.215921402857308e-05,0.00022837837,0.00047081843,0.0005232845170368343,9.764037e-06,-3.0641128e-05,0.0004985889,-0.00015885773,4.011730194091797,107.89018249511719
1779206434.8982005,3.043118476867676,hold-xy,3000,4.577706569008926,0.00031694077,0.0019321279,0.0,0.014852755,-0.0021363683,0.037204754,-0.009180231019854546,-0.00041255931137129664,0.6546798944473267,0.7558503746986389,81.79024748675243,0.0062503814697265625,366,-2.8640032e-05,7.4412674e-06,2.9590942984557985e-05,0.00019035896,0.00045560533,0.0004937740006886433,-3.2752864e-06,-2.940912e-05,0.00047811904,-0.00012334887,4.011730194091797,107.92784118652344
1779206434.9390604,3.0839784145355225,hold-xy,3000,4.577706569008926,-0.0008683244,0.00011923842,0.0,0.014817892,-0.002167616,0.037221193,-0.00885667186230421,-0.0005204613553360105,0.6549327373504639,0.755635142326355,81.82865062555454,0.005045175552368164,367,-6.350316e-05,-2.3806468e-05,6.781887294776271e-05,-0.00011538547,9.6071264e-05,0.00015014491061142972,3.2590728e-05,-5.947473e-05,7.8695695e-05,0.000127869,4.011730194091797,107.92784118652344
1779206434.9797235,3.1246414184570312,hold-xy,3000,4.577706569008926,-0.0007753455,0.00020548873,0.0,0.0148169305,-0.0021623243,0.037217237,-0.00885736383497715,6.305689748842269e-05,0.6548291444778442,0.755725085735321,81.81282927367799,0.004975557327270508,368,-6.4464286e-05,-1.8514693e-05,6.70703963495924e-05,-8.784861e-05,0.00010622436,0.00013784408866245745,2.750618e-05,-6.117065e-05,9.263145e-05,0.00010208039,4.011730194091797,107.92784118652344
1779206435.0000083,3.1449263095855713,hold-xy,3000,4.577706569008926,0.0011999878,0.003021014,0.0,0.014835041,-0.0021411497,0.037214566,-0.008868204429745674,-0.0004527064738795161,0.6547155380249023,0.7558231949806213,81.79569849077613,0.015118837356567383,369,-4.6353787e-05,2.6598573e-06,4.643003843013806e-05,0.00047423443,0.00070072355,0.0008461157273359117,3.9822007e-06,-4.625895e-05,0.0007612268,-0.00036938538,4.011730194091797,107.9235610961914
1779206435.0214112,3.1663291454315186,hold-xy,3000,4.577706569008926,-0.00012609773,0.0017793521,0.0,0.014814686,-0.0021455493,0.037225336,-0.008468651212751865,-0.0014038234949111938,0.6546132564544678,0.7559152245521545,81.7805588220549,0.005913496017456055,370,-6.670877e-05,-1.7397106e-06,6.673145276556707e-05,0.00013245872,0.00044738498,0.00046658186991784006,1.1258844e-05,-6.577481e-05,0.00046172627,-6.7137786e-05,4.011730194091797,107.9235610961914
1779206435.0622075,3.207125425338745,hold-xy,3000,4.577706569008926,0.0011291781,0.0016029997,0.0,0.014854288,-0.0021402705,0.03722837,-0.008764063939452171,-0.00046010996447876096,0.6547557711601257,0.755789577960968,81.80181260499235,0.004949808120727539,371,-2.7107075e-05,3.5390258e-06,2.7337121416070743e-05,0.00037721632,0.0003510915,0.0005153226071226615,3.6254482e-07,-2.7334718e-05,0.00040129374,-0.0003232966,4.011730194091797,107.9235610961914
1779206435.0826023,3.227520227432251,hold-xy,4000,6.103608758678568,-0.0014784303,-0.0029968536,0.0,0.014811136,-0.0021985555,0.037208837,-0.00893146451562643,-0.00011636475392151624,0.6548197269439697,0.7557322978973389,81.81141833665966,0.004835605621337891,372,-7.0258975e-05,-5.4745935e-05,8.90698634283821e-05,-0.00036716257,-0.0006068122,0.0007092456639997098,6.419488e-05,-6.17451e-05,-0.0006529211,0.00027698994,4.011730194091797,107.9235610961914
1779206435.1253414,3.270259380340576,hold-xy,4000,6.103608758678568,-6.49603e-05,-0.00021669824,0.0,0.014841732,-0.0021573901,0.037215974,-0.009032584726810455,0.0003049772058147937,0.6547812223434448,0.7557644248008728,81.80551393622245,0.01621723175048828,373,-3.9663166e-05,-1.3580546e-05,4.192371591432076e-05,3.5698788e-05,-3.093586e-05,4.723802301007695e-05,1.9095225e-05,-3.732252e-05,-2.5531723e-05,-3.9743703e-05,4.011730194091797,107.90535736083984
1779206435.1500087,3.294926643371582,hold-xy,4000,6.103608758678568,-0.00048132433,0.0009750847,0.0,0.014836779,-0.0021274742,0.03721091,-0.009124206379055977,0.00023381368373520672,0.6546309590339661,0.7558935284614563,81.78272711619911,0.005774497985839844,374,-4.461594e-05,1.6335398e-05,4.751239160635857e-05,-1.7330194e-05,0.00023396393,0.00023460489644532888,-9.790849e-06,-4.649265e-05,0.00022908491,5.0592105e-05,4.011730194091797,107.90535736083984
1779206435.1915014,3.3364193439483643,hold-xy,4000,6.103608758678568,-0.00032896994,-8.293854e-05,0.0,0.014836291,-0.002145607,0.037222363,-0.009022625163197517,-0.0002450054162181914,0.6547501683235168,0.7557914853096008,81.80088462290058,0.015244007110595703,375,-4.5103952e-05,-1.7974526e-06,4.513975190534235e-05,-1.6702945e-05,-6.0976163e-06,1.7781149715279282e-05,8.211518e-06,-4.438658e-05,-8.417357e-06,1.5662612e-05,4.011730194091797,107.90535736083984
1779206435.211975,3.3568930625915527,hold-xy,5000,7.629510948348211,-0.0019081157,-0.00082605914,0.0,0.014799137,-0.002156945,0.03720215,-0.008757331408560276,-0.0008182861492969096,0.6543640494346619,0.7561285495758057,81.74253613083764,0.005318641662597656,376,-8.2258135e-05,-1.3135374e-05,8.330029265805387e-05,-0.00037835623,-0.000116159084,0.00039578575670747604,2.4813235e-05,-7.951881e-05,-0.00016929493,0.00035775072,4.011730194091797,107.94459533691406
1779206435.2325711,3.3774890899658203,hold-xy,5000,7.629510948348211,0.0069089327,0.0020191646,0.0,0.0148692615,-0.0021455158,0.037211422,-0.008997763507068157,0.0001377940207021311,0.654610276222229,0.7559129595756531,81.77961860805567,0.01572561264038086,377,-1.21332705e-05,-1.706183e-06,1.225264515762277e-05,0.001799862,0.00025520238,0.0018178645414658721,3.42348e-06,-1.1764654e-05,0.00050992635,-0.0017448801,4.011730194091797,107.94459533691406
1779206435.2529008,3.3978188037872314,hold-xy,5000,7.629510948348211,0.0033921138,0.0011029071,0.0,0.014836812,-0.002147669,0.037197843,-0.008928613737225533,-0.0003401586727704853,0.6547608375549316,0.7557832598686218,81.80253296242914,0.005087614059448242,378,-4.458241e-05,-3.8594007e-06,4.474914970054836e-05,0.000945552,0.00015778234,0.0009586260511067061,1.0176758e-05,-4.35766e-05,0.0002909919,-0.0009133934,4.011730194091797,107.94459533691406
1779206435.2734303,3.4183483123779297,hold-xy,5000,7.629510948348211,0.004222242,0.001614876,0.0,0.014867961,-0.002138812,0.03721707,-0.009122516959905624,-8.875588537193835e-05,0.6547048091888428,0.7558296322822571,81.79396655246622,0.005330801010131836,379,-1.3433397e-05,4.997477e-06,1.433286162192354e-05,0.001122527,0.00024142572,0.0011481956584605969,-3.0289177e-06,-1.40091615e-05,0.00039917562,-0.0010765743,4.011730194091797,107.94459533691406
1779206435.29367,3.4385879039764404,hold-xy,5000,7.629510948348211,0.0027406327,0.0005855697,0.0,0.014863882,-0.0021467265,0.037219252,-0.00916448887437582,0.0006487114005722106,0.654808759689331,0.7557387351989746,81.80965480709898,0.005334615707397461,381,-1.751259e-05,-2.9169023e-06,1.7753847161996526e-05,0.00072529394,5.166552e-05,0.0007271317561930544,5.3820318e-06,-1.6918419e-05,0.00015446548,-0.0007105358,4.011730194091797,107.92230987548828
1779206435.313932,3.4588499069213867,hold-xy,5000,7.629510948348211,0.0014497442,-0.001400823,0.0,0.014853155,-0.00217346,0.037183113,-0.008831510320305824,-0.0011784990783780813,0.6548421382904053,0.755713164806366,81.8151284776866,0.005028486251831055,382,-2.8239563e-05,-2.9650517e-05,4.094662452766632e-05,0.00035124563,-0.00035376186,0.0004985187679834751,3.336889e-05,-2.373064e-05,-0.0003001524,-0.00039803202,4.011730194091797,107.92230987548828
1779206435.3348935,3.479811429977417,hold-xy,6000,9.155413138017853,0.00013870269,0.002483528,0.0,0.014850516,-0.0021439902,0.037207324,-0.008816571906208992,-0.0004866914532613009,0.6548207402229309,0.7557326555252075,81.81166358997807,0.01568007469177246,383,-3.087893e-05,-1.8067658e-07,3.0879459579437136e-05,0.0001690712,0.0006098845,0.0006328856098418599,4.576842e-06,-3.053839e-05,0.0006277473,-8.048326e-05,4.011730194091797,107.92230987548828
1779206435.3552155,3.500133514404297,hold-xy,6000,9.155413138017853,0.0012259069,0.003190924,0.0,0.014881505,-0.0021153353,0.03720606,-0.00888989120721817,-0.0004603309789672494,0.6547052264213562,0.7558318376541138,81.79413413095432,0.004876852035522461,385,1.09896064e-07,2.8474256e-05,2.8474468832331022e-05,0.00041703437,0.00070310856,0.0008174835244679714,-2.8198412e-05,-3.955367e-06,0.00075543334,-0.00031240977,4.011730194091797,107.92230987548828
