wall_time_s,elapsed_s,mode,thrust_raw,thrust_percent,roll_cmd_deg,pitch_cmd_deg,yawrate_cmd_deg_s,mocap_x,mocap_y,mocap_z,mocap_qx,mocap_qy,mocap_qz,mocap_qw,mocap_age_s,mocap_frame_count,drift_x_m,drift_y_m,horizontal_drift_m,velocity_x_m_s,velocity_y_m_s,horizontal_speed_m_s,battery_v,estimate_z
1779199166.2357516,0.0007901191711425781,guard-only,0,0.0,0.0,0.0,0.0,0.0008704942,-0.029068464,0.03751714,-0.0009085733909159899,0.006977960001677275,-0.7833355069160461,0.6215594410896301,0.024504899978637695,49,0.0,0.0,0.0,0.0,0.0,0.0,4.043401718139648,103.40557861328125
1779199166.2980306,0.06306910514831543,guard-only,0,0.0,0.0,0.0,0.0,0.0008571476,-0.02906307,0.03750284,-0.004345943219959736,0.006429838482290506,-0.7832345366477966,0.6216779351234436,0.007703304290771484,50,-1.3346551e-05,5.3942204e-06,1.439541733619312e-05,-5.063146e-05,2.0463509e-05,5.461044025261213e-05,4.043401718139648,103.40557861328125
1779199166.3790832,0.14412164688110352,guard-only,0,0.0,0.0,0.0,0.0,0.00084726186,-0.029100772,0.037504777,-0.002071342198178172,0.006360342726111412,-0.7834465503692627,0.6214231848716736,0.006867408752441406,51,-2.3232307e-05,-3.230758e-05,3.979346378191339e-05,-7.1658695e-05,-0.00012379688,0.00014304067901215953,4.043401718139648,103.4117202758789
1779199166.4626873,0.22772574424743652,guard-only,0,0.0,0.0,0.0,0.0,0.0008196775,-0.029115332,0.037487715,-0.004402953665703535,0.006048149429261684,-0.7833810448646545,0.6214967370033264,0.015567541122436523,52,-5.0816685e-05,-4.6867877e-05,6.912983215093838e-05,-0.00016064006,-0.00014497369,0.00021638530248435666,4.043401718139648,103.4230728149414
1779199166.5249941,0.29003262519836426,guard-only,0,0.0,0.0,0.0,0.0,0.00083269086,-0.02909121,0.037524953,-0.004413966089487076,0.006212860345840454,-0.7834041118621826,0.6214659810066223,0.004162788391113281,53,-3.7803315e-05,-2.274476e-05,4.4118191339945014e-05,-5.9484744e-05,-3.3025644e-06,5.957635193119926e-05,4.043401718139648,103.42491149902344
1779199166.6069727,0.3720111846923828,guard-only,0,0.0,0.0,0.0,0.0,0.00084043946,-0.02907703,0.037537944,-0.00045040471013635397,0.006992680951952934,-0.7834711074829102,0.6213887333869934,0.009158134460449219,54,-3.005471e-05,-8.566305e-06,3.125167502015914e-05,-1.144337e-05,5.2940984e-05,5.4163628177670284e-05,4.043401718139648,103.42491149902344
1779199166.6882284,0.45326685905456543,guard-only,0,0.0,0.0,0.0,0.0,0.00085074874,-0.029074185,0.037540574,0.0007852266426198184,0.0071494923904538155,-0.7833911776542664,0.6214872598648071,0.014472484588623047,55,-1.9745436e-05,-5.7201833e-06,2.055730358260987e-05,3.2715594e-05,4.8302063e-05,5.8338660767362954e-05,4.043401718139648,103.42037200927734
1779199166.7906413,0.5556797981262207,guard-only,0,0.0,0.0,0.0,0.0,0.00082218926,-0.029109504,0.037473146,-0.0033913312945514917,0.006116912234574556,-0.7834160923957825,0.6214581727981567,0.008962631225585938,56,-4.8304908e-05,-4.103966e-05,6.338468106731661e-05,-5.6487705e-05,-6.43684e-05,8.563966343009878e-05,4.043401718139648,103.37287902832031
1779199166.8722787,0.6373171806335449,guard-only,0,0.0,0.0,0.0,0.0,0.00084916735,-0.029084507,0.037557494,-0.00039639975875616074,0.007030655164271593,-0.7834699749946594,0.6213898062705994,0.008408308029174805,57,-2.1326821e-05,-1.6042963e-05,2.668726208654945e-05,5.892872e-05,4.6180154e-05,7.486788863052985e-05,4.043401718139648,103.36612701416016
1779199166.9549572,0.7199957370758057,guard-only,0,0.0,0.0,0.0,0.0,0.00080543244,-0.029076785,0.037508987,-0.0027157627046108246,0.006531048566102982,-0.7834293246269226,0.6214407086372375,0.003028392791748047,58,-6.506173e-05,-8.320436e-06,6.559160087485648e-05,-0.000107747175,5.863542e-05,0.00012266852386897865,4.043401718139648,103.41413116455078
1779199167.056891,0.8219294548034668,guard-only,0,0.0,0.0,0.0,0.0,0.0008398867,-0.02907862,0.03751978,-0.0006776085938327014,0.006981446407735348,-0.7834603786468506,0.6214022040367126,0.012347698211669922,59,-3.060745e-05,-1.0155141e-05,3.224814755279007e-05,3.618255e-05,3.5101748e-05,5.0411405745529354e-05,4.043401718139648,103.44728088378906
1779199167.139483,0.9045214653015137,guard-only,0,0.0,0.0,0.0,0.0,0.0008387235,-0.029109167,0.037483893,-0.0019966070540249348,0.006502541713416576,-0.7834174036979675,0.6214586496353149,0.0021517276763916016,60,-3.1770673e-05,-4.070252e-05,5.163400933094424e-05,2.1566882e-05,-7.4193886e-05,7.726489028267737e-05,4.043401718139648,103.4670181274414
1779199167.2461123,1.01115083694458,guard-only,0,0.0,0.0,0.0,0.0,0.0008230461,-0.029078817,0.037518587,-0.002780348528176546,0.006588572170585394,-0.7834766507148743,0.621380090713501,0.019863367080688477,61,-4.744809e-05,-1.0352582e-05,4.856436345079736e-05,-3.7797305e-05,5.04621e-05,6.304807207804125e-05,4.043401718139648,103.4554443359375
1779199167.3273985,1.0924370288848877,guard-only,0,0.0,0.0,0.0,0.0,0.0008156132,-0.029074037,0.03754337,-0.0006753780762664974,0.006947392597794533,-0.7834494113922119,0.6214163303375244,0.004300355911254883,62,-5.4880977e-05,-5.5730343e-06,5.516321520880945e-05,-4.9482212e-05,5.012859e-05,7.043695516165431e-05,4.043401718139648,103.43756866455078
1779199167.4289167,1.1939551830291748,guard-only,0,0.0,0.0,0.0,0.0,0.000831411,-0.029066723,0.037538923,-0.0004658695834223181,0.007141966838389635,-0.7835289239883423,0.6213141679763794,0.017461538314819336,63,-3.9083185e-05,1.7415732e-06,3.912196929770007e-05,1.9000974e-05,5.992543e-05,6.286568386209529e-05,4.043401718139648,103.44512939453125
1779199167.4920158,1.257054328918457,guard-only,0,0.0,0.0,0.0,0.0,0.00082972273,-0.029103434,0.037457388,-0.002783609787002206,0.006211583968251944,-0.7833800315856934,0.621505856513977,0.019268035888671875,64,-4.077144e-05,-3.49693e-05,5.371370710784693e-05,5.037431e-06,-0.00013773545,0.0001378275346890563,4.043401718139648,103.44512939453125
1779199167.5610576,1.3260960578918457,guard-only,0,0.0,0.0,0.0,0.0,0.00077540707,-0.029107396,0.037611842,-0.002638831501826644,0.005846951622515917,-0.7837652564048767,0.6210240125656128,0.008282184600830078,65,-9.50871e-05,-3.8931146e-05,0.00010274819062746744,-0.00020008735,-0.000111266614,0.0002289436751636241,4.043401718139648,103.42108917236328
1779199167.644648,1.40968656539917,guard-only,0,0.0,0.0,0.0,0.0,0.0008272261,-0.029098965,0.03749643,-0.003283659927546978,0.006492994725704193,-0.7834508419036865,0.6214112043380737,0.017768383026123047,66,-4.3268083e-05,-3.0500814e-05,5.2937949649292754e-05,6.972028e-05,-4.3757715e-05,8.231436511309629e-05,4.043401718139648,103.45526123046875
1779199167.7270393,1.4920778274536133,guard-only,0,0.0,0.0,0.0,0.0,0.0008381589,-0.029087203,0.037555914,-0.0014697842998430133,0.006823277100920677,-0.7835540771484375,0.6212844848632812,0.005759239196777344,67,-3.2335287e-05,-1.873821e-05,3.7372332107241136e-05,8.3548104e-05,6.750597e-06,8.382038141859345e-05,4.043401718139648,103.44854736328125
1779199167.8354435,1.6004819869995117,guard-only,0,0.0,0.0,0.0,0.0,0.0008067386,-0.02909832,0.037509125,-0.003134638536721468,0.006205928511917591,-0.7834290862083435,0.6214422583580017,0.018030643463134766,68,-6.375555e-05,-2.985634e-05,7.040008148592523e-05,-3.9569062e-05,-2.9970757e-05,4.963826183903982e-05,4.043401718139648,103.40632629394531
1779199167.9165566,1.6815950870513916,guard-only,0,0.0,0.0,0.0,0.0,0.0008198379,-0.029075537,0.0375478,0.00012797034287359565,0.006946173030883074,-0.7834830284118652,0.6213744878768921,0.0075337886810302734,69,-5.0656265e-05,-7.0724636e-06,5.114759926580476e-05,1.5198586e-05,5.3632048e-05,5.574399926145175e-05,4.043401718139648,103.40632629394531
1779199168.0204782,1.7855167388916016,guard-only,1000,1.525902189669642,0.0,0.0,0.0,0.00081610214,-0.029097244,0.037462316,-0.0025206736754626036,0.006430497393012047,-0.7834631204605103,0.6213998794555664,0.0198361873626709,70,-5.4392032e-05,-2.877973e-05,6.153670459059916e-05,-1.5934675e-06,-3.3536297e-05,3.357413329501314e-05,4.043401718139648,103.44059753417969
1779199168.1049936,1.8700320720672607,guard-only,2000,3.051804379339284,0.0,0.0,0.0,0.00084813306,-0.029043423,0.037521243,-0.0002703272912185639,0.007199661806225777,-0.7833377718925476,0.6215545535087585,0.009819269180297852,71,-2.2361113e-05,2.5041401e-05,3.357217727713674e-05,0.00010053534,0.00014732704,0.0001783609015787649,4.043401718139648,103.460693359375
1779199168.1925774,1.957615852355957,guard-only,2000,3.051804379339284,0.0,0.0,0.0,0.0008346062,-0.029058823,0.037522037,-0.0028780035208910704,0.0069940644316375256,-0.7832205891609192,0.6216980218887329,0.004842996597290039,72,-3.588799e-05,9.641051e-06,3.716043380424163e-05,2.6532241e-05,5.321425e-05,5.946189020152399e-05,4.043401718139648,103.47201538085938
1779199168.3001602,2.0651986598968506,guard-only,2000,3.051804379339284,0.0,0.0,0.0,0.0008090638,-0.02904713,0.037503507,-0.00027196339215151966,0.00725879892706871,-0.7832316160202026,0.6216875314712524,0.017225980758666992,73,-6.1430386e-05,2.1334738e-05,6.502971229841443e-05,-6.191833e-05,7.4099895e-05,9.656434889650682e-05,4.043401718139648,103.44393157958984
1779199168.3813684,2.146406888961792,guard-only,3000,4.577706569008926,0.0,0.0,0.0,0.00075915223,-0.029109282,0.0375813,-0.0053336224518716335,0.005483846180140972,-0.7838383913040161,0.620917797088623,0.0061740875244140625,74,-0.00011134194,-4.0818006e-05,0.00011858810315334333,-0.00020563902,-0.00015023065,0.0002546697016409651,4.043401718139648,103.46393585205078
1779199168.4828103,2.2478487491607666,guard-only,4000,6.103608758678568,0.0,0.0,0.0,0.0008497124,-0.029080495,0.037429348,-0.00285055348649621,0.0063888863660395145,-0.7831992506980896,0.6217314600944519,0.016135454177856445,75,-2.0781765e-05,-1.2030825e-05,2.4012965820654067e-05,0.00015303463,-1.0757125e-05,0.00015341223595922575,4.043401718139648,103.49198150634766
1779199168.5453854,2.3104238510131836,guard-only,4000,6.103608758678568,0.0,0.0,0.0,0.0008739077,-0.02903246,0.037478503,-0.0035092500038444996,0.006786365527659655,-0.7832390666007996,0.6216737031936646,0.00403594970703125,76,3.41353e-06,3.600493e-05,3.616638298282929e-05,0.00020432715,0.00018545029,0.00027593730662463364,4.043401718139648,103.48751068115234
1779199168.6340675,2.399106025695801,guard-only,5000,7.629510948348211,0.0,0.0,0.0,0.0008213965,-0.029073829,0.037487008,-0.004053602926433086,0.006060118321329355,-0.7833555340766907,0.6215311288833618,0.017278194427490234,77,-4.9097696e-05,-5.364418e-06,4.9389884727789366e-05,-6.579104e-05,-3.4697223e-05,7.43798263728718e-05,4.043401718139648,103.47483825683594
1779199168.7163546,2.4813930988311768,guard-only,6000,9.155413138017853,0.0,0.0,0.0,0.00085061986,-0.029061396,0.037475023,-0.0025359278079122305,0.006721212528645992,-0.7831839919090271,0.6217485070228577,0.007045745849609375,78,-1.9874307e-05,7.0687383e-06,2.1093960179484898e-05,4.8704835e-05,1.6027188e-05,5.127408369771704e-05,4.043401718139648,103.47483825683594
1779199168.7858202,2.550858736038208,guard-only,6000,9.155413138017853,0.0,0.0,0.0,0.0008250256,-0.029055487,0.037545357,0.00016402493929490447,0.007222759071737528,-0.7833869457244873,0.621492326259613,0.0075948238372802734,79,-4.5468565e-05,1.2977049e-05,4.728418569069305e-05,-7.7320736e-05,3.6938443e-05,8.569098504962835e-05,4.043401718139648,103.51602172851562
1779199168.8527405,2.617779016494751,guard-only,7000,10.681315327687495,0.0,0.0,0.0,0.00084602134,-0.029049689,0.037570797,-0.0005332735599949956,0.007186162285506725,-0.7834956645965576,0.6213556528091431,0.0026183128356933594,80,-2.4472829e-05,1.8775463e-05,3.084537847605427e-05,3.3483306e-05,5.0051654e-05,6.021876538888743e-05,4.043401718139648,103.5204086303711
1779199168.9353783,2.7004168033599854,guard-only,7000,10.681315327687495,0.0,0.0,0.0,0.0008529647,-0.029040905,0.037515562,0.001286433427594602,0.00747314328327775,-0.7832480669021606,0.6216630339622498,0.002277374267578125,81,-1.752947e-05,2.7559698e-05,3.266219985804149e-05,4.8541227e-05,6.679454e-05,8.256973698936716e-05,4.043401718139648,103.50092315673828
1779199169.02146,2.786498546600342,guard-only,7000,10.681315327687495,0.0,0.0,0.0,0.0008266629,-0.029051771,0.037596457,0.0001442871434846893,0.007256195414811373,-0.7834085822105408,0.621464729309082,0.001117706298828125,82,-4.38313e-05,1.6693026e-05,4.690245053111895e-05,-5.646614e-05,9.3885865e-06,5.7241334264464344e-05,4.043401718139648,103.50092315673828
1779199169.1234238,2.8884623050689697,guard-only,8000,12.207217517357137,0.0,0.0,0.0,0.0008149666,-0.02904062,0.037517983,-0.0010311382357031107,0.007061162497848272,-0.7831725478172302,0.6217634677886963,0.010110616683959961,83,-5.5527547e-05,2.7844682e-05,6.211791001842821e-05,-7.726796e-05,4.2556378e-05,8.821215073627646e-05,4.03812313079834,103.45895385742188
1779199169.2305148,2.9955532550811768,guard-only,9000,13.733119707026779,0.0,0.0,0.0,0.0008228556,-0.029067585,0.03752605,-0.0007715272950008512,0.006983528845012188,-0.7833555936813354,0.6215341687202454,0.004090547561645508,84,-4.7638547e-05,8.791685e-07,4.7646658065051775e-05,-3.316388e-05,-4.1730127e-05,5.330334275920688e-05,4.032844543457031,103.41924285888672
1779199169.3141797,3.0792181491851807,guard-only,10000,15.259021896696423,0.0,0.0,0.0,0.00079546403,-0.029084492,0.037492376,-0.00361518538556993,0.006348102819174528,-0.7832518815994263,0.6216617822647095,0.006165742874145508,85,-7.503014e-05,-1.6028062e-05,7.672301563617918e-05,-0.00012393182,-9.137788e-05,0.000153977314625217,4.032844543457031,103.41924285888672
1779199169.396613,3.161651372909546,guard-only,10000,15.259021896696423,0.0,0.0,0.0,0.0008344891,-0.029052928,0.03747487,-0.00362963555380702,0.006627428811043501,-0.7831498384475708,0.6217871308326721,0.006856203079223633,86,-3.6005047e-05,1.5536323e-05,3.921403860309544e-05,5.6471763e-05,5.187835e-05,7.66839178670545e-05,4.032844543457031,103.37352752685547
1779199169.4996846,3.264723062515259,guard-only,11000,16.784924086366065,0.0,0.0,0.0,0.00080027874,-0.029072965,0.037483282,-0.0035344944335520267,0.006439443677663803,-0.7833499312400818,0.6215376257896423,0.0011820793151855469,87,-7.0215436e-05,-4.5001507e-06,7.035949622921842e-05,-5.484689e-05,-1.896032e-05,5.80316726256643e-05,4.027565956115723,103.34077453613281
1779199169.5808837,3.3459222316741943,guard-only,11000,16.784924086366065,0.0,0.0,0.0,0.00081794965,-0.02906892,0.037540074,-0.0007343580364249647,0.007053086068481207,-0.7834663987159729,0.6213937401771545,0.0009050369262695312,88,-5.254452e-05,-4.5634806e-07,5.2546502036715925e-05,2.6672482e-05,1.6172862e-06,2.6721469658039077e-05,4.0170087814331055,103.287841796875
1779199169.683534,3.4485723972320557,guard-only,12000,18.310826276035705,0.0,0.0,0.0,0.00079846266,-0.02908564,0.0375534,-0.004633962642401457,0.006140698213130236,-0.7835177183151245,0.6213217973709106,0.019173860549926758,89,-7.2031515e-05,-1.7175451e-05,7.40508943864855e-05,-5.061115e-05,-5.8309135e-05,7.721038649731411e-05,4.0170087814331055,103.23358154296875
1779199169.7454515,3.5104899406433105,guard-only,12000,18.310826276035705,0.0,0.0,0.0,0.00086347165,-0.029037256,0.03754687,-0.0003052293905057013,0.0076263039372861385,-0.7831618189811707,0.6217711567878723,0.007893085479736328,90,-7.0225215e-06,3.120862e-05,3.198896172150687e-05,0.00023100863,0.00015748353,0.00027958191300626254,4.011730194091797,103.17643737792969
1779199169.8274808,3.5925192832946777,guard-only,13000,19.83672846570535,0.0,0.0,0.0,0.0008315453,-0.0290715,0.03750239,-0.0038765438366681337,0.006782655604183674,-0.7831631898880005,0.6217671632766724,0.008242130279541016,91,-3.89489e-05,-3.0361116e-06,3.9067053820098196e-05,4.4445027e-05,-1.5537516e-05,4.7082637604030664e-05,4.006451606750488,103.1893310546875
1779199169.9128673,3.677905797958374,guard-only,13000,19.83672846570535,0.0,0.0,0.0,0.0008469159,-0.029039038,0.037519064,-0.003887190017849207,0.006750722415745258,-0.783244788646698,0.6216645836830139,0.01122140884399414,92,-2.3578294e-05,2.9426068e-05,3.770715211928235e-05,8.706755e-05,0.00010730091,0.00013818192504023308,4.006451606750488,103.1893310546875
1779199169.9814236,3.746462106704712,guard-only,13000,19.83672846570535,0.0,0.0,0.0,0.00084199134,-0.029059147,0.03747659,-0.002851244993507862,0.006754733622074127,-0.7831112742424011,0.6218385696411133,0.009396076202392578,93,-2.8502836e-05,9.316951e-06,2.998695143244259e-05,3.9956543e-05,-1.0603988e-05,4.133968995458825e-05,4.006451606750488,103.17945861816406
1779199170.0643816,3.8294200897216797,guard-only,14000,21.36263065537499,0.0,0.0,0.0,0.00084274774,-0.02907463,0.03754619,-0.0002459990791976452,0.007349561434239149,-0.783469557762146,0.621386706829071,0.012567758560180664,94,-2.7746428e-05,-6.1653554e-06,2.84231574126923e-05,3.081371e-05,-6.563695e-05,7.250995680496845e-05,4.006451606750488,103.17548370361328
1779199170.130526,3.895564556121826,guard-only,15000,22.888532845044633,0.0,0.0,0.0,0.0008139282,-0.029084357,0.037537538,-0.002412852132692933,0.006798503454774618,-0.783442497253418,0.6214224696159363,0.0008981227874755859,95,-5.6565972e-05,-1.5892088e-05,5.875600039923726e-05,-8.9539615e-05,-8.3445746e-05,0.000122394999582742,4.00117301940918,103.12979125976562
1779199170.2358234,4.000861883163452,guard-only,16000,24.414435034714273,0.0,0.0,0.0,0.00086739287,-0.029061612,0.037505332,-0.0041002980433404446,0.0066435919143259525,-0.7832056283950806,0.6217138171195984,0.016251325607299805,96,-3.1013042e-06,6.8526715e-06,7.521781326148535e-06,0.00011564854,1.7450948e-05,0.00011695777040836548,3.9906158447265625,103.07450866699219
1779199170.3166845,4.081722974777222,guard-only,16000,24.414435034714273,0.0,0.0,0.0,0.0008440891,-0.029073384,0.037576403,-0.0010087889386340976,0.007215339690446854,-0.7833855748176575,0.6214934587478638,0.0058476924896240234,97,-2.640509e-05,-4.919246e-06,2.6859408153992058e-05,4.3511536e-06,-2.6480287e-05,2.6835390276970643e-05,3.9906158447265625,103.07450866699219
1779199170.419165,4.184203386306763,guard-only,17000,25.940337224383917,0.0,0.0,0.0,0.0008732623,-0.029074004,0.03751353,-0.004239855334162712,0.006752046290785074,-0.7832487225532532,0.6216573715209961,0.015997648239135742,98,2.7681235e-06,-5.5395067e-06,6.192628174289134e-06,9.7835386e-05,-2.0551552e-05,9.997064108962727e-05,3.9800586700439453,103.01322937011719
1779199170.5018923,4.266930818557739,guard-only,17000,25.940337224383917,0.0,0.0,0.0,0.00086135697,-0.029123098,0.0375342,-0.0028164833784103394,0.006424608640372753,-0.78336501121521,0.6215223670005798,0.0012805461883544922,99,-9.137206e-06,-5.4633245e-05,5.539205786445007e-05,3.1832133e-05,-0.00016552972,0.00016856267310443775,3.9800586700439453,102.95939636230469
1779199170.6071649,4.372203350067139,guard-only,17000,25.940337224383917,0.0,0.0,0.0,0.000900282,-0.029085288,0.037514046,-0.0032001330982893705,0.006504051387310028,-0.7831018567085266,0.6218511462211609,0.011811017990112305,100,2.9787829e-05,-1.6823411e-05,3.421025903808993e-05,0.00014553832,3.8537473e-06,0.00014558933216813906,3.9747800827026367,102.8960189819336
1779199170.711094,4.476132392883301,guard-only,18000,27.466239414053558,0.0,0.0,0.0,0.00095248874,-0.029076872,0.037560567,-0.00022522572544403374,0.007260865997523069,-0.7831663489341736,0.6217697858810425,0.02163839340209961,101,8.199457e-05,-8.40798e-06,8.242453361590999e-05,0.0002683141,2.9526365e-05,0.0002699338074474811,3.9747800827026367,102.80760955810547
1779199170.7997434,4.564781904220581,guard-only,18000,27.466239414053558,0.0,0.0,0.0,0.0008843448,-0.029055791,0.037578747,-0.004389591049402952,0.0058279181830585,-0.7829809188842773,0.6220030188560486,0.020244121551513672,102,1.3850629e-05,1.2673438e-05,1.8773810303502673e-05,-3.921616e-05,9.090568e-05,9.900379044431806e-05,3.9642229080200195,102.749267578125
1779199170.882137,4.647175550460815,guard-only,19000,28.9921416037232,0.0,0.0,0.0,0.00091009866,-0.02908251,0.03749137,-0.0026995374355465174,0.006496220361441374,-0.7830249071121216,0.621950626373291,0.007959365844726562,103,3.9604492e-05,-1.4046207e-05,4.202156387011386e-05,5.4152926e-05,-2.1030464e-05,5.809319888751994e-05,3.9642229080200195,102.77284240722656
1779199170.9860013,4.751039743423462,guard-only,20000,30.518043793392845,0.0,0.0,0.0,0.0009741499,-0.02907009,0.03760313,-0.004305120091885328,0.006444569211453199,-0.7828994393348694,0.6221000552177429,0.01935887336730957,104,0.00010365574,-1.6260892e-06,0.00010366849113390572,0.00024572015,2.5575522e-05,0.00024704755536891125,3.9536657333374023,102.6910171508789
1779199171.0517788,4.816817283630371,guard-only,20000,30.518043793392845,0.0,0.0,0.0,0.00095949695,-0.02908787,0.037558872,-0.004691126756370068,0.006322215311229229,-0.7829179763793945,0.6220752000808716,0.015718460083007812,105,8.900277e-05,-1.9405037e-05,9.109362962774618e-05,0.00010867914,-5.8931502e-05,0.00012362878397388877,3.9483871459960938,102.63410186767578
1779199171.1363957,4.9014341831207275,guard-only,21000,32.043945983062486,0.0,0.0,0.0,0.0008778181,-0.029089209,0.037584502,-0.0010377401486039162,0.0068927910178899765,-0.7831894159317017,0.6217441558837891,0.015380859375,106,7.3239207e-06,-2.0744279e-05,2.1999202796739492e-05,-0.00021235729,-4.5981316e-05,0.00021727838873882734,3.9483871459960938,102.56614685058594
1779199171.1972728,4.962311267852783,guard-only,21000,32.043945983062486,0.0,0.0,0.0,0.00087628886,-0.029134866,0.037540752,-0.0037533435970544815,0.006613211706280708,-0.7832191586494446,0.6216991543769836,0.005490303039550781,107,5.794689e-06,-6.640144e-05,6.665380180876238e-05,-0.00015513286,-0.00022573792,0.00027390475158326383,3.9483871459960938,102.56614685058594
1779199171.2987032,5.063741683959961,guard-only,22000,33.56984817273213,0.0,0.0,0.0,0.00089550973,-0.029061208,0.037587255,-0.0003670114674605429,0.006893807556480169,-0.7831112742424011,0.6218434572219849,0.01792144775390625,108,2.5015557e-05,7.2568655e-06,2.604688451454135e-05,-4.3803026e-05,9.0271904e-05,0.00010033803749012926,3.9378299713134766,102.58152770996094
1779199171.3605812,5.125619649887085,guard-only,22000,33.56984817273213,0.0,0.0,0.0,0.00089561613,-0.0290862,0.037550714,-0.004508764483034611,0.005569000728428364,-0.7831582427024841,0.6217813491821289,0.016410350799560547,109,2.512196e-05,-1.7736107e-05,3.0751949877375016e-05,-3.0158544e-05,-5.5093355e-05,6.280776691858632e-05,3.9272727966308594,102.52936553955078
1779199171.447728,5.212766408920288,guard-only,22000,33.56984817273213,0.0,0.0,0.0,0.0008897246,-0.02907804,0.03758985,-0.004544807132333517,0.005615552421659231,-0.7829939126968384,0.6219874620437622,0.0004439353942871094,110,1.9230414e-05,-9.575859e-06,2.1482688124627722e-05,-3.8251994e-05,-1.48237195e-05,4.1023866981540416e-05,3.9272727966308594,102.45665740966797
1779199171.5494483,5.314486742019653,guard-only,23000,35.09575036240177,0.0,0.0,0.0,0.0008643088,-0.029041588,0.037614897,-0.0011755309533327818,0.006263228598982096,-0.7832802534103394,0.6216360926628113,0.009302854537963867,111,-6.185379e-06,2.6876107e-05,2.757868815215174e-05,-0.000108885186,0.00010738587,0.00015293040752837884,3.916715621948242,102.3623275756836
1779199171.6369863,5.402024745941162,guard-only,23000,35.09575036240177,0.0,0.0,0.0,0.0010113977,-0.029054597,0.037665818,-0.0019027757225558162,0.007391643710434437,-0.7829605937004089,0.622024416923523,0.007830619812011719,112,0.00014090352,1.3867393e-05,0.000141584275244725,0.00041952863,3.1325555e-05,0.0004206965245381925,3.916715621948242,102.32632446289062
1779199171.739753,5.504791498184204,guard-only,23000,35.09575036240177,0.0,0.0,0.0,0.00080894027,-0.028839363,0.03761438,-0.0028862501494586468,0.0031777655240148306,-0.7828217148780823,0.6222313046455383,0.018494367599487305,113,-6.15539e-05,0.00022910163,0.00023722656108624989,-0.00036577886,0.00072299375,0.0008102556054467384,3.916715621948242,102.28450775146484
1779199171.821387,5.586425542831421,guard-only,23000,35.09575036240177,0.0,0.0,0.0,0.0008446695,-0.029055905,0.037565682,-0.0035894406028091908,0.0062432121485471725,-0.7830766439437866,0.6218835711479187,0.010741949081420898,114,-2.5824644e-05,1.2559816e-05,2.8716915366969527e-05,-0.0001361302,-0.00022066484,0.00025927668327921735,3.916715621948242,102.21047973632812
1779199171.926603,5.691641569137573,guard-only,23000,35.09575036240177,0.0,0.0,0.0,0.00095096393,-0.029067041,0.037579946,-0.004448441322892904,0.006431908346712589,-0.7827808260917664,0.6222484111785889,0.008667707443237305,115,8.046976e-05,1.4230609e-06,8.048234553832597e-05,0.00020192428,-0.00018560546,0.00027426775317750915,3.916715621948242,102.21047973632812
1779199171.9895692,5.754607677459717,guard-only,23000,35.09575036240177,0.0,0.0,0.0,0.0008926821,-0.029033242,0.037586346,2.2827898646937683e-05,0.007297868374735117,-0.7829672694206238,0.6220200061798096,0.007491350173950195,116,2.2187945e-05,3.522262e-05,4.162856943571326e-05,-0.00013124224,2.8159717e-05,0.0001342292630221931,3.916715621948242,102.14822387695312
1779199172.071033,5.836071491241455,guard-only,23000,35.09575036240177,0.0,0.0,0.0,0.0008058534,-0.028975666,0.03758676,-0.0002760587667580694,0.006775823887437582,-0.7828810811042786,0.6221344470977783,0.007487773895263672,117,-6.464077e-05,9.2798844e-05,0.00011309312246531408,-0.00041161242,0.00023173368,0.0004723613908679493,3.916715621948242,102.03423309326172
1779199172.1734436,5.938482046127319,guard-only,23000,35.09575036240177,0.0,0.0,0.0,0.00086716656,-0.028977692,0.037614565,-0.006583750247955322,0.004184352699667215,-0.7825783491134644,0.6225031614303589,0.017592191696166992,118,-3.3276156e-06,9.0772286e-05,9.083325947733876e-05,-8.8857545e-05,0.00015562715,0.0001792079042555887,3.916715621948242,102.0371322631836
1779199172.2578926,6.022931098937988,guard-only,23000,35.09575036240177,0.0,0.0,0.0,0.00079552084,-0.028906686,0.03758396,-0.008417136035859585,0.003460848471149802,-0.7825869917869568,0.622474730014801,0.008880138397216797,119,-7.497333e-05,0.00016177818,0.0001783064256298143,-0.00029291582,0.0003375942,0.00044695583281191624,3.916715621948242,102.01823425292969
1779199172.3417127,6.106751203536987,guard-only,23000,35.09575036240177,0.0,0.0,0.0,0.0009115683,-0.029060325,0.03763603,-0.005574885290116072,0.005445490125566721,-0.7828946709632874,0.622105598449707,0.019739866256713867,120,4.107412e-05,8.139759e-06,4.1872890018454716e-05,0.00027212524,-0.0003954178,0.0004800076877364819,3.9114370346069336,101.95352172851562
1779199172.4235406,6.188579082489014,guard-only,24000,36.62165255207141,0.0,0.0,0.0,0.0008972245,-0.02902726,0.037563063,-0.003429671050980687,0.006384286098182201,-0.7828335165977478,0.6221891045570374,0.0066051483154296875,121,2.6730355e-05,4.1203573e-05,4.9114625139847255e-05,0.00014517373,-0.00017233926,0.00022533583059225107,3.9008798599243164,101.97623443603516
1779199172.546654,6.311692476272583,guard-only,24000,36.62165255207141,0.0,0.0,0.0,0.0008404369,-0.028954322,0.037588652,-0.0007543218089267612,0.006477802991867065,-0.7827547788619995,0.6222960352897644,0.018618106842041016,122,-3.0057272e-05,0.000114142895,0.0001180340646179102,-5.171972e-05,7.631763e-05,9.219170082215984e-05,3.9008798599243164,101.95582580566406
1779199172.5886517,6.353690147399902,guard-only,25000,38.147554741741054,0.0,0.0,0.0,0.0006276909,-0.028742675,0.037747752,-0.004385659005492926,-0.00048269121907651424,-0.7827535271644592,0.6223162412643433,0.0195157527923584,123,-0.00024280325,0.00032578968,0.00040631555583942985,-0.0015890932,0.0015982884,0.0022538286225101773,3.9008798599243164,101.95582580566406
1779199172.6800508,6.445089340209961,guard-only,25000,38.147554741741054,0.0,0.0,0.0,0.0008005798,-0.028908653,0.037622944,-0.0025437274016439915,0.004121037200093269,-0.782497763633728,0.6226347088813782,0.013996362686157227,124,-6.9914386e-05,0.00015981123,0.00017443523076820147,-0.00057720824,0.0006050352,0.0008362038751460069,3.890322685241699,101.92572021484375
1779199172.7619057,6.526944160461426,guard-only,26000,39.6734569314107,0.0,0.0,0.0,0.000791003,-0.028850105,0.037675627,-0.0032711096573621035,0.003085208125412464,-0.7824788093566895,0.6226610541343689,0.003927469253540039,125,-7.9491176e-05,0.00021835975,0.00023237862817457222,-0.00043530035,0.00061460224,0.0007531416114635864,3.895601272583008,101.91912078857422
1779199172.8662884,6.631326913833618,guard-only,26000,39.6734569314107,0.0,0.0,0.0,0.00052906154,-0.02867228,0.03775489,-0.0028647088911384344,0.00014856627967674285,-0.7828996777534485,0.6221413612365723,0.015220403671264648,126,-0.00034143263,0.00039618462,0.0005230090722318769,-0.0011488674,0.0010032968,0.0015252871408957729,3.8850440979003906,101.87078094482422
1779199172.9518452,6.716883659362793,guard-only,26000,39.6734569314107,0.0,0.0,0.0,0.00068915915,-0.028881043,0.037704386,-0.004711017478257418,0.0031967335380613804,-0.7822628021240234,0.6229226589202881,0.014699459075927734,127,-0.00018133502,0.00018742122,0.0002607855451771876,-0.0002462312,-2.5279413e-05,0.00024752546667930123,3.8850440979003906,101.75514221191406
1779199173.0572667,6.822305202484131,guard-only,26000,39.6734569314107,0.0,0.0,0.0,0.00080959406,-0.028967068,0.037641965,-0.005046778824180365,0.0061098928563296795,-0.782148003578186,0.6230424642562866,0.01747751235961914,128,-6.0900114e-05,0.000101396814,0.00011827990974310051,0.00017963783,-0.00026912236,0.0003235685341336953,3.8850440979003906,101.70271301269531
1779199173.1399322,6.904970645904541,guard-only,26000,39.6734569314107,0.0,0.0,0.0,0.0007213475,-0.0288099,0.03773526,-0.004040339961647987,0.003832330694422126,-0.7819104194641113,0.6233659386634827,0.012322187423706055,129,-0.00014914665,0.00025856495,0.0002984971688628623,-0.00017570797,0.00034850836,0.00039029651173938355,3.8850440979003906,101.62699890136719
1779199173.2228348,6.987873315811157,guard-only,26000,39.6734569314107,0.0,0.0,0.0,0.00060393475,-0.02868489,0.03779323,-0.002481824718415737,0.0013236827217042446,-0.7819921374320984,0.6232820749282837,0.0007867813110351562,130,-0.00026655942,0.00038357452,0.00046710100103580847,-0.000495979,0.0006410718,0.0008105357908390841,3.879765510559082,101.62699890136719
1779199173.328587,7.093625545501709,guard-only,26000,39.6734569314107,0.0,0.0,0.0,0.00064999796,-0.028717332,0.037682552,-0.00020537449745461345,0.00376242701895535,-0.7819772958755493,0.6232957243919373,0.011151552200317383,131,-0.00022049621,0.00035113283,0.0004146237217498126,-0.00020231334,0.00034671897,0.0004014283572537923,3.8850440979003906,101.62793731689453
1779199173.4098325,7.17487096786499,guard-only,26000,39.6734569314107,0.0,0.0,0.0,0.00073386636,-0.028939601,0.037616543,-0.004553376697003841,0.005476573947817087,-0.7819365859031677,0.6233173608779907,0.019604206085205078,132,-0.00013662782,0.00012886338,0.00018781089696516407,0.00020402651,-0.0006733333,0.0007035655919988659,3.8850440979003906,101.62793731689453
1779199173.5111794,7.276217937469482,guard-only,27000,41.19935912108034,0.0,0.0,0.0,0.0006057252,-0.028682264,0.03771618,-0.000524613365996629,0.002710705390200019,-0.7819691896438599,0.6233109831809998,0.018999814987182617,133,-0.00026476895,0.00038620085,0.0004682453337033362,-0.00023424698,0.00028590273,0.0003696106274471222,3.879765510559082,101.65251159667969
1779199173.574861,7.33989953994751,guard-only,27000,41.19935912108034,0.0,0.0,0.0,0.0006251205,-0.028667515,0.037790727,-0.002674620831385255,0.0015729955630376935,-0.7814215421676636,0.6239957213401794,0.02074718475341797,134,-0.0002453737,0.00040094927,0.00047007294457014956,-7.0025206e-05,0.00027157104,0.0002804538455253647,3.869208335876465,101.67625427246094
1779199173.6600528,7.42509126663208,guard-only,27000,41.19935912108034,0.0,0.0,0.0,0.0006426126,-0.028841805,0.03773822,-0.007350480649620295,0.0026263887993991375,-0.7814140319824219,0.6239640116691589,0.014078617095947266,135,-0.0002278816,0.0002266597,0.0003214103966303429,8.108567e-06,-0.00037910024,0.00037918694882191383,3.869208335876465,101.66246795654297
1779199173.722077,7.487115383148193,guard-only,28000,42.72526131074998,0.0,0.0,0.0,0.00040329434,-0.028543107,0.037851,-0.0010598705848678946,-0.00161185662727803,-0.7819380164146423,0.6233533024787903,0.004812955856323242,136,-0.00046719983,0.0005253572,0.0007030475563276911,-0.0010014176,0.000991602,0.0014092947823222568,3.8586511611938477,101.5781478881836
1779199173.8074195,7.572458028793335,guard-only,28000,42.72526131074998,0.0,0.0,0.0,0.00041386113,-0.028568901,0.037866183,-0.002418574644252658,-0.0009265007684007287,-0.7817938923835754,0.623531699180603,0.0008718967437744141,137,-0.00045663305,0.0004995633,0.0006768140142916817,-0.00066548714,0.0006074519,0.0009010387920210066,3.8586511611938477,101.5781478881836
1779199174.0001388,7.765177249908447,guard-only,29000,44.25116350041962,0.0,0.0,0.0,0.00056378543,-0.028731268,0.037699495,-0.001580341369844973,0.0045883022248744965,-0.7809309363365173,0.6245986223220825,0.00380706787109375,139,-0.00030670874,0.0003371965,0.00045581984822937687,-0.00022884904,0.00016855597,0.0002842234970798999,3.853372573852539,101.52068328857422
1779199174.108588,7.873626470565796,guard-only,30000,45.777065690089266,0.0,0.0,0.0,0.00028517656,-0.028351437,0.037855107,-0.0031784912571310997,-0.001684018294326961,-0.781683087348938,0.6236655116081238,0.018193721771240234,140,-0.0005853176,0.0007170271,0.0009255941705849535,-0.0010487802,0.0013294081,0.0016933002453350437,3.8480939865112305,101.44509887695312
1779199174.1893191,7.954357624053955,guard-only,30000,45.777065690089266,0.0,0.0,0.0,-0.000419199,-0.027832571,0.037905075,-0.001517315162345767,0.006197426933795214,-0.7840591073036194,0.6206533908843994,0.015386819839477539,141,-0.0012896932,0.001235893,0.0017862642629491894,-0.003263684,0.0027939253,0.004296237064413383,3.8375368118286133,101.43024444580078
1779199174.2709281,8.035966634750366,guard-only,31000,47.30296787975891,0.0,0.0,0.0,-0.0018833661,-0.026130814,0.038196944,-0.011952017433941364,0.0008060849504545331,-0.788339376449585,0.615123987197876,0.0053598880767822266,142,-0.0027538603,0.0029376503,0.004026603603864471,-0.007078006,0.0075270026,0.01033217990111193,3.8375368118286133,101.4042739868164
1779199174.3533902,8.118428707122803,guard-only,31000,47.30296787975891,0.0,0.0,0.0,-0.003650572,-0.024028946,0.039016016,-0.01793728955090046,0.001279868301935494,-0.7933829426765442,0.6084571480751038,0.005936622619628906,143,-0.0045210663,0.0050395187,0.006770287050009636,-0.011429044,0.012969432,0.01728667768420589,3.826979637145996,101.3279800415039
1779199174.4556773,8.220715761184692,guard-only,31000,47.30296787975891,0.0,0.0,0.0,-0.005442165,-0.020953417,0.040768415,-0.019397571682929993,0.0025425488129258156,-0.7952014803886414,0.6060296893119812,0.016364097595214844,144,-0.006312659,0.008115048,0.010281228381245792,-0.013851413,0.019122832,0.023612375821817726,3.826979637145996,101.20932006835938
1779199174.537005,8.302043437957764,guard-only,31000,47.30296787975891,0.0,0.0,0.0,-0.007567837,-0.016066143,0.04240506,-0.01896306499838829,0.005665282718837261,-0.7947345972061157,0.6066344976425171,0.0029408931732177734,145,-0.008438331,0.013002321,0.015500509174499274,-0.016426288,0.028860055,0.033207314591589474,3.826979637145996,101.1810531616211
1779199174.6398182,8.40485668182373,guard-only,31000,47.30296787975891,0.0,0.0,0.0,-0.010448636,-0.009047283,0.042779222,-0.017567742615938187,-0.0012157817836850882,-0.7942491173744202,0.6073370575904846,0.01399374008178711,146,-0.01131913,0.020021182,0.02299935616574918,-0.02091684,0.04314939,0.047951892362589496,3.826979637145996,101.35295867919922
1779199174.7010503,8.466088771820068,guard-only,31000,47.30296787975891,0.0,0.0,0.0,-0.013645956,-0.002239767,0.042128805,-0.01718718558549881,-0.00030976664857007563,-0.7933281064033508,0.6085516214370728,0.003814220428466797,147,-0.01451645,0.026828697,0.030504201818544425,-0.028073724,0.058802933,0.06516071446650003,3.826979637145996,101.35295867919922
1779199174.7830837,8.54812216758728,guard-only,31000,47.30296787975891,0.0,0.0,0.0,-0.01774699,0.0059219482,0.041776795,-0.014011616818606853,-0.003330335021018982,-0.7927374243736267,0.6093931198120117,0.002851724624633789,148,-0.018617485,0.03499041,0.039635079816229817,-0.034475356,0.07066369,0.07862510651447044,3.8217010498046875,101.4627685546875
1779199174.865692,8.630730390548706,guard-only,31000,47.30296787975891,0.0,0.0,0.0,-0.022792796,0.014769519,0.04048039,-0.005465416703373194,0.006696892902255058,-0.7931145429611206,0.6090112924575806,0.013129472732543945,149,-0.02366329,0.043837983,0.04981686405853035,-0.04506088,0.086161025,0.097232739507893,3.8217010498046875,101.4648666381836
1779199174.9306693,8.69570779800415,guard-only,31000,47.30296787975891,0.0,0.0,0.0,-0.029359868,0.026374213,0.039253715,-0.007009794935584068,0.0019301226129755378,-0.7920932769775391,0.610356867313385,0.005179405212402344,150,-0.030230362,0.055442676,0.06314875247909332,-0.05855742,0.108050674,0.12289800418056915,3.826979637145996,101.44761657714844
1779199175.0157878,8.780826330184937,guard-only,31000,47.30296787975891,0.0,0.0,0.0,-0.035942975,0.03717561,0.038738888,-0.0005949757760390639,0.008436556905508041,-0.7943178415298462,0.607443630695343,0.006122112274169922,151,-0.036813468,0.06624407,0.0757859399415934,-0.064452186,0.11413132,0.13107265343581917,3.826979637145996,101.44761657714844
1779199175.119279,8.884317398071289,guard-only,32000,48.82887006942855,0.0,0.0,0.0,-0.04443487,0.051744286,0.039955553,-0.0021839248947799206,0.0035688618663698435,-0.7934229969978333,0.6086562871932983,0.01639580726623535,152,-0.045305364,0.08081275,0.0926459741844749,-0.07244587,0.12677807,0.1460173983642265,3.826979637145996,101.39456176757812
1779199175.2074704,8.972508907318115,guard-only,32000,48.82887006942855,0.0,0.0,0.0,-0.054035477,0.067274936,0.0405407,-0.009751313365995884,0.0016997865168377757,-0.791736900806427,0.6107820272445679,0.01725172996520996,153,-0.054905973,0.0963434,0.11089056173819707,-0.083690435,0.14209284,0.16490743681404862,3.8217010498046875,101.29303741455078
1779199175.2902067,9.055245161056519,guard-only,32000,48.82887006942855,0.0,0.0,0.0,-0.06456308,0.084323026,0.042993993,-0.010908027179539204,-0.0018710148287937045,-0.7916741967201233,0.6108432412147522,0.007050514221191406,154,-0.06543358,0.11339149,0.1309167038897557,-0.09256616,0.15449584,0.1801040217051705,3.816422462463379,101.22700500488281
1779199175.39392,9.158958435058594,guard-only,32000,48.82887006942855,0.0,0.0,0.0,-0.076831415,0.10284982,0.046889886,-0.011717214249074459,0.00018620450282469392,-0.7901259660720825,0.6128325462341309,0.013908863067626953,155,-0.07770191,0.13191828,0.1531013395071608,-0.10279645,0.16553226,0.19485389273153944,3.8111438751220703,101.18852233886719
1779199175.4777026,9.242741107940674,guard-only,32000,48.82887006942855,0.0,0.0,0.0,-0.09091719,0.12334101,0.052144285,-0.009097497910261154,-0.008715908974409103,-0.7876787781715393,0.6159573197364807,0.0018274784088134766,156,-0.09178769,0.15240948,0.1779146642445691,-0.11603799,0.17999837,0.21415934355964703,3.8111438751220703,101.278076171875
