wall_time_s,elapsed_s,mode,thrust_raw,thrust_percent,roll_cmd_deg,pitch_cmd_deg,yawrate_cmd_deg_s,mocap_x,mocap_y,mocap_z,mocap_qx,mocap_qy,mocap_qz,mocap_qw,mocap_age_s,mocap_frame_count,drift_x_m,drift_y_m,horizontal_drift_m,velocity_x_m_s,velocity_y_m_s,horizontal_speed_m_s,battery_v,estimate_z
1779199369.409075,0.00041294097900390625,hold-xy,0,0.0,0.0,0.0,0.0,0.0009871023,0.004560316,0.03756252,0.005839534103870392,-0.004176359158009291,-0.6141217350959778,-0.7891786694526672,0.003290414810180664,56,0.0,0.0,0.0,0.0,0.0,0.0,4.027565956115723,103.79167938232422
1779199369.4919598,0.0832977294921875,hold-xy,0,0.0,-5.262985e-05,-2.3900571e-05,0.0,0.0009896215,0.0045658634,0.037565686,0.005873269401490688,-0.003801441751420498,-0.6140913367271423,-0.789203941822052,0.004167079925537109,57,2.5192276e-06,5.547423e-06,6.0926519219715575e-06,9.215774e-06,2.0293439e-05,2.2287981914570915e-05,4.027565956115723,103.7711410522461
1779199369.5980277,0.18936562538146973,hold-xy,0,0.0,-2.0028629e-05,1.34130305e-05,0.0,0.000985831,0.004563181,0.037572023,0.005863836966454983,-0.004185072612017393,-0.6140807271003723,-0.7892103791236877,0.015496969223022461,58,-1.2712553e-06,2.865214e-06,3.134571829578397e-06,-5.5520063e-06,5.7118486e-06,7.965550095189624e-06,4.027565956115723,103.76974487304688
1779199369.680257,0.2715950012207031,hold-xy,0,0.0,4.2823824e-05,8.542053e-05,0.0,0.0009773597,0.004556327,0.03757726,0.0058802892453968525,-0.004125043749809265,-0.6141102910041809,-0.7891875505447388,0.0038802623748779297,59,-9.742565e-06,-3.9888546e-06,1.0527513514080282e-05,-3.0966843e-05,-1.791227e-05,3.5774220126655754e-05,4.027565956115723,103.76853942871094
1779199369.7823603,0.37369823455810547,hold-xy,0,0.0,2.7623952e-05,5.815604e-05,0.0,0.000978942,0.0045571746,0.03754175,0.005846635438501835,-0.0036402707919478416,-0.6140619516372681,-0.7892277836799622,0.0042650699615478516,60,-8.160248e-06,-3.141351e-06,8.744011435019658e-06,-1.7010032e-05,-1.0039032e-05,1.9751540453625508e-05,4.027565956115723,103.74490356445312
1779199369.869116,0.46045398712158203,hold-xy,0,0.0,7.0834445e-05,0.00029462113,0.0,0.00095298793,0.0045521003,0.037557263,0.005712463986128569,-0.0035848987754434347,-0.6141361594200134,-0.7891712784767151,0.007777214050292969,61,-3.4114346e-05,-8.215662e-06,3.5089681389735816e-05,-0.000105442494,-2.5314532e-05,0.00010843866897415211,4.027565956115723,103.7629165649414
1779199369.9518206,0.5431585311889648,hold-xy,0,0.0,-3.1370757e-05,0.0001997356,0.0,0.0009581577,0.0045619975,0.037580784,0.005877364426851273,-0.0039034562651067972,-0.6140710711479187,-0.7892191410064697,0.003537416458129883,62,-2.8944574e-05,1.6815029e-06,2.899337604872051e-05,-5.5971534e-05,1.6429829e-05,5.833311116391352e-05,4.027565956115723,103.79244995117188
1779199370.054214,0.6455519199371338,hold-xy,0,0.0,-3.608756e-05,6.213316e-05,0.0,0.00097072776,0.0045633516,0.037534356,0.005838220939040184,-0.004039438907057047,-0.6141316294670105,-0.7891716957092285,0.014894723892211914,63,-1.6374514e-05,3.035646e-06,1.6653523517069147e-05,2.243265e-06,1.5963318e-05,1.6120165781819213e-05,4.027565956115723,103.82118225097656
1779199370.135347,0.7266848087310791,hold-xy,0,0.0,-8.858401e-05,0.00012808258,0.0,0.00096391514,0.0045696124,0.037551742,0.005996622610837221,-0.004286289680749178,-0.6141155362129211,-0.7891817092895508,0.014687061309814453,64,-2.3187138e-05,9.296462e-06,2.4981344547368728e-05,-2.355602e-05,3.4265446e-05,4.158132919500063e-05,4.027565956115723,103.82118225097656
1779199370.1995277,0.7908656597137451,hold-xy,0,0.0,-7.705258e-05,0.00022426383,0.0,0.0009533642,0.0045699966,0.03756273,0.006159741431474686,-0.004919329192489386,-0.6140964031219482,-0.7891916036605835,0.00534510612487793,65,-3.373809e-05,9.6806325e-06,3.509947880203672e-05,-5.9540973e-05,2.5553367e-05,6.47927643354307e-05,4.027565956115723,103.843017578125
1779199370.3722403,0.9635782241821289,hold-xy,0,0.0,-5.699839e-05,0.00010470092,0.0,0.0009672856,0.004568713,0.03755763,0.005939478520303965,-0.0042051454074680805,-0.6140987873077393,-0.7891955971717834,0.009125947952270508,66,-1.9816682e-05,8.396804e-06,2.1522248832846362e-05,-1.6956128e-05,1.560745e-05,2.3045667117087446e-05,4.027565956115723,103.75981140136719
1779199370.436102,1.027439832687378,hold-xy,0,0.0,-6.411877e-05,9.426922e-05,0.0,0.0009675436,0.0045700152,0.037571132,0.005919070914387703,-0.004132660571485758,-0.6141442060470581,-0.7891607880592346,0.007383108139038086,67,-1.9558705e-05,9.699259e-06,2.1831595863292404e-05,-1.06896e-05,1.6881158e-05,1.9981017413558775e-05,4.027565956115723,103.75981140136719
1779199370.5392988,1.1306366920471191,hold-xy,0,0.0,-0.0002237909,-3.095509e-05,0.0,0.0009811539,0.0045889216,0.03757094,0.00609711604192853,-0.004711465444415808,-0.6140875816345215,-0.7892002463340759,0.017743587493896484,68,-5.9483573e-06,2.8605573e-05,2.9217490521911404e-05,3.6499012e-05,7.291241e-05,8.153770259264544e-05,4.027565956115723,103.76538848876953
1779199370.6235945,1.2149324417114258,hold-xy,0,0.0,-9.263071e-05,0.00016603575,0.0,0.00096110906,0.0045780037,0.03756957,0.00593822356313467,-0.004682929255068302,-0.6140638589859009,-0.7892202138900757,0.012185096740722656,69,-2.5993213e-05,1.7687678e-05,3.1440436682481344e-05,-4.137527e-05,1.4586665e-05,4.387122026748061e-05,4.027565956115723,103.75408935546875
1779199370.7058992,1.2972371578216553,hold-xy,0,0.0,-3.996763e-05,-1.928176e-05,0.0,0.0009798994,0.0045728073,0.03756218,0.005977200344204903,-0.004498854745179415,-0.6141066551208496,-0.7891876101493835,0.0021157264709472656,70,-7.202849e-06,1.2491364e-05,1.4419264854578175e-05,3.2062104e-05,-6.6652183e-06,3.274757411409596e-05,4.027565956115723,103.73037719726562
1779199370.8077471,1.3990850448608398,hold-xy,0,0.0,-3.880041e-05,2.4081473e-06,0.0,0.0009790407,0.0045723147,0.03756201,0.006025292910635471,-0.004591140430420637,-0.6141185164451599,-0.789177417755127,0.003001689910888672,71,-8.061528e-06,1.1998694e-05,1.4455341826905766e-05,1.9891977e-05,-6.12958e-06,2.0814958784560383e-05,4.027565956115723,103.73938751220703
1779199370.8908873,1.4822251796722412,hold-xy,0,0.0,-2.4058381e-05,8.9710404e-05,0.0,0.0009707995,0.004570474,0.037570506,0.00591979781165719,-0.004532968625426292,-0.6142011880874634,-0.789114236831665,0.00442957878112793,72,-1.6302802e-05,1.0157935e-05,1.9208461610541715e-05,-1.6332797e-05,-1.1048906e-05,1.9718990147863382e-05,4.027565956115723,103.7255859375
1779199370.994629,1.5859668254852295,hold-xy,0,0.0,-9.484452e-05,-2.510642e-05,0.0,0.0009836452,0.004578341,0.037567273,0.005889485124498606,-0.004006685223430395,-0.6141191720962524,-0.789181113243103,0.005101442337036133,73,-3.4570694e-06,1.8024817e-05,1.835334730131889e-05,2.5956464e-05,1.5163502e-05,3.006110120491147e-05,4.027565956115723,103.7436294555664
1779199371.0779777,1.6693155765533447,hold-xy,0,0.0,3.8392718e-05,-2.2159657e-06,0.0,0.0009824559,0.0045649293,0.03756998,0.006010699551552534,-0.004402856808155775,-0.6140583753585815,-0.7892253994941711,0.0055124759674072266,74,-4.6463683e-06,4.6133064e-06,6.5476202917426e-06,1.3867626e-05,-3.7897295e-05,4.035487565000648e-05,4.027565956115723,103.72118377685547
1779199371.1800296,1.7713675498962402,hold-xy,0,0.0,-1.3804958e-05,8.30309e-05,0.0,0.00097302906,0.0045691226,0.037543975,0.006039431784301996,-0.00473596528172493,-0.6141875982284546,-0.7891227006912231,0.0048482418060302734,75,-1.4073215e-05,8.806586e-06,1.660154712856943e-05,-1.7825361e-05,-1.4280924e-05,2.2840497010078155e-05,4.027565956115723,103.72303009033203
1779199371.270535,1.861872911453247,hold-xy,0,0.0,4.946684e-05,2.357189e-05,0.0,0.0009784438,0.0045617856,0.037546422,0.00601089047268033,-0.004199738148599863,-0.6140934228897095,-0.7891992330551147,0.013529539108276367,76,-8.658506e-06,1.469627e-06,8.782341657500085e-06,7.374756e-06,-3.6896898e-05,3.7626693428253276e-05,4.027565956115723,103.75640106201172
1779199371.337331,1.9286689758300781,hold-xy,0,0.0,2.32965e-05,0.00015010063,0.0,0.0009672409,0.0045626555,0.037576705,0.00593415554612875,-0.00443637277930975,-0.6140796542167664,-0.7892093062400818,0.016022205352783203,77,-1.9861385e-05,2.3394823e-06,1.9998694884987866e-05,-4.7103396e-05,-2.176962e-05,5.189071310055282e-05,4.027565956115723,103.78418731689453
1779199371.4003034,1.9916412830352783,hold-xy,0,0.0,-0.00021823778,-7.6697856e-05,0.0,0.0009883884,0.0045864913,0.03757261,0.005782673601061106,-0.003710569581016898,-0.6140244603157043,-0.7892571091651917,0.0003542900085449219,78,1.2861565e-06,2.6175287e-05,2.62068652019127e-05,4.7702153e-05,7.569109e-05,8.946863173814264e-05,4.027565956115723,103.78418731689453
1779199371.4884505,2.0797884464263916,hold-xy,0,0.0,5.7196667e-05,-7.675227e-05,0.0,0.0009907056,0.0045605022,0.037533764,0.006146659608930349,-0.0048817903734743595,-0.6141432523727417,-0.7891555428504944,0.0033953189849853516,79,3.603287e-06,1.8626451e-07,3.6080981099060716e-06,4.1559415e-05,-3.8627815e-05,5.6738814354525496e-05,4.027565956115723,103.7776870727539
1779199371.5699944,2.161332368850708,hold-xy,0,0.0,-2.9022296e-05,9.422822e-05,0.0,0.00097538345,0.0045674285,0.037557483,0.0061422232538461685,-0.004553869366645813,-0.6141322255134583,-0.7891661524772644,0.009162425994873047,80,-1.1718832e-05,7.1125105e-06,1.3708348529063731e-05,-3.1568597e-05,3.815021e-07,3.157090317389669e-05,4.027565956115723,103.74727630615234
1779199371.6547835,2.246121406555176,hold-xy,0,0.0,4.6669047e-06,2.101496e-05,0.0,0.0009813597,0.004564034,0.03755232,0.006022197660058737,-0.004386987537145615,-0.6140960454940796,-0.7891961336135864,0.01733708381652832,81,-5.742535e-06,3.7178397e-06,6.840982410256722e-06,1.3034532e-06,-1.3025509e-05,1.3090564625619839e-05,4.027565956115723,103.78057861328125
1779199371.7429757,2.3343136310577393,hold-xy,0,0.0,8.0733174e-05,6.2468964e-05,0.0,0.0009769192,0.004555132,0.037563376,0.005907781887799501,-0.004109684843569994,-0.6141119599342346,-0.7891861200332642,0.019044876098632812,82,-1.0183081e-05,-5.184207e-06,1.1426772826817334e-05,-1.4491093e-05,-3.9997565e-05,4.254170869801265e-05,4.027565956115723,103.7647933959961
1779199371.8238285,2.4151663780212402,hold-xy,0,0.0,0.00011865978,0.00019320502,0.0,0.0009614574,0.004548832,0.037557647,0.005954666994512081,-0.004249261226505041,-0.6141293048858643,-0.7891714572906494,0.007630825042724609,83,-2.5644898e-05,-1.1484139e-05,2.8098865843723614e-05,-6.0416947e-05,-4.848215e-05,7.746435398433993e-05,4.027565956115723,103.7647933959961
1779199371.9250104,2.516348361968994,hold-xy,0,0.0,0.0001262372,0.00012388904,0.0,0.00096618384,0.004545534,0.037545327,0.005950108170509338,-0.003974842838943005,-0.6140964031219482,-0.7891985774040222,0.017224550247192383,84,-2.0918436e-05,-1.4781952e-05,2.5614196718975076e-05,-2.68102e-05,-4.4739587e-05,5.215762117722072e-05,4.027565956115723,103.75578308105469
1779199372.010945,2.602283000946045,hold-xy,0,0.0,-0.00013320871,-3.8696744e-05,0.0,0.0009832364,0.0045726458,0.03755841,0.0059321182779967785,-0.004111845511943102,-0.6141252517700195,-0.7891755700111389,0.00993204116821289,85,-3.86592e-06,1.232978e-05,1.2921640758715769e-05,3.610695e-05,5.5926397e-05,6.656931616396646e-05,4.027565956115723,103.75397491455078
1779199372.0981894,2.6895272731781006,hold-xy,0,0.0,-0.00023581114,0.00012688068,0.0,0.0009668004,0.0045867087,0.037577685,0.005865705199539661,-0.003898113500326872,-0.6140477657318115,-0.7892374396324158,0.008689641952514648,86,-2.03019e-05,2.639275e-05,3.3297814186534236e-05,-3.0448718e-05,8.682675e-05,9.201091906395029e-05,4.027565956115723,103.7553482055664
1779199372.2038412,2.7951791286468506,hold-xy,0,0.0,1.3729639e-05,9.089436e-05,0.0,0.00096935034,0.004562625,0.037572566,0.005831335671246052,-0.004233583342283964,-0.6140933036804199,-0.7892005443572998,0.019387006759643555,87,-1.775194e-05,2.3092143e-06,1.7901503348754147e-05,-1.3257734e-05,-1.5310998e-05,2.0253250514902734e-05,4.027565956115723,103.76573944091797
1779199372.2852042,2.876542091369629,hold-xy,0,0.0,-1.3048957e-06,4.348538e-06,0.0,0.0009784494,0.004563545,0.037572786,0.005825771950185299,-0.004110435955226421,-0.6140462756156921,-0.7892378568649292,0.008078813552856445,88,-8.652918e-06,3.2288954e-06,9.235732465325659e-06,2.0175423e-05,-7.7404575e-06,2.16093118277815e-05,4.027565956115723,103.80001831054688
1779199372.3692386,2.9605765342712402,hold-xy,0,0.0,1.7692997e-05,7.043969e-05,0.0,0.0009723818,0.0045611523,0.03757545,0.006013020407408476,-0.004223416559398174,-0.6141485571861267,-0.7891562581062317,0.008721590042114258,89,-1.4720485e-05,8.363277e-07,1.4744222743774497e-05,-7.7051645e-06,-1.4025539e-05,1.6002665148685117e-05,4.027565956115723,103.75
1779199372.4552908,3.046628713607788,hold-xy,0,0.0,-0.0001373257,0.00024270898,0.0,0.0009543495,0.004576411,0.03757716,0.006125860381871462,-0.004689028952270746,-0.6140607595443726,-0.7892211079597473,0.016453981399536133,90,-3.2752752e-05,1.6095117e-05,3.64937743008327e-05,-7.4465315e-05,4.863015e-05,8.893803965290759e-05,4.027565956115723,103.76727294921875
1779199372.5168266,3.1081645488739014,hold-xy,0,0.0,4.6290625e-05,0.00015714768,0.0,0.00095940847,0.0045606922,0.037569508,0.006008133292198181,-0.004420934710651636,-0.6140830516815186,-0.7892061471939087,0.0064373016357421875,91,-2.7693808e-05,3.7625432e-07,2.7696363648305123e-05,-3.0914962e-05,-3.186376e-05,4.439632870721477e-05,4.027565956115723,103.76727294921875
1779199372.5980783,3.1894161701202393,hold-xy,0,0.0,-7.9824604e-05,-6.9273083e-06,0.0,0.0009742053,0.0045717065,0.037563458,0.006005273666232824,-0.0045145489275455475,-0.614080548286438,-0.7892075777053833,0.014498233795166016,92,-1.2896955e-05,1.1390541e-05,1.7206855785715832e-05,3.9010087e-05,2.284163e-05,4.5205388232985966e-05,4.027565956115723,103.75080108642578
1779199372.6820612,3.2733991146087646,hold-xy,0,0.0,8.5079606e-05,-4.8140573e-06,0.0,0.0009758286,0.004555451,0.037557676,0.0060224211774766445,-0.004421892110258341,-0.6140393018722534,-0.7892400622367859,0.016845703125,93,-1.127366e-05,-4.8647635e-06,1.2278490139044652e-05,3.3272463e-05,-4.3747037e-05,5.496235081022454e-05,4.022287368774414,103.775634765625
1779199372.746777,3.3381149768829346,hold-xy,0,0.0,-1.4615174e-05,6.0214617e-05,0.0,0.00097071193,0.0045636296,0.037566073,0.005911165848374367,-0.004365970380604267,-0.6141526103019714,-0.7891530990600586,0.00374603271484375,94,-1.6390346e-05,3.3136457e-06,1.6721952198159508e-05,3.5645098e-06,9.070609e-07,3.6781095633795267e-06,4.027565956115723,103.775634765625
1779199372.8520377,3.443375587463379,hold-xy,0,0.0,-7.0586207e-06,-1.8109109e-05,0.0,0.0009798184,0.004562815,0.03757488,0.00600922666490078,-0.0045106192119419575,-0.6141117811203003,-0.7891833186149597,0.014805793762207031,95,-7.283874e-06,2.4992041e-06,7.700703994743895e-06,3.14964e-05,-1.9587972e-06,3.1557254049206324e-05,4.027565956115723,103.80948638916016
1779199372.936569,3.527906894683838,hold-xy,0,0.0,-4.3049196e-05,-1.4536134e-05,0.0,0.0009809928,0.004566705,0.03754961,0.005931137595325708,-0.004075650125741959,-0.6141114234924316,-0.7891865372657776,0.009807109832763672,96,-6.109476e-06,6.388873e-06,8.839875255507673e-06,2.5982692e-05,1.1662471e-05,2.848005459424362e-05,4.027565956115723,103.80948638916016
1779199373.0243127,3.6156506538391113,hold-xy,0,0.0,4.1054707e-05,0.00016415292,0.0,0.0009618141,0.0045576487,0.037590794,0.005953698884695768,-0.004360831342637539,-0.6140999794006348,-0.7891937494277954,0.0019567012786865234,97,-2.5288202e-05,-2.6673079e-06,2.5428482294827344e-05,-4.200008e-05,-2.0256983e-05,4.662994779922588e-05,4.027565956115723,103.83316802978516
1779199373.1338444,3.725182294845581,hold-xy,0,0.0,-7.7011675e-05,9.83233e-05,0.0,0.00096713565,0.004570003,0.037572563,0.005991831421852112,-0.0042631360702216625,-0.6140697002410889,-0.7892175316810608,0.01810288429260254,98,-1.9966625e-05,9.687152e-06,2.2192499524719786e-05,-1.2304532e-05,2.5508714e-05,2.8321299418094067e-05,4.027565956115723,103.80681610107422
1779199373.218041,3.8093788623809814,hold-xy,0,0.0,-6.1514045e-05,3.3548007e-05,0.0,0.0009740684,0.004569533,0.037553478,0.006118848454207182,-0.004563421476632357,-0.614094614982605,-0.7891955375671387,0.0032825469970703125,99,-1.3033859e-05,9.216834e-06,1.596344314360884e-05,1.2391621e-05,1.6431139e-05,2.0579956177876173e-05,4.027565956115723,103.74991607666016
1779199373.3012724,3.8926103115081787,hold-xy,0,0.0,-3.3686276e-05,0.00019796891,0.0,0.0009571491,0.0045673563,0.037551295,0.00601964071393013,-0.004602902568876743,-0.6141312122344971,-0.7891675233840942,0.003000497817993164,100,-2.9953197e-05,7.040333e-06,3.076946905250221e-05,-5.2104082e-05,3.6832962e-06,5.223410926645124e-05,4.027565956115723,103.72087097167969
1779199373.4068797,3.9982175827026367,hold-xy,0,0.0,-0.00016172862,4.2748376e-05,0.0,0.0009720614,0.004582034,0.03755271,0.006042676046490669,-0.004343465901911259,-0.614080011844635,-0.789208710193634,0.015566349029541016,101,-1.504086e-05,2.1717977e-05,2.6417758452288006e-05,1.1610042e-05,4.990447e-05,5.1237185024116956e-05,4.027565956115723,103.77759552001953
1779199373.4898357,4.081173658370972,hold-xy,0,0.0,2.3951528e-05,8.1840786e-05,0.0,0.00096832775,0.00456404,0.037548017,0.0059646125882864,-0.004287375137209892,-0.6141489744186401,-0.7891559600830078,0.009781360626220703,102,-1.8774532e-05,3.7238933e-06,1.9140282710050618e-05,-4.4951057e-06,-2.5898069e-05,2.62852808827711e-05,4.027565956115723,103.79850769042969
1779199373.5987666,4.1901044845581055,hold-xy,0,0.0,3.129254e-05,0.00013782404,0.0,0.0009615263,0.0045618126,0.037560634,0.005760799627751112,-0.00404641916975379,-0.6142088770866394,-0.7891120910644531,0.019341230392456055,103,-2.557598e-05,1.4966354e-06,2.561973332299041e-05,-2.3680084e-05,-2.4852721e-05,3.432789175052466e-05,4.027565956115723,103.76671600341797
1779199373.6603603,4.25169825553894,hold-xy,0,0.0,-5.6270164e-05,5.9211125e-05,0.0,0.00096807163,0.004569169,0.037552696,0.005902584176510572,-0.00421471381559968,-0.614132285118103,-0.7891697883605957,0.010429620742797852,104,-1.9030645e-05,8.853152e-06,2.0989134525560442e-05,1.12743055e-05,1.3905037e-05,1.790139714188802e-05,4.027565956115723,103.70793914794922
1779199373.7479029,4.339240789413452,hold-xy,0,0.0,0.00013436336,0.00023746211,0.0,0.0009508468,0.0045508305,0.03756398,0.005875638220459223,-0.004206319805234671,-0.6143341660499573,-0.7890128493309021,0.02364063262939453,105,-3.6255457e-05,-9.48552e-06,3.747576865621101e-05,-6.162686e-05,-6.428086e-05,8.90499776283682e-05,4.027565956115723,103.68956756591797
1779199373.8294876,4.420825481414795,hold-xy,0,0.0,-9.125946e-05,7.012894e-05,0.0,0.000966263,0.0045725517,0.037558313,0.006178614217787981,-0.004921820480376482,-0.614109992980957,-0.7891809344291687,0.016213178634643555,106,-2.0839274e-05,1.2235716e-05,2.416584532177948e-05,8.8187735e-06,2.8211067e-05,2.955731809872215e-05,4.027565956115723,103.68956756591797
1779199373.8931866,4.484524488449097,hold-xy,0,0.0,-1.8310995e-05,-0.00012592154,0.0,0.0009864839,0.0045664604,0.037541717,0.0061663417145609856,-0.0048792543821036816,-0.6140614151954651,-0.789219081401825,0.003533601760864258,107,-6.183982e-07,6.1444007e-06,6.175441492650325e-06,8.559675e-05,-4.1777384e-06,8.569864436780752e-05,4.027565956115723,103.71517181396484
1779199373.9745462,4.565884113311768,hold-xy,0,0.0,-3.8358403e-06,7.5438234e-05,0.0,0.0009691855,0.004564723,0.03755784,0.006199217867106199,-0.005018615163862705,-0.6142155528068542,-0.7890979647636414,0.0017702579498291016,108,-1.7916784e-05,4.4070184e-06,1.8450825444954455e-05,-2.5140653e-06,-9.194822e-06,9.532328182430394e-06,4.027565956115723,103.75728607177734
1779199374.0805402,4.671878099441528,hold-xy,0,0.0,-1.8075605e-05,0.00013648944,0.0,0.00096214004,0.0045658676,0.037551723,0.006122080609202385,-0.0048659127205610275,-0.614181637763977,-0.789125919342041,0.014517545700073242,109,-2.4962239e-05,5.551614e-06,2.5572129281741344e-05,-2.4426992e-05,-2.7539002e-06,2.4581739529170883e-05,4.027565956115723,103.7508544921875
1779199374.182748,4.774085998535156,hold-xy,0,0.0,3.3638367e-05,4.3006687e-05,0.0,0.0009721173,0.004559463,0.03758739,0.005877427291125059,-0.004455406218767166,-0.6141905188560486,-0.7891232967376709,0.011286258697509766,110,-1.498498e-05,-8.530915e-07,1.5009243617234623e-05,1.1288823e-05,-2.0150668e-05,2.3097335805365884e-05,4.027565956115723,103.74837493896484
1779199374.267404,4.858741998672485,hold-xy,1000,1.525902189669642,2.4243172e-05,7.6630415e-05,0.0,0.0009690318,0.0045594983,0.037559222,0.006006920710206032,-0.004396401345729828,-0.6142061352729797,-0.789110541343689,0.010244607925415039,111,-1.8070452e-05,-8.177012e-07,1.8088943316567325e-05,-2.8990717e-06,-1.3981578e-05,1.4278975512309135e-05,4.027565956115723,103.76325225830078
1779199374.35492,4.946257829666138,hold-xy,1000,1.525902189669642,-1.304326e-05,-1.1257482e-05,0.0,0.0009782976,0.004562815,0.0375797,0.0059175132773816586,-0.004237520042806864,-0.6141366362571716,-0.7891661524772644,0.013561248779296875,112,-8.804724e-06,2.4992041e-06,9.152550035616778e-06,3.098425e-05,2.0309626e-06,3.1050743144196614e-05,4.027565956115723,103.76166534423828
1779199374.436905,5.028242826461792,hold-xy,1000,1.525902189669642,-8.4916115e-05,1.5571228e-05,0.0,0.0009768279,0.0045711165,0.03756538,0.005802098195999861,-0.004127001855522394,-0.6140592098236084,-0.7892278432846069,0.0011684894561767578,113,-1.0274351e-05,1.0800548e-05,1.4906848161268155e-05,1.701745e-05,2.7809281e-05,3.260290981241732e-05,4.027565956115723,103.76166534423828
1779199374.5450635,5.136401414871216,hold-xy,1000,1.525902189669642,-0.00010155716,9.558794e-05,0.0,0.0009686779,0.0045744004,0.037536953,0.006132817827165127,-0.004346177447587252,-0.6140638589859009,-0.7892205715179443,0.017083406448364258,114,-1.8424354e-05,1.4084391e-05,2.3191096344126343e-05,-1.4593682e-05,3.0146395e-05,3.349299431756004e-05,4.027565956115723,103.76390838623047
1779199374.6271474,5.218485355377197,hold-xy,2000,3.051804379339284,0.00011323788,0.0004112567,0.0,0.00093212165,0.004551572,0.037561927,0.005964590236544609,-0.004600166343152523,-0.6142688989639282,-0.7890608310699463,0.005705356597900391,115,-5.498063e-05,-8.744188e-06,5.567162965031733e-05,-0.00012755614,-5.2174088e-05,0.00013781402068792128,4.027565956115723,103.78126525878906
1779199374.7145584,5.305896282196045,hold-xy,2000,3.051804379339284,0.00016208125,8.04462e-05,0.0,0.000962466,0.004543545,0.037548732,0.005947244353592396,-0.004277999047189951,-0.6142204999923706,-0.7891004681587219,0.0033004283905029297,116,-2.4636276e-05,-1.6770791e-05,2.9802776869646328e-05,1.20659315e-05,-6.333206e-05,6.44712063510767e-05,4.022287368774414,103.77208709716797
1779199374.8198364,5.411174297332764,hold-xy,2000,3.051804379339284,-0.00020140386,-9.270065e-05,0.0,0.0009832969,0.004582621,0.037512254,0.0061403424479067326,-0.0047196196392178535,-0.6141019463539124,-0.7891886830329895,0.010167837142944336,117,-3.805384e-06,2.2305176e-05,2.2627457431672248e-05,7.1948125e-05,7.478877e-05,0.00010377809274286453,4.027565956115723,103.76195526123047
1779199374.8812673,5.472605228424072,hold-xy,2000,3.051804379339284,-3.976217e-05,3.5443616e-05,0.0,0.00097402465,0.0045702294,0.03753215,0.005903447978198528,-0.003996746148914099,-0.6141557097434998,-0.7891526818275452,0.0004909038543701172,118,-1.3077632e-05,9.913463e-06,1.641039891218522e-05,1.1244607e-05,7.221024e-08,1.1244838594717143e-05,4.027565956115723,103.77363586425781
1779199374.9693286,5.560666561126709,hold-xy,3000,4.577706569008926,9.071267e-06,9.740624e-05,0.0,0.00096806884,0.0045651216,0.037553523,0.006124861538410187,-0.004632048774510622,-0.6141738295555115,-0.7891334295272827,0.007531404495239258,119,-1.903344e-05,4.8056245e-06,1.9630737386600046e-05,-1.4181654e-05,-1.886251e-05,2.3599017486457986e-05,4.022287368774414,103.75006103515625
1779199375.056389,5.647727012634277,hold-xy,3000,4.577706569008926,-9.801559e-05,0.00012787303,0.0,0.00096420385,0.0045754635,0.03757642,0.005835901014506817,-0.003952831495553255,-0.614059329032898,-0.7892284393310547,0.013275384902954102,120,-2.2898428e-05,1.5147496e-05,2.745513878698798e-05,-2.418622e-05,2.4950401e-05,3.4749039843414404e-05,4.022287368774414,103.739501953125
1779199375.1216717,5.713009595870972,hold-xy,3000,4.577706569008926,-2.6901464e-05,7.6604185e-05,0.0,0.0009682309,0.004569492,0.03756084,0.006045232061296701,-0.004304263740777969,-0.614051878452301,-0.7892307639122009,0.003912210464477539,121,-1.887139e-05,9.175856e-06,2.098393825807934e-05,-7.457529e-07,-6.5346394e-06,6.577055674223337e-06,4.022287368774414,103.739501953125
1779199375.2061872,5.79752516746521,hold-xy,3000,4.577706569008926,-2.8183018e-05,0.00019214294,0.0,0.0009565223,0.004569324,0.037584502,0.006009459961205721,-0.00449861166998744,-0.6140781044960022,-0.7892095446586609,0.012111663818359375,122,-3.0579977e-05,9.008218e-06,3.187919300557075e-05,-4.6548692e-05,-5.2332357e-06,4.6841941829376005e-05,4.022287368774414,103.67504119873047
1779199375.3091493,5.900487184524536,hold-xy,4000,6.103608758678568,8.439185e-05,0.00012899796,0.0,0.00096155424,0.0045556193,0.037593562,0.00602860888466239,-0.004410820547491312,-0.614104688167572,-0.7891892194747925,0.012475728988647461,123,-2.554804e-05,-4.6966597e-06,2.597616262715778e-05,-1.7870527e-05,-4.373681e-05,4.724684511528201e-05,4.027565956115723,103.64314270019531
1779199375.3767986,5.968136548995972,hold-xy,4000,6.103608758678568,-5.3447704e-05,9.468179e-05,0.0,0.00096425787,0.0045677777,0.037557475,0.0058586387895047665,-0.0037083651404827833,-0.6141150593757629,-0.7891860604286194,0.0014290809631347656,124,-2.2844411e-05,7.4617565e-06,2.403216503571641e-05,-2.2027616e-06,1.5733785e-05,1.588723239377354e-05,4.027565956115723,103.66165161132812
1779199375.5025196,6.093857526779175,hold-xy,4000,6.103608758678568,1.0433374e-05,0.00013754352,0.0,0.0009585833,0.0045604277,0.037551526,0.005972514394670725,-0.0043915812857449055,-0.6140754222869873,-0.7892125248908997,0.00644230842590332,125,-2.851896e-05,1.1175871e-07,2.851917879549673e-05,-1.5645126e-05,-7.253606e-06,1.7244848026738427e-05,4.027565956115723,103.68468475341797
1779199375.5844607,6.175798654556274,hold-xy,5000,7.629510948348211,-7.466871e-05,0.00014101909,0.0,0.0009575607,0.004568386,0.037564665,0.00583860045298934,-0.003945592790842056,-0.6141457557678223,-0.7891611456871033,0.01676774024963379,126,-2.9541552e-05,8.06991e-06,3.0623956393368616e-05,-1.5235253e-05,2.825938e-05,3.2104602799792256e-05,4.027565956115723,103.72384643554688
1779199375.6714332,6.262771129608154,hold-xy,5000,7.629510948348211,-0.00016471591,0.00013248698,0.0,0.0009577526,0.0045801476,0.037578776,0.005976119544357061,-0.004671494942158461,-0.6141377091407776,-0.7891624569892883,0.008747100830078125,127,-2.93497e-05,1.9831583e-05,3.5421696301338153e-05,-1.0058783e-05,5.6926383e-05,5.7808236232517807e-05,4.022287368774414,103.72962188720703
1779199375.7606397,6.351977586746216,hold-xy,5000,7.629510948348211,3.8497426e-05,9.3003284e-05,0.0,0.0009615524,0.004560843,0.037576437,0.00584865128621459,-0.00392309483140707,-0.6141097545623779,-0.7891892194747925,0.011411190032958984,128,-2.5549904e-05,5.271286e-07,2.55553415665249e-05,6.1308847e-06,-2.7070626e-05,2.7756198800818387e-05,4.027565956115723,103.71495819091797
1779199375.862198,6.453536033630371,hold-xy,5000,7.629510948348211,-2.709973e-05,0.00021260008,0.0,0.0009483518,0.004566878,0.037571423,0.0060137491673231125,-0.004770628176629543,-0.6141294836997986,-0.7891679406166077,0.020204782485961914,129,-3.875047e-05,6.562099e-06,3.930216222422283e-05,-3.8398797e-05,5.675556e-07,3.840299122176397e-05,4.022287368774414,103.73999786376953
1779199375.9231899,6.514527797698975,hold-xy,5000,7.629510948348211,-5.544044e-05,8.689948e-05,0.0,0.0009589009,0.0045696604,0.037575584,0.005925762001425028,-0.003887307597324252,-0.6141355633735657,-0.7891687154769897,0.009515047073364258,130,-2.8201379e-05,9.344425e-06,2.9709190830915316e-05,1.7270691e-05,1.2041827e-05,2.1054272981465485e-05,4.022287368774414,103.73999786376953
1779199376.0056286,6.596966505050659,hold-xy,5000,7.629510948348211,-5.4134347e-05,0.00011068063,0.0,0.0009571789,0.004570103,0.037588328,0.0058352467603981495,-0.004061301704496145,-0.6141132116317749,-0.7891859412193298,0.006997823715209961,131,-2.9923394e-05,9.786803e-06,3.148318627698732e-05,6.0086295e-06,9.991423e-06,1.1658995166789167e-05,4.022287368774414,103.7382583618164
1779199376.0895886,6.680926561355591,hold-xy,5000,7.629510948348211,3.799405e-06,1.2393517e-05,0.0,0.0009680642,0.004564343,0.03757548,0.006022367626428604,-0.004233764484524727,-0.6140758991241455,-0.7892126441001892,0.005694150924682617,132,-1.9038096e-05,4.027039e-06,1.9459346186046566e-05,4.250591e-05,-1.3271707e-05,4.452966135614383e-05,4.027565956115723,103.74226379394531
1779199376.1748269,6.766164779663086,hold-xy,4000,6.103608758678568,-3.6714526e-05,9.9735415e-05,0.0,0.00096090045,0.0045679705,0.037590124,0.00582588417455554,-0.003665117546916008,-0.6141582727432251,-0.7891528606414795,0.009442567825317383,133,-2.620183e-05,7.65454e-06,2.7297030027307195e-05,3.3812667e-06,4.0642426e-06,5.2868735670372945e-06,4.022287368774414,103.75273132324219
1779199376.2362158,6.827553749084473,hold-xy,4000,6.103608758678568,-0.00015367201,0.0003656915,0.0,0.00093958434,0.004577546,0.03760637,0.005908805876970291,-0.0044509610161185265,-0.614080011844635,-0.7892091274261475,0.01729440689086914,134,-4.751794e-05,1.7229933e-05,5.054527910945756e-05,-0.00011707981,5.650152e-05,0.0001300004016417217,4.022287368774414,103.75273132324219
1779199376.304047,6.895385026931763,hold-xy,4000,6.103608758678568,0.00014703092,-0.000103104045,0.0,0.0009843288,0.004547945,0.037567277,0.006004920694977045,-0.004551317542791367,-0.6141483187675476,-0.7891546487808228,0.00021505355834960938,135,-2.7734786e-06,-1.2370758e-05,1.2677848154164025e-05,7.6131975e-05,-6.503193e-05,0.0001001260682111072,4.027565956115723,103.74536895751953
1779199376.4061353,6.997473239898682,hold-xy,3000,4.577706569008926,-9.201116e-05,0.00026539867,0.0,0.0009462461,0.0045718467,0.03759697,0.005865467246621847,-0.004198092967271805,-0.6141448616981506,-0.7891603708267212,0.008097410202026367,136,-4.085619e-05,1.1530705e-05,4.2452155562872655e-05,-6.7982604e-05,3.059223e-05,7.454876853128977e-05,4.027565956115723,103.78141021728516
1779199376.5128527,7.1041905879974365,hold-xy,3000,4.577706569008926,0.00011116204,0.00021575324,0.0,0.0009485632,0.0045488123,0.037577372,0.005987366661429405,-0.004624321591109037,-0.6141055822372437,-0.7891876697540283,0.008249759674072266,137,-3.853906e-05,-1.1503696e-05,4.021932582382176e-05,-4.1064675e-05,-4.34315e-05,5.977125463128117e-05,4.027565956115723,103.77828216552734
1779199376.5996766,7.191014528274536,hold-xy,3000,4.577706569008926,5.581175e-05,0.00017918694,0.0,0.00095062144,0.004552887,0.037576735,0.005809500347822905,-0.004152669105678797,-0.6140561103820801,-0.7892300486564636,0.0010843276977539062,138,-3.6480837e-05,-7.42916e-06,3.722960965764836e-05,-2.2175733e-05,-1.739674e-05,2.818527460723508e-05,4.027565956115723,103.69529724121094
1779199376.6837504,7.275088310241699,hold-xy,2000,3.051804379339284,7.993978e-05,0.00011846557,0.0,0.0009556124,0.0045497436,0.037567817,0.005960199981927872,-0.004261087626218796,-0.6141387224197388,-0.7891640663146973,0.01218724250793457,139,-3.148988e-05,-1.0572374e-05,3.321727868906699e-05,4.9959617e-06,-2.5100191e-05,2.5592562152180686e-05,4.022287368774414,103.70938110351562
1779199376.7897718,7.381109714508057,hold-xy,2000,3.051804379339284,3.0475287e-05,7.29316e-05,0.0,0.00096130185,0.0045542885,0.03756642,0.005877732764929533,-0.003962119109928608,-0.6141443252563477,-0.7891619205474854,0.01589822769165039,140,-2.580043e-05,-6.0275197e-06,2.6495152958457643e-05,2.0180078e-05,-4.243472e-06,2.062141098809591e-05,4.027565956115723,103.7681884765625
1779199376.8710296,7.462367534637451,hold-xy,2000,3.051804379339284,1.2691005e-05,0.00012277505,0.0,0.0009570224,0.004555955,0.03757439,0.006010604090988636,-0.004479933064430952,-0.6141146421432495,-0.7891812324523926,0.015711069107055664,141,-3.0079857e-05,-4.360918e-06,3.039433192317964e-05,-1.6370805e-06,3.1684447e-06,3.5663810870215934e-06,4.022287368774414,103.78717041015625
1779199376.9625618,7.553899765014648,hold-xy,2000,3.051804379339284,-3.8542934e-05,0.00021268391,0.0,0.00094621815,0.0045622317,0.037568737,0.006068389397114515,-0.004890755750238895,-0.6141394376754761,-0.7891590595245361,0.004732608795166016,142,-4.088413e-05,1.9157305e-06,4.092898855510428e-05,-3.2764925e-05,2.0586675e-05,3.869562591612531e-05,4.027565956115723,103.7122573852539
1779199377.046116,7.637454032897949,hold-xy,2000,3.051804379339284,9.145647e-06,0.00014649799,0.0,0.0009517977,0.004558064,0.037563913,0.006038114428520203,-0.00437522679567337,-0.6141349077224731,-0.7891658544540405,0.002074718475341797,143,-3.5304576e-05,-2.251938e-06,3.5376324859813876e-05,-3.5197845e-06,-9.1929905e-08,3.520984809313179e-06,4.022287368774414,103.69416046142578
1779199377.1478539,7.739191770553589,hold-xy,2000,3.051804379339284,4.5347304e-05,8.189396e-06,0.0,0.00096715987,0.004553992,0.03755035,0.005975416395813227,-0.004151482600718737,-0.6141037940979004,-0.7891917824745178,0.011977434158325195,144,-1.994241e-05,-6.324146e-06,2.0921150715790625e-05,4.7720165e-05,-1.3367146e-05,4.955698559074042e-05,4.022287368774414,103.7130355834961
1779199377.2311003,7.8224382400512695,hold-xy,2000,3.051804379339284,-7.456315e-05,-4.3692635e-06,0.0,0.0009707883,0.004566135,0.03756732,0.006024820264428854,-0.004502226132899523,-0.6141697764396667,-0.7891380786895752,0.01157236099243164,145,-1.6313978e-05,5.8189034e-06,1.7320666634702823e-05,4.6416782e-05,3.419169e-05,5.765058025459969e-05,4.022287368774414,103.7130355834961
1779199377.3190804,7.910418272018433,hold-xy,2000,3.051804379339284,3.3816686e-05,3.360416e-05,0.0,0.0009688698,0.004555693,0.03754703,0.006022306624799967,-0.00435291975736618,-0.6142309904098511,-0.7890912890434265,0.007822990417480469,146,-1.8232502e-05,-4.6230853e-06,1.8809493539553348e-05,2.6217233e-05,-1.021623e-05,2.8137424158813346e-05,4.027565956115723,103.71883392333984
1779199377.403336,7.99467396736145,hold-xy,2000,3.051804379339284,-8.365931e-05,0.00010923775,0.0,0.00096263643,0.004566715,0.03757662,0.005898189730942249,-0.004329640883952379,-0.614169716835022,-0.7891401052474976,0.01997518539428711,147,-2.4465844e-05,6.3991174e-06,2.5288855445965274e-05,-7.5829157e-06,3.870856e-05,3.944430534352708e-05,4.022287368774414,103.76160430908203
1779199377.469673,8.061010837554932,hold-xy,2000,3.051804379339284,-0.00013763242,0.00026227522,0.0,0.0009466754,0.0045739985,0.037558924,0.006133712362498045,-0.004536729771643877,-0.6140549182891846,-0.7892264127731323,0.008752584457397461,148,-4.042685e-05,1.3682526e-05,4.2679523137649596e-05,-6.7045214e-05,5.5268214e-05,8.688864408849826e-05,4.027565956115723,103.7101058959961
1779199377.552572,8.143909931182861,hold-xy,2000,3.051804379339284,-5.0518283e-05,0.00010880516,0.0,0.00095983036,0.0045673577,0.037548773,0.006020348519086838,-0.003908307757228613,-0.6141208410263062,-0.7891793847084045,0.00789785385131836,149,-2.7271919e-05,7.04173e-06,2.8166354077223976e-05,1.8834544e-07,1.490091e-05,1.4902100403065323e-05,4.027565956115723,103.69048309326172
1779199377.6342974,8.225635290145874,hold-xy,2000,3.051804379339284,-9.862419e-05,1.7030303e-05,0.0,0.00096949656,0.0045731254,0.037557688,0.00609156209975481,-0.005024643614888191,-0.6140977740287781,-0.7891904711723328,0.007852315902709961,150,-1.7605722e-05,1.2809411e-05,2.1772516435702536e-05,3.5595058e-05,3.159103e-05,4.7592029770014695e-05,4.027565956115723,103.69048309326172
1779199377.7459545,8.337292432785034,hold-xy,2000,3.051804379339284,0.00010180849,4.136807e-05,0.0,0.0009684758,0.0045502796,0.037561025,0.006076993886381388,-0.004589314106851816,-0.6141524910926819,-0.789150595664978,0.011102437973022461,151,-1.8626451e-05,-1.0036398e-05,2.1158307617073232e-05,2.2091826e-05,-4.1108597e-05,4.666867885058544e-05,4.027565956115723,103.64986419677734
1779199377.8276331,8.418971061706543,hold-xy,2000,3.051804379339284,0.0001228259,0.00015817683,0.0,0.000957259,0.004546132,0.037560534,0.005986115429550409,-0.004321365617215633,-0.614112138748169,-0.7891842722892761,0.011368513107299805,152,-2.98433e-05,-1.4184043e-05,3.304254292113185e-05,-2.5869087e-05,-4.4059823e-05,5.109283327290587e-05,4.027565956115723,103.64986419677734
1779199377.917516,8.508853912353516,hold-xy,2000,3.051804379339284,-4.5866203e-05,0.00015480508,0.0,0.00095636304,0.0045622606,0.037565306,0.0061979740858078,-0.005186627618968487,-0.614061176776886,-0.7892170548439026,0.015207052230834961,153,-3.0739233e-05,1.9446015e-06,3.08006821649865e-05,-2.1232097e-05,2.5391866e-05,3.309907495413544e-05,4.022287368774414,103.6663818359375
1779199378.021845,8.61318302154541,hold-xy,2000,3.051804379339284,-7.30556e-06,0.0001235154,0.0,0.00095898565,0.0045589865,0.037571695,0.00598110631108284,-0.004543780814856291,-0.6141766905784607,-0.789132833480835,0.014583587646484375,154,-2.8116629e-05,-1.329463e-06,2.8148042051750752e-05,-7.365926e-06,8.415608e-06,1.1183887328547969e-05,4.027565956115723,103.73213958740234
1779199378.1029322,8.694270133972168,hold-xy,2000,3.051804379339284,1.2776207e-05,0.00014131994,0.0,0.0009567719,0.0045572785,0.037580997,0.006089652888476849,-0.005187422502785921,-0.6141068935394287,-0.7891823053359985,0.014443159103393555,155,-3.0330382e-05,-3.0375086e-06,3.0482101763098277e-05,-1.3332268e-05,-4.1744852e-07,1.3338801826222975e-05,4.027565956115723,103.7078628540039
1779199378.2049093,8.796247243881226,hold-xy,2000,3.051804379339284,-5.7490703e-05,7.242432e-05,0.0,0.00096423365,0.0045655924,0.03755969,0.00599267752841115,-0.00441669300198555,-0.614116370677948,-0.7891803979873657,0.014820098876953125,156,-2.2868626e-05,5.276408e-06,2.346943886481354e-05,1.2700121e-05,2.4256713e-05,2.7380306901176363e-05,4.022287368774414,103.65522003173828
1779199378.2875655,8.87890338897705,hold-xy,2000,3.051804379339284,-2.3882198e-05,-9.176161e-05,0.0,0.0009821188,0.0045632035,0.03754469,0.006260794121772051,-0.004996387753635645,-0.6141564249992371,-0.7891436219215393,0.015651702880859375,157,-4.983507e-06,2.8875656e-06,5.759633429275328e-06,7.446376e-05,8.22129e-06,7.491622477395406e-05,4.022287368774414,103.66446685791016
1779199378.3716261,8.962964057922363,hold-xy,2000,3.051804379339284,-3.148715e-05,6.935597e-05,0.0,0.0009675687,0.0045644925,0.037545007,0.0060650501400232315,-0.004322146996855736,-0.614118754863739,-0.7891786098480225,0.005379438400268555,158,-1.953356e-05,4.176516e-06,1.9975065634662237e-05,5.8521764e-06,9.854056e-06,1.1460819730668815e-05,4.027565956115723,103.69556427001953
1779199378.473488,9.064826011657715,hold-xy,2000,3.051804379339284,-1.6183785e-05,7.507481e-05,0.0,0.00096720085,0.0045631966,0.037568834,0.006261871196329594,-0.00507014524191618,-0.6140618324279785,-0.7892167568206787,0.00466609001159668,159,-1.9901432e-05,2.8805807e-06,2.0108823036049616e-05,3.0206138e-06,3.1076418e-06,4.3337680790588136e-06,4.022287368774414,103.69181060791016
1779199378.561169,9.152506828308105,hold-xy,2000,3.051804379339284,-2.8266615e-05,0.00020338621,0.0,0.0009546112,0.0045645335,0.037555333,0.006082234438508749,-0.0047918749041855335,-0.6141030788421631,-0.7891878485679626,0.01838088035583496,160,-3.249105e-05,4.2174943e-06,3.2763631463469375e-05,-4.8948008e-05,7.5977587e-06,4.953416292357924e-05,4.022287368774414,103.65674591064453
1779199378.6257114,9.217049360275269,hold-xy,2000,3.051804379339284,-5.7924823e-05,0.0002807696,0.0,0.0009447504,0.0045678145,0.037560016,0.006148157641291618,-0.004970224108546972,-0.6141344904899597,-0.789161741733551,0.008925914764404297,161,-4.2351894e-05,7.4985437e-06,4.301059303454338e-05,-7.4241354e-05,1.8620432e-05,7.654083236573842e-05,4.022287368774414,103.65674591064453
1779199378.7066908,9.298028707504272,hold-xy,2000,3.051804379339284,2.9253782e-05,0.00012711957,0.0,0.00095640216,0.0045601786,0.03757812,0.006105666980147362,-0.004857609048485756,-0.6141585111618042,-0.7891440987586975,0.01869797706604004,162,-3.0700117e-05,-1.3737008e-07,3.0700424511631015e-05,-2.879402e-06,-1.9136201e-05,1.9351619185483398e-05,4.022287368774414,103.67359924316406
1779199378.810044,9.401381969451904,hold-xy,2000,3.051804379339284,-3.1108812e-07,0.00011031686,0.0,0.000958249,0.004562674,0.037566174,0.0060264961794018745,-0.004697343800216913,-0.6141034364700317,-0.7891885638237,0.019699811935424805,163,-2.8853305e-05,2.3581088e-06,2.8949504875803782e-05,3.39757e-06,-6.080898e-06,6.965687472145601e-06,4.022287368774414,103.73660278320312
1779199378.8914518,9.482789754867554,hold-xy,2000,3.051804379339284,-7.6707045e-05,6.8195666e-05,0.0,0.00096319616,0.0045710225,0.03755827,0.006168189458549023,-0.004851768258959055,-0.6140839457511902,-0.7892016768455505,0.0078089237213134766,164,-2.390612e-05,1.0706484e-05,2.6194108467899722e-05,1.8285875e-05,2.2587406e-05,2.906138669017956e-05,4.022287368774414,103.71337890625
1779199378.993958,9.585295915603638,hold-xy,2000,3.051804379339284,3.5043282e-05,4.035308e-05,0.0,0.00096725114,0.0045596026,0.037589442,0.005959942005574703,-0.004195928107947111,-0.6141251921653748,-0.7891749739646912,0.01839470863342285,165,-1.985114e-05,-7.133931e-07,1.9863954909412098e-05,2.6034322e-05,-2.1459808e-05,3.373883851968705e-05,4.022287368774414,103.72029113769531
1779199379.0762475,9.667585372924805,hold-xy,2000,3.051804379339284,-6.061786e-05,-2.930587e-05,0.0,0.00097601674,0.004568867,0.037563026,0.005962884519249201,-0.004577943589538336,-0.6140649318695068,-0.7892196774482727,0.015511274337768555,166,-1.1085533e-05,8.550938e-06,1.4000270400417104e-05,4.9098668e-05,1.7609404e-05,5.216100340046852e-05,4.022287368774414,103.73764038085938
1779199379.1741807,9.76551866531372,hold-xy,2000,3.051804379339284,6.002356e-07,6.2138875e-05,0.0,0.00096732005,0.0045621837,0.037551373,0.005972970277070999,-0.0042083049193024635,-0.6140777468681335,-0.7892117500305176,0.0002181529998779297,167,-1.9782223e-05,1.8677674e-06,1.9870201181676845e-05,1.1326676e-05,-5.38087e-06,1.2539830148331019e-05,4.022287368774414,103.7702407836914
1779199379.257099,9.848436832427979,hold-xy,2000,3.051804379339284,1.4902276e-05,0.00024040605,0.0,0.00095058326,0.0045605674,0.037551418,0.006027625873684883,-0.004703732673078775,-0.6140471696853638,-0.7892323136329651,0.01223301887512207,168,-3.651902e-05,2.514571e-07,3.651988703049759e-05,-6.288664e-05,-1.0605403e-05,6.377463372688929e-05,4.022287368774414,103.75831604003906
1779199379.3414257,9.932763576507568,hold-xy,2000,3.051804379339284,-3.7509995e-05,0.00017591345,0.0,0.0009546811,0.004565961,0.037544556,0.005950849503278732,-0.0041974070481956005,-0.6141277551651001,-0.7891730666160583,0.0034384727478027344,169,-3.24212e-05,5.645212e-06,3.290900617657269e-05,-3.081909e-05,9.952766e-06,3.238632236980929e-05,4.022287368774414,103.72966766357422
1779199379.4514732,10.042811155319214,hold-xy,2000,3.051804379339284,4.1904175e-05,5.6543868e-05,0.0,0.000967009,0.004557205,0.037546344,0.0061891027726233006,-0.005072709638625383,-0.6141107678413391,-0.7891793847084045,0.014756202697753906,170,-2.0093285e-05,-3.111083e-06,2.033270611532832e-05,1.588618e-05,-1.9639896e-05,2.5260566947541186e-05,4.022287368774414,103.74919128417969
1779199379.533075,10.124413013458252,hold-xy,2000,3.051804379339284,4.3299144e-05,0.00012024993,0.0,0.00096062105,0.004556049,0.037560515,0.006025243084877729,-0.004542972426861525,-0.6140775680541992,-0.7892096638679504,0.003646373748779297,171,-2.6481226e-05,-4.2668544e-06,2.6822777249224568e-05,-9.550018e-06,-1.7487817e-05,1.9925525796837737e-05,4.022287368774414,103.74919128417969
1779199379.6348279,10.226165771484375,hold-xy,2000,3.051804379339284,3.521381e-05,5.084709e-05,0.0,0.0009683473,0.0045560747,0.037551533,0.006008017808198929,-0.0042185368947684765,-0.6141088008880615,-0.7891872525215149,0.003738880157470703,172,-1.8754974e-05,-4.241243e-06,1.9228551305619913e-05,1.6115202e-05,-1.2165892e-05,2.0191797155741336e-05,4.022287368774414,103.74781036376953
