wall_time_s,elapsed_s,phase_index,phase_name,phase_elapsed_s,roll_norm,pitch_norm,yaw_norm,thrust_norm,roll_deg,pitch_deg,yawrate_deg_s,thrust_raw,thrust_axis_seen,button_5,button_9,event_count,last_event_age_s,mocap_x,mocap_y,mocap_z,height_above_floor,mocap_qx,mocap_qy,mocap_qz,mocap_qw,mocap_age_s,mocap_frame_count,mocap_vx_m_s,mocap_vy_m_s,mocap_vz_m_s,horizontal_distance_from_start_m
1779124543.2041688,0.2811849117279053,-1,preflight_wait,0.0014178752899169922,0.0,0.0,0.0,0.0,0.0,0.0,0.0,0,0,0,0,1,0.28075718879699707,0.0004694108,0.00047626405,0.036771245,-0.00022875518,0.002682724501937628,-0.01992863602936268,0.6388626098632812,0.7690580487251282,0.014809608459472656,3,,,,0.0
1779124543.2242434,0.30125951766967773,-1,preflight_wait,0.02148723602294922,0.0,0.0,0.0,0.0,0.0,0.0,0.0,0,0,0,0,1,0.3008384704589844,0.0005510454,0.0004537811,0.03678508,-0.00021491945,0.0022376745473593473,-0.018571119755506516,0.639044463634491,0.7689423561096191,0.00449681282043457,4,0.0026856828,-0.0007396623,0.0004551792,8.4674044e-05
1779124543.244238,0.32125401496887207,-1,preflight_wait,0.0414581298828125,0.0,0.0,0.0,0.0,0.0,0.0,0.0,0,0,0,0,1,0.32082438468933105,0.0005510454,0.0004537811,0.03678508,-0.00021491945,0.0022376745473593473,-0.018571119755506516,0.639044463634491,0.7689423561096191,0.02448129653930664,4,0.0026856828,-0.0007396623,0.0004551792,8.4674044e-05
1779124543.2642384,0.34125447273254395,-1,preflight_wait,0.06146526336669922,0.0,0.0,0.0,0.0,0.0,0.0,0.0,0,0,0,0,1,0.3408243656158447,0.00050530117,0.0004918502,0.036813065,-0.00018693507,0.0024578608572483063,-0.018375420942902565,0.639116644859314,0.7688863277435303,0.013243913650512695,5,-0.0014644413,0.0012187316,0.00089588296,3.9128598e-05
1779124543.2842464,0.36126255989074707,-1,preflight_wait,0.08148026466369629,0.0,0.0,0.0,0.0,0.0,0.0,0.0,0,0,0,0,1,0.3608367443084717,0.0005385028,0.0004647614,0.03680783,-0.0001921691,0.0020850927103310823,-0.01783568784594536,0.6390867829322815,0.7689249515533447,0.0028705596923828125,6,0.0010926295,-0.0008914623,-0.00017224622,7.004298e-05
1779124543.3042455,0.38126158714294434,-1,preflight_wait,0.10146903991699219,0.0,0.0,0.0,0.0,0.0,0.0,0.0,0,0,0,0,1,0.38083338737487793,0.0005385028,0.0004647614,0.03680783,-0.0001921691,0.0020850927103310823,-0.01783568784594536,0.6390867829322815,0.7689249515533447,0.02286696434020996,6,0.0010926295,-0.0008914623,-0.00017224622,7.004298e-05
1779124543.3242486,0.40126466751098633,-1,preflight_wait,0.12148499488830566,0.0,0.0,0.0,0.0,0.0,0.0,0.0,0,0,0,0,1,0.40083956718444824,0.00048082508,0.0004809472,0.036803402,-0.00019659847,0.0027016201056540012,-0.019700245931744576,0.639040470123291,0.7689160704612732,0.012482404708862305,7,-0.0018978424,0.00053258165,-0.00014574507,1.2337664e-05
1779124543.3442483,0.4212644100189209,-1,preflight_wait,0.14148736000061035,0.0,0.0,0.0,0.0,0.0,0.0,0.0,0,0,0,0,1,0.4208388328552246,0.00047057588,0.00046720542,0.03676541,-0.00023458898,0.0026765037328004837,-0.019936975091695786,0.6389146447181702,0.7690145969390869,0.0021059513092041016,8,-0.00033741439,-0.0004523936,-0.0012506868,9.133242e-06
1779124543.364245,0.44126105308532715,-1,preflight_wait,0.1614668369293213,0.0,0.0,0.0,0.0,0.0,0.0,0.0,0,0,0,0,1,0.44083428382873535,0.00047057588,0.00046720542,0.03676541,-0.00023458898,0.0026765037328004837,-0.019936975091695786,0.6389146447181702,0.7690145969390869,0.02210068702697754,8,-0.00033741439,-0.0004523936,-0.0012506868,9.133242e-06
1779124543.3842428,0.4612588882446289,-1,preflight_wait,0.1814718246459961,0.0,0.0,0.0,0.0,0.0,0.0,0.0,0,0,0,0,1,0.4608290195465088,0.0005430691,0.00046835165,0.036808744,-0.0001912564,0.0022362915333360434,-0.01817634142935276,0.6390804052352905,0.7689219117164612,0.011716365814208984,9,0.0023862892,3.7730773e-05,0.0014263964,7.4082054e-05
1779124543.404254,0.48127007484436035,-1,preflight_wait,0.20148944854736328,0.0,0.0,0.0,0.0,0.0,0.0,0.0,0,0,0,0,1,0.48084425926208496,0.00053223595,0.00045404746,0.036779314,-0.0002206862,0.002240939764305949,-0.018005017191171646,0.6390567421913147,0.7689455151557922,0.0013651847839355469,10,-0.00035673348,-0.00047103417,-0.0009691178,6.663766e-05
1779124543.4242425,0.5012586116790771,-1,preflight_wait,0.22147607803344727,0.0,0.0,0.0,0.0,0.0,0.0,0.0,0,0,0,0,1,0.5008304119110107,0.00053223595,0.00045404746,0.036779314,-0.0002206862,0.002240939764305949,-0.018005017191171646,0.6390567421913147,0.7689455151557922,0.021362781524658203,10,-0.00035673348,-0.00047103417,-0.0009691178,6.663766e-05
1779124543.4442394,0.5212554931640625,-1,preflight_wait,0.24146819114685059,0.0,0.0,0.0,0.0,0.0,0.0,0.0,0,0,0,0,1,0.5208265781402588,0.00046865828,0.00047677336,0.036759082,-0.00024091825,0.0028518028557300568,-0.020589102059602737,0.6388904452323914,0.7690168619155884,0.010950088500976562,11,-0.002091647,0.0007476613,-0.00066561595,9.086655e-07
1779124543.464238,0.5412540435791016,-1,preflight_wait,0.2614624500274658,0.0,0.0,0.0,0.0,0.0,0.0,0.0,0,0,0,0,1,0.540823221206665,0.000548447,0.00045472826,0.03679591,-0.00020409003,0.0020521043334156275,-0.01798153482377529,0.6390255093574524,0.7689725756645203,0.0005779266357421875,12,0.002627408,-0.00072593556,0.001212737,8.191773e-05
1779124543.4842467,0.561262845993042,-1,preflight_wait,0.2814822196960449,0.0,0.0,0.0,0.0,0.0,0.0,0.0,0,0,0,0,1,0.5608417987823486,0.000548447,0.00045472826,0.03679591,-0.00020409003,0.0020521043334156275,-0.01798153482377529,0.6390255093574524,0.7689725756645203,0.020600318908691406,12,0.002627408,-0.00072593556,0.001212737,8.191773e-05
1779124543.5043502,0.5813663005828857,-1,preflight_wait,0.30158233642578125,0.0,0.0,0.0,0.0,0.0,0.0,0.0,0,0,0,0,1,0.5809388160705566,0.0005248855,0.00045622163,0.03679357,-0.00020642951,0.002276952378451824,-0.01872437074780464,0.638991117477417,0.7689827680587769,0.010316610336303711,13,-0.00077562727,4.9160768e-05,-7.701394e-05,5.8984235e-05
1779124543.5242455,0.6012616157531738,-1,preflight_wait,0.3214716911315918,0.0,0.0,0.0,0.0,0.0,0.0,0.0,0,0,0,0,1,0.6008355617523193,0.0005248855,0.00045622163,0.03679357,-0.00020642951,0.002276952378451824,-0.01872437074780464,0.638991117477417,0.7689827680587769,0.030214786529541016,13,-0.00077562727,4.9160768e-05,-7.701394e-05,5.8984235e-05
1779124543.5442462,0.6212623119354248,-1,preflight_wait,0.3414785861968994,0.0,0.0,0.0,0.0,0.0,0.0,0.0,0,0,0,0,1,0.6208348274230957,0.00054139784,0.00045320182,0.036803078,-0.00019692257,0.0022161731030792,-0.018597211688756943,0.6390326619148254,0.7689515948295593,0.019845247268676758,14,0.00054373586,-9.943957e-05,0.00031305448,7.559101e-05
1779124543.5642483,0.6412644386291504,-1,preflight_wait,0.36148524284362793,0.0,0.0,0.0,0.0,0.0,0.0,0.0,0,0,0,0,1,0.640838623046875,0.00047740154,0.0004905539,0.036800586,-0.00019941479,0.0023135733790695667,-0.01834711991250515,0.6391562223434448,0.7688546180725098,0.009446859359741211,15,-0.0021049075,0.0012285507,-8.197179e-05,1.6372302e-05
1779124543.584245,0.6612610816955566,-1,preflight_wait,0.3814661502838135,0.0,0.0,0.0,0.0,0.0,0.0,0.0,0,0,0,0,1,0.6608326435089111,0.00047740154,0.0004905539,0.036800586,-0.00019941479,0.0023135733790695667,-0.01834711991250515,0.6391562223434448,0.7688546180725098,0.02944016456604004,15,-0.0021049075,0.0012285507,-8.197179e-05,1.6372302e-05
1779124543.6042492,0.6812653541564941,-1,preflight_wait,0.4014866352081299,0.0,0.0,0.0,0.0,0.0,0.0,0.0,0,0,0,0,1,0.6808414459228516,0.00055654766,0.0004535024,0.03679876,-0.00020124018,0.00207321485504508,-0.017588574439287186,0.6390230655670166,0.7689836621284485,0.01908421516418457,16,0.0026064925,-0.0012202048,-6.0115028e-05,9.006068e-05
1779124543.6242418,0.7012579441070557,-1,preflight_wait,0.42147302627563477,0.0,0.0,0.0,0.0,0.0,0.0,0.0,0,0,0,0,1,0.7008278369903564,0.0004937337,0.0004918288,0.036814947,-0.0001850538,0.00256980094127357,-0.018867462873458862,0.6390769481658936,0.7689070701599121,0.008550167083740234,17,-0.002058144,0.0012557901,0.00053035823,2.8876695e-05
1779124543.6442442,0.7212603092193604,-1,preflight_wait,0.4414646625518799,0.0,0.0,0.0,0.0,0.0,0.0,0.0,0,0,0,0,1,0.7208325862884521,0.0004937337,0.0004918288,0.036814947,-0.0001850538,0.00256980094127357,-0.018867462873458862,0.6390769481658936,0.7689070701599121,0.028554439544677734,17,-0.002058144,0.0012557901,0.00053035823,2.8876695e-05
1779124543.664242,0.7412581443786621,-1,preflight_wait,0.4614684581756592,0.0,0.0,0.0,0.0,0.0,0.0,0.0,0,0,0,0,1,0.7408268451690674,0.0005287365,0.0004654883,0.036788218,-0.00021178275,0.002320873085409403,-0.018451325595378876,0.6389882564544678,0.7689916491508484,0.0070307254791259766,19,0.00084307167,-0.00063443196,-0.0006437888,6.029641e-05
1779124543.6842399,0.7612559795379639,-1,preflight_wait,0.48146677017211914,0.0,0.0,0.0,0.0,0.0,0.0,0.0,0,0,0,0,1,0.7608256340026855,0.00047269464,0.0004824017,0.03674833,-0.00025166944,0.0025939433835446835,-0.020107919350266457,0.6388872861862183,0.7690331935882568,0.0067596435546875,20,-0.0027649167,0.0008344501,-0.0019678744,6.9609164e-06
1779124543.704249,0.7812650203704834,-1,preflight_wait,0.501471996307373,0.0,0.0,0.0,0.0,0.0,0.0,0.0,0,0,0,0,1,0.7808351516723633,0.00047269464,0.0004824017,0.03674833,-0.00025166944,0.0025939433835446835,-0.020107919350266457,0.6388872861862183,0.7690331935882568,0.026769638061523438,20,-0.0027649167,0.0008344501,-0.0019678744,6.9609164e-06
1779124543.724251,0.801267147064209,-1,preflight_wait,0.521500825881958,0.0,0.0,0.0,0.0,0.0,0.0,0.0,0,0,0,0,1,0.8008465766906738,0.00055446336,0.00045342604,0.03677426,-0.00022574142,0.0022408408112823963,-0.0180404894053936,0.6390569806098938,0.768944501876831,0.006249427795410156,22,0.0020172626,-0.00071483944,0.0006396532,8.80654e-05
1779124543.74424,0.821256160736084,-1,preflight_wait,0.5414681434631348,0.0,0.0,0.0,0.0,0.0,0.0,0.0,0,0,0,0,1,0.8208258152008057,0.0004725079,0.00046451087,0.03674375,-0.00025625154,0.002839792286977172,-0.020666593685746193,0.6388876438140869,0.769017219543457,0.016041040420532227,23,-0.0080472445,0.001088425,-0.0029958037,1.2154391e-05
1779124543.7642412,0.8412573337554932,-1,preflight_wait,0.5614771842956543,0.0,0.0,0.0,0.0,0.0,0.0,0.0,0,0,0,0,1,0.8408288955688477,0.0004962473,0.0004948992,0.03680592,-0.00019408017,0.0025406719651073217,-0.01873921975493431,0.6390555500984192,0.7689281702041626,0.01579570770263672,24,0.0011723395,0.0015006888,0.0030702509,3.2672146e-05
1779124543.7847278,0.8617439270019531,-1,preflight_wait,0.5819592475891113,0.0,0.0,0.0,0.0,0.0,0.0,0.0,0,0,0,0,1,0.8613145351409912,0.0005395836,0.00046525546,0.03678369,-0.00021630898,0.0021193944849073887,-0.0182239580899477,0.639013946056366,0.7689763307571411,0.005707263946533203,26,0.0014174416,-0.0009695868,-0.00072705874,7.1031085e-05
1779124543.8042533,0.8812694549560547,-1,preflight_wait,0.6014783382415771,0.0,0.0,0.0,0.0,0.0,0.0,0.0,0,0,0,0,1,0.8808422088623047,0.0005395836,0.00046525546,0.03678369,-0.00021630898,0.0021193944849073887,-0.0182239580899477,0.639013946056366,0.7689763307571411,0.025235414505004883,26,0.0014174416,-0.0009695868,-0.00072705874,7.1031085e-05
1779124543.8242416,0.9012577533721924,-1,preflight_wait,0.6214704513549805,0.0,0.0,0.0,0.0,0.0,0.0,0.0,0,0,0,0,1,0.9008288383483887,0.0004585879,0.0004671116,0.036746845,-0.00025315583,0.0025689592584967613,-0.02011585794389248,0.6389613151550293,0.7689716219902039,0.004352569580078125,28,-0.0019818263,4.541621e-05,-0.00090157904,1.4174012e-05
1779124543.8442552,0.9212713241577148,-1,preflight_wait,0.6414923667907715,0.0,0.0,0.0,0.0,0.0,0.0,0.0,0,0,0,0,1,0.9208447933197021,0.000456742,0.00048152567,0.03675794,-0.00024206191,0.0026591545902192593,-0.020119627937674522,0.638907253742218,0.7690160274505615,0.003925323486328125,30,-9.029211e-05,0.00070507114,0.0005426638,1.37179695e-05
1779124543.8642418,0.9412579536437988,-1,preflight_wait,0.6614742279052734,0.0,0.0,0.0,0.0,0.0,0.0,0.0,0,0,0,0,1,0.9408295154571533,0.00044569373,0.0004996946,0.03680872,-0.00019127876,0.0029246436897665262,-0.02078738808631897,0.6389068961143494,0.7689975500106812,0.0033371448516845703,31,-0.0005370369,0.00088315934,0.0024684777,3.333902e-05
1779124543.884244,0.9612600803375244,-1,preflight_wait,0.6814775466918945,0.0,0.0,0.0,0.0,0.0,0.0,0.0,0,0,0,0,1,0.9608337879180908,0.0005417387,0.00045881886,0.036793463,-0.00020653754,0.0021855367813259363,-0.018356505781412125,0.639000654220581,0.7689840197563171,0.013176202774047852,32,0.009448618,-0.004021234,-0.0015011141,7.440202e-05
1779124543.9042587,0.9812748432159424,-1,preflight_wait,0.7014966011047363,0.0,0.0,0.0,0.0,0.0,0.0,0.0,0,0,0,0,1,0.9808483123779297,0.0005455082,0.00044165645,0.03679114,-0.00020886213,0.0021748391445726156,-0.018408382311463356,0.6389989852905273,0.7689841985702515,0.01293635368347168,33,0.00018609839,-0.00084729365,-0.00011476259,8.359728e-05
1779124543.9242408,1.0012569427490234,-1,preflight_wait,0.7214758396148682,0.0,0.0,0.0,0.0,0.0,0.0,0.0,0,0,0,0,1,1.0008304119110107,0.0005273726,0.00045865495,0.03679509,-0.0002049096,0.0021309645380824804,-0.018157605081796646,0.639031171798706,0.7689635753631592,0.002228260040283203,35,-0.0005909264,0.000553874,0.00012878815,6.0577633e-05
1779124543.9442432,1.0212593078613281,-1,preflight_wait,0.7414848804473877,0.0,0.0,0.0,0.0,0.0,0.0,0.0,0,0,0,0,1,1.0208334922790527,0.00047223084,0.0004642913,0.036757972,-0.00024202839,0.002472508465871215,-0.019659847021102905,0.6388401389122009,0.7690843343734741,0.0019183158874511719,36,-0.0027146323,0.00027747863,-0.001827361,1.2300366e-05
1779124543.9642453,1.0412614345550537,-1,preflight_wait,0.7614765167236328,0.0,0.0,0.0,0.0,0.0,0.0,0.0,0,0,0,0,1,1.0408334732055664,0.00053635193,0.0004658606,0.036780585,-0.00021941587,0.002062132814899087,-0.01802918128669262,0.639001190662384,0.7689917087554932,0.001613616943359375,38,0.0031579835,7.728745e-05,0.0011136732,6.7744724e-05
1779124543.9842415,1.0612576007843018,-1,preflight_wait,0.7814786434173584,0.0,0.0,0.0,0.0,0.0,0.0,0.0,0,0,0,0,1,1.06083083152771,0.00055676093,0.00047503295,0.036792997,-0.0002070032,0.002064329572021961,-0.018149925395846367,0.6390075087547302,0.7689835429191589,0.001264810562133789,39,0.0010031002,0.00045082063,0.0006100812,8.7358814e-05
1779124544.004255,1.0812711715698242,-1,preflight_wait,0.8014893531799316,0.0,0.0,0.0,0.0,0.0,0.0,0.0,0,0,0,0,1,1.0808436870574951,0.0005414593,0.00045792852,0.03679961,-0.00020039082,0.0020836982876062393,-0.017930079251527786,0.6390433311462402,0.7689589262008667,0.0009052753448486328,40,-0.0007510876,-0.00083957927,0.00032457226,7.434501e-05
1779124544.024237,1.1012530326843262,-1,preflight_wait,0.8214550018310547,0.0,0.0,0.0,0.0,0.0,0.0,0.0,0,0,0,0,1,1.1008200645446777,0.0004838952,0.00048320438,0.036756665,-0.00024333596,0.002645297907292843,-0.01994432881474495,0.6388630867004395,0.7690573334693909,0.01071786880493164,41,-0.005665112,0.0024874974,-0.0042264014,1.6061316e-05
1779124544.0442338,1.1212499141693115,-1,preflight_wait,0.8414573669433594,0.0,0.0,0.0,0.0,0.0,0.0,0.0,0,0,0,0,1,1.120818853378296,0.00049676094,0.00050214,0.03681082,-0.00018918142,0.0025887624360620975,-0.0192221999168396,0.6389966607093811,0.768964946269989,0.0002727508544921875,43,0.00042259204,0.00062196545,0.0017787747,3.7650992e-05
1779124544.0642376,1.1412537097930908,-1,preflight_wait,0.8614566326141357,0.0,0.0,0.0,0.0,0.0,0.0,0.0,0,0,0,0,1,1.1408240795135498,0.00049676094,0.00050214,0.03681082,-0.00018918142,0.0025887624360620975,-0.0192221999168396,0.6389966607093811,0.768964946269989,0.0202786922454834,43,0.00042259204,0.00062196545,0.0017787747,3.7650992e-05
1779124544.084242,1.1612582206726074,-1,preflight_wait,0.881467342376709,0.0,0.0,0.0,0.0,0.0,0.0,0.0,0,0,0,0,1,1.1608290672302246,0.00049676094,0.00050214,0.03681082,-0.00018918142,0.0025887624360620975,-0.0192221999168396,0.6389966607093811,0.768964946269989,0.04028487205505371,43,0.00042259204,0.00062196545,0.0017787747,3.7650992e-05
1779124544.104257,1.1812732219696045,-1,preflight_wait,0.9014875888824463,0.0,0.0,0.0,0.0,0.0,0.0,0.0,0,0,0,0,1,1.1808457374572754,0.00046657026,0.00048157386,0.036749404,-0.00025059655,0.002662349259480834,-0.020189978182315826,0.6388804912567139,0.7690364122390747,0.009073257446289062,45,-0.00058934995,-0.00040147043,-0.00119888,6.0218613e-06
1779124544.1242409,1.2012569904327393,-1,preflight_wait,0.9214677810668945,0.0,0.0,0.0,0.0,0.0,0.0,0.0,0,0,0,0,1,1.2008271217346191,0.0005416991,0.00045820512,0.036768883,-0.00023111701,0.002361804014071822,-0.01892087049782276,0.6389826536178589,0.7689847946166992,0.018907546997070312,46,0.0074038035,-0.0023029447,0.0019196712,7.450991e-05
1779124544.1442423,1.2212584018707275,-1,preflight_wait,0.9414632320404053,0.0,0.0,0.0,0.0,0.0,0.0,0.0,0,0,0,0,1,1.2208282947540283,0.00047570094,0.00047782855,0.036749154,-0.00025084615,0.0028570787981152534,-0.020651446655392647,0.6388949155807495,0.7690114974975586,0.008472204208374023,48,-0.0021685068,0.00064476853,-0.0006482417,6.4817973e-06
1779124544.1647186,1.2417347431182861,-1,preflight_wait,0.9619739055633545,0.0,0.0,0.0,0.0,0.0,0.0,0.0,0,0,0,0,1,1.241309404373169,0.00053569255,0.00047001382,0.03677458,-0.00022542104,0.002420111559331417,-0.019141508266329765,0.6390030384063721,0.7689621448516846,0.008617639541625977,49,0.0029495142,-0.00038421457,0.0012500366,6.65758e-05
1779124544.1847248,1.2617409229278564,-1,preflight_wait,0.9819509983062744,0.0,0.0,0.0,0.0,0.0,0.0,0.0,0,0,0,0,1,1.2613098621368408,0.00056273956,0.00044179568,0.036795404,-0.00020459667,0.002169935731217265,-0.01899125799536705,0.6389787197113037,0.7689868807792664,0.01803278923034668,50,0.002555779,-0.0026664445,0.0019677777,9.949033e-05
1779124544.2044334,1.281449556350708,-1,preflight_wait,1.0016703605651855,0.0,0.0,0.0,0.0,0.0,0.0,0.0,0,0,0,0,1,1.2810230255126953,0.00047922228,0.00047243712,0.036740344,-0.00025965646,0.002428123727440834,-0.019540313631296158,0.6388682723045349,0.7690640687942505,0.007281064987182617,52,-0.0027412346,0.0010057245,-0.0018071923,1.0531407e-05
1779124544.2242405,1.3012566566467285,-1,preflight_wait,1.0214779376983643,0.0,0.0,0.0,0.0,0.0,0.0,0.0,0,0,0,0,1,1.3008301258087158,0.00054135546,0.00045983912,0.03677486,-0.00022514164,0.002103634411469102,-0.018167739734053612,0.6389650106430054,0.7690183520317078,0.006763458251953125,53,0.0030570633,-0.000619844,0.0016981902,7.379575e-05
1779124544.2442403,1.321256399154663,-1,preflight_wait,1.041471242904663,0.0,0.0,0.0,0.0,0.0,0.0,0.0,0,0,0,0,1,1.3208286762237549,0.00054039666,0.00046741776,0.036784988,-0.00021501258,0.002109344583004713,-0.018289737403392792,0.6390141248703003,0.7689746022224426,0.0063703060150146484,55,-4.7021706e-05,0.00037167472,0.00049675384,7.153497e-05
1779124544.26424,1.3412561416625977,-1,preflight_wait,1.0614681243896484,0.0,0.0,0.0,0.0,0.0,0.0,0.0,0,0,0,0,1,1.340827226638794,0.00054868683,0.00046711625,0.03677924,-0.0002207607,0.002092409413307905,-0.018247563391923904,0.6389281153678894,0.7690471410751343,0.005783796310424805,56,0.00040273674,-1.4647646e-05,-0.00027924406,7.9802085e-05
1779124544.2842536,1.3612697124481201,-1,preflight_wait,1.0814812183380127,0.0,0.0,0.0,0.0,0.0,0.0,0.0,0,0,0,0,1,1.3608388900756836,0.00047554472,0.0004836187,0.036741976,-0.00025802478,0.0025933762080967426,-0.02019692026078701,0.6388609409332275,0.7690527439117432,0.005478858947753906,57,-0.003600158,0.00081227405,-0.0018341905,9.576845e-06
1779124544.3042443,1.3812603950500488,-1,preflight_wait,1.101496696472168,0.0,0.0,0.0,0.0,0.0,0.0,0.0,0,0,0,0,1,1.3808438777923584,0.00047510234,0.00047046912,0.03671886,-0.0002811402,0.002744450233876705,-0.020150011405348778,0.6388139724731445,0.7690924406051636,0.015114307403564453,58,-4.2653475e-05,-0.0012678633,-0.0022287562,8.122488e-06
1779124544.3242667,1.401282787322998,-1,preflight_wait,1.1216001510620117,0.0,0.0,0.0,0.0,0.0,0.0,0.0,0,0,0,0,1,1.4008781909942627,0.00048199296,0.00048118597,0.036757026,-0.00024297461,0.002538132481276989,-0.01925942488014698,0.6388764381408691,0.7690641283988953,0.014806509017944336,59,0.000338594,0.0005266083,0.0018753954,1.3510598e-05
1779124544.3442512,1.4212672710418701,-1,preflight_wait,1.141474962234497,0.0,0.0,0.0,0.0,0.0,0.0,0.0,0,0,0,0,1,1.4208366870880127,0.0004912815,0.0004644224,0.03676882,-0.00023118034,0.002729829866439104,-0.021447092294692993,0.6388417482376099,0.7690342664718628,0.00437617301940918,60,0.0003057621,-0.0005518265,0.00038824597,2.487072e-05
1779124544.3642392,1.4412553310394287,-1,preflight_wait,1.1614539623260498,0.0,0.0,0.0,0.0,0.0,0.0,0.0,0,0,0,0,1,1.4408235549926758,0.0004912815,0.0004644224,0.03676882,-0.00023118034,0.002729829866439104,-0.021447092294692993,0.6388417482376099,0.7690342664718628,0.024362802505493164,60,0.0003057621,-0.0005518265,0.00038824597,2.487072e-05
1779124544.3842442,1.4612603187561035,-1,preflight_wait,1.1814765930175781,0.0,0.0,0.0,0.0,0.0,0.0,0.0,0,0,0,0,1,1.460831880569458,0.00047787558,0.00047901645,0.0367306,-0.00026940182,0.0026498360093683004,-0.02004494145512581,0.6388393640518188,0.7690743803977966,0.013748645782470703,61,-0.00043776337,0.00047656128,-0.0012481023,8.9010355e-06
1779124544.4042594,1.4812755584716797,-1,preflight_wait,1.2015042304992676,0.0,0.0,0.0,0.0,0.0,0.0,0.0,0,0,0,0,1,1.4808590412139893,0.0005440195,0.0004579951,0.03680296,-0.00019704178,0.0021817227825522423,-0.01811661571264267,0.6390472650527954,0.7689509987831116,0.003389120101928711,62,0.002176672,-0.00069177296,0.0023812326,7.681286e-05
1779124544.4242442,1.5012602806091309,-1,preflight_wait,1.2214634418487549,0.0,0.0,0.0,0.0,0.0,0.0,0.0,0,0,0,0,1,1.5008301734924316,0.0005440195,0.0004579951,0.03680296,-0.00019704178,0.0021817227825522423,-0.01811661571264267,0.6390472650527954,0.7689509987831116,0.023358821868896484,62,0.002176672,-0.00069177296,0.0023812326,7.681286e-05
1779124544.4442403,1.521256446838379,-1,preflight_wait,1.2414829730987549,0.0,0.0,0.0,0.0,0.0,0.0,0.0,0,0,0,0,1,1.52083158493042,0.00054860394,0.0004682527,0.036780886,-0.00021911412,0.0022254486102610826,-0.01843065768480301,0.6390594840049744,0.7689332365989685,0.012968063354492188,63,0.00015083555,0.00033749166,-0.0007262169,7.959735e-05
1779124544.464283,1.5412991046905518,-1,preflight_wait,1.2615020275115967,0.0,0.0,0.0,0.0,0.0,0.0,0.0,0,0,0,0,1,1.5408670902252197,0.0004960359,0.0004884463,0.03673847,-0.00026153028,0.0025376109406352043,-0.019985053688287735,0.6388697624206543,0.7690511345863342,0.0025713443756103516,64,-0.0017275431,0.00066362333,-0.0013939219,2.9279767e-05
1779124544.484236,1.5612521171569824,-1,preflight_wait,1.2814526557922363,0.0,0.0,0.0,0.0,0.0,0.0,0.0,0,0,0,0,1,1.560821533203125,0.0004960359,0.0004884463,0.03673847,-0.00026153028,0.0025376109406352043,-0.019985053688287735,0.6388697624206543,0.7690511345863342,0.02252674102783203,64,-0.0017275431,0.00066362333,-0.0013939219,2.9279767e-05
1779124544.504315,1.5813310146331787,-1,preflight_wait,1.3015570640563965,0.0,0.0,0.0,0.0,0.0,0.0,0.0,0,0,0,0,1,1.5809035301208496,0.00048213312,0.00047644577,0.036760647,-0.00023935363,0.002665656851604581,-0.019932318478822708,0.6389206647872925,0.7690097093582153,0.0021255016326904297,65,-0.0003434066,-0.00029642053,0.0005477758,1.272363e-05
1779124544.5242407,1.6012568473815918,-1,preflight_wait,1.3214664459228516,0.0,0.0,0.0,0.0,0.0,0.0,0.0,0,0,0,0,1,1.6008286476135254,0.00054446375,0.0004686301,0.036778156,-0.00022184476,0.0020340001210570335,-0.01795171946287155,0.6389679312705994,0.769021213054657,0.0017101764678955078,66,0.003064513,-0.00038426035,0.00086083106,7.54402e-05
1779124544.5442393,1.6212553977966309,-1,preflight_wait,1.3414561748504639,0.0,0.0,0.0,0.0,0.0,0.0,0.0,0,0,0,0,1,1.6208248138427734,0.00054446375,0.0004686301,0.036778156,-0.00022184476,0.0020340001210570335,-0.01795171946287155,0.6389679312705994,0.769021213054657,0.021706104278564453,66,0.003064513,-0.00038426035,0.00086083106,7.54402e-05
1779124544.5642352,1.6412513256072998,-1,preflight_wait,1.3614606857299805,0.0,0.0,0.0,0.0,0.0,0.0,0.0,0,0,0,0,1,1.6408209800720215,0.00046821265,0.0004670301,0.03677274,-0.00022726133,0.0023637432605028152,-0.02009764313697815,0.6388323307037354,0.7690798044204712,0.010621070861816406,67,-0.0024533058,-5.147885e-05,-0.000174273,9.311355e-06
1779124544.5842495,1.6612656116485596,-1,preflight_wait,1.3814787864685059,0.0,0.0,0.0,0.0,0.0,0.0,0.0,0,0,0,0,1,1.6608352661132812,0.00046699354,0.0004854265,0.036738172,-0.0002618283,0.002855595899745822,-0.020294858142733574,0.6388620138168335,0.7690484523773193,0.0002524852752685547,68,-4.0124938e-05,0.0006054911,-0.0011377212,9.475964e-06
1779124544.6042385,1.6812546253204346,-1,preflight_wait,1.4014711380004883,0.0,0.0,0.0,0.0,0.0,0.0,0.0,0,0,0,0,1,1.6808252334594727,0.00046699354,0.0004854265,0.036738172,-0.0002618283,0.002855595899745822,-0.020294858142733574,0.6388620138168335,0.7690484523773193,0.020251750946044922,68,-4.0124938e-05,0.0006054911,-0.0011377212,9.475964e-06
1779124544.6242433,1.7012593746185303,-1,preflight_wait,1.4215021133422852,0.0,0.0,0.0,0.0,0.0,0.0,0.0,0,0,0,0,1,1.700833797454834,0.0005425331,0.00046811532,0.03677888,-0.00022112206,0.002050618641078472,-0.017967114225029945,0.6389805674552917,0.7690103650093079,0.009712934494018555,69,0.0024733872,-0.00056681916,0.0013328418,7.357497e-05
1779124544.6442401,1.7212562561035156,-1,preflight_wait,1.4414618015289307,0.0,0.0,0.0,0.0,0.0,0.0,0.0,0,0,0,0,1,1.7208278179168701,0.0005425331,0.00046811532,0.03677888,-0.00022112206,0.002050618641078472,-0.017967114225029945,0.6389805674552917,0.7690103650093079,0.029705286026000977,69,0.0024733872,-0.00056681916,0.0013328418,7.357497e-05
1779124544.6642437,1.7412598133087158,-1,preflight_wait,1.4614787101745605,0.0,0.0,0.0,0.0,0.0,0.0,0.0,0,0,0,0,1,1.740830421447754,0.00046519423,0.00047771283,0.036733285,-0.00026671588,0.002839631401002407,-0.020364778116345406,0.6388707160949707,0.7690392732620239,0.009093523025512695,70,-0.001904292,0.00023631663,-0.001122643,4.458519e-06
1779124544.6842363,1.7612524032592773,-1,preflight_wait,1.4814543724060059,0.0,0.0,0.0,0.0,0.0,0.0,0.0,0,0,0,0,1,1.7608230113983154,0.00046519423,0.00047771283,0.036733285,-0.00026671588,0.002839631401002407,-0.020364778116345406,0.6388707160949707,0.7690392732620239,0.02908611297607422,70,-0.001904292,0.00023631663,-0.001122643,4.458519e-06
1779124544.7042458,1.781261920928955,-1,preflight_wait,1.501483678817749,0.0,0.0,0.0,0.0,0.0,0.0,0.0,0,0,0,0,1,1.7808411121368408,0.00054785237,0.0004627807,0.036774423,-0.0002255775,0.0019835971761494875,-0.017752204090356827,0.6389500498771667,0.7690408229827881,0.018744468688964844,71,0.0027222382,-0.00049177016,0.001354839,7.959197e-05
1779124544.7242823,1.8012983798980713,-1,preflight_wait,1.5215156078338623,0.0,0.0,0.0,0.0,0.0,0.0,0.0,0,0,0,0,1,1.8008701801300049,0.00045784214,0.0004849676,0.036753155,-0.0002468452,0.0026722715701907873,-0.02027473971247673,0.638836681842804,0.769070565700531,0.008318662643432617,72,-0.0029558751,0.0007286027,-0.00069841626,1.4477077e-05
1779124544.7442455,1.8212616443634033,-1,preflight_wait,1.5414683818817139,0.0,0.0,0.0,0.0,0.0,0.0,0.0,0,0,0,0,1,1.8208324909210205,0.00045784214,0.0004849676,0.036753155,-0.0002468452,0.0026722715701907873,-0.02027473971247673,0.638836681842804,0.769070565700531,0.028280973434448242,72,-0.0029558751,0.0007286027,-0.00069841626,1.4477077e-05
1779124544.7642388,1.8412549495697021,-1,preflight_wait,1.5614714622497559,0.0,0.0,0.0,0.0,0.0,0.0,0.0,0,0,0,0,1,1.840827465057373,0.00054184627,0.0004844498,0.036795214,-0.00020478666,0.0020649642683565617,-0.018026433885097504,0.6390159130096436,0.7689794898033142,0.0178372859954834,73,0.0027597407,-1.7011498e-05,0.0013817253,7.289653e-05
1779124544.7842448,1.8612608909606934,-1,preflight_wait,1.5814707279205322,0.0,0.0,0.0,0.0,0.0,0.0,0.0,0,0,0,0,1,1.8608310222625732,0.00046720123,0.0004909318,0.03674815,-0.00025185198,0.0025378691498190165,-0.020032288506627083,0.6387970447540283,0.7691102623939514,0.007195472717285156,74,-0.0024358258,0.00021152156,-0.001535841,1.483324e-05
1779124544.8042414,1.8812575340270996,-1,preflight_wait,1.6014740467071533,0.0,0.0,0.0,0.0,0.0,0.0,0.0,0,0,0,0,1,1.880828619003296,0.00046720123,0.0004909318,0.03674815,-0.00025185198,0.0025378691498190165,-0.020032288506627083,0.6387970447540283,0.7691102623939514,0.02720355987548828,74,-0.0024358258,0.00021152156,-0.001535841,1.483324e-05
1779124544.8242393,1.9012553691864014,-1,preflight_wait,1.6214640140533447,0.0,0.0,0.0,0.0,0.0,0.0,0.0,0,0,0,0,1,1.9008235931396484,0.00048386306,0.0004830642,0.036742747,-0.00025725365,0.0026233631651848555,-0.02025982178747654,0.6388484835624695,0.7690613269805908,0.016818761825561523,75,0.0005486451,-0.0002590658,-0.00017786767,1.597217e-05
1779124544.8448975,1.9219136238098145,-1,preflight_wait,1.6421265602111816,0.0,0.0,0.0,0.0,0.0,0.0,0.0,0,0,0,0,1,1.9214842319488525,0.0005495162,0.00046014017,0.036803737,-0.0001962632,0.002006025519222021,-0.01779738999903202,0.6390795111656189,0.7689321041107178,0.007069826126098633,76,0.0021589452,-0.00075383694,0.0020056176,8.1712e-05
1779124544.8647168,1.9417328834533691,-1,preflight_wait,1.6619465351104736,0.0,0.0,0.0,0.0,0.0,0.0,0.0,0,0,0,0,1,1.9413046836853027,0.0005484014,0.00046915514,0.036770437,-0.00022956356,0.002018102677538991,-0.018118977546691895,0.6389570832252502,0.7690262794494629,0.006453752517700195,78,-5.4549055e-05,0.00044112047,-0.0016294536,7.930984e-05
1779124544.8842392,1.9612553119659424,-1,preflight_wait,1.6814634799957275,0.0,0.0,0.0,0.0,0.0,0.0,0.0,0,0,0,0,1,1.9608242511749268,0.0004837541,0.0004989487,0.036780868,-0.00021913275,0.002456898335367441,-0.018938610330224037,0.639046847820282,0.7689307332038879,0.005609750747680664,79,-0.003174803,0.0014631486,0.0005122531,2.6838828e-05
1779124544.904246,1.98126220703125,-1,preflight_wait,1.7014930248260498,0.0,0.0,0.0,0.0,0.0,0.0,0.0,0,0,0,0,1,1.9808390140533447,0.00054762,0.0004612899,0.036779694,-0.00022030622,0.002031899755820632,-0.01778961718082428,0.6389487385749817,0.7690408825874329,0.015403509140014648,80,0.0062416536,-0.0036804155,-0.00011468358,7.9629805e-05
1779124544.9242404,2.0012564659118652,-1,preflight_wait,1.7214689254760742,0.0,0.0,0.0,0.0,0.0,0.0,0.0,0,0,0,0,1,2.0008273124694824,0.00052499725,0.0004660068,0.036793888,-0.00020611286,0.0018252176232635975,-0.017511066049337387,0.6389910578727722,0.7690126299858093,0.004961252212524414,82,-0.0007436904,0.0001550618,0.00046658606,5.6524903e-05
1779124544.9442441,2.0212602615356445,-1,preflight_wait,1.7414827346801758,0.0,0.0,0.0,0.0,0.0,0.0,0.0,0,0,0,0,1,2.020833969116211,0.00046214927,0.000479433,0.03674062,-0.0002593808,0.002573058707639575,-0.019791606813669205,0.6388998627662659,0.7690310478210449,0.0046384334564208984,83,-0.0030909993,0.00066032854,-0.0026198318,7.922871e-06
1779124544.9642503,2.041266441345215,-1,preflight_wait,1.7614936828613281,0.0,0.0,0.0,0.0,0.0,0.0,0.0,0,0,0,0,1,2.040839433670044,0.0005142712,0.00047034584,0.036762558,-0.00023744255,0.0022633380722254515,-0.018455956131219864,0.6389638185501099,0.7690120339393616,0.014479398727416992,84,0.005127961,-0.00089402933,0.0021583699,4.5249104e-05
1779124544.9842389,2.0612549781799316,-1,preflight_wait,1.7814610004425049,0.0,0.0,0.0,0.0,0.0,0.0,0.0,0,0,0,0,1,2.060824155807495,0.0005480144,0.00045686006,0.036773663,-0.00022633746,0.0020108791068196297,-0.017964543774724007,0.6389685273170471,0.7690204381942749,0.0038950443267822266,86,0.0011039296,-0.00044119556,0.00036330975,8.096323e-05
1779124545.0042427,2.081258773803711,-1,preflight_wait,1.8014843463897705,0.0,0.0,0.0,0.0,0.0,0.0,0.0,0,0,0,0,1,2.0808277130126953,0.00047708536,0.00046925643,0.036740586,-0.00025941432,0.0026880584191530943,-0.020497910678386688,0.6388474702835083,0.7690556645393372,0.013447284698486328,87,-0.0067866147,0.001186106,-0.0031648502,1.0392578e-05
1779124545.024248,2.101263999938965,-1,preflight_wait,1.8215055465698242,0.0,0.0,0.0,0.0,0.0,0.0,0.0,0,0,0,0,1,2.1008434295654297,0.0005489113,0.00046805455,0.03677187,-0.00022812933,0.0020513609051704407,-0.017917238175868988,0.6390541195869446,0.7689502835273743,0.0027709007263183594,88,0.002339936,-3.915443e-05,0.0010191984,7.992324e-05
1779124545.0442336,2.1212496757507324,-1,preflight_wait,1.8414618968963623,0.0,0.0,0.0,0.0,0.0,0.0,0.0,0,0,0,0,1,2.120820999145508,0.00048336084,0.00050332875,0.036804188,-0.00019581243,0.0023700210731476545,-0.018671022728085518,0.6390385627746582,0.7689443826675415,0.012600898742675781,89,-0.0064616906,0.0034771836,0.0031856652,3.0448346e-05
1779124545.064245,2.141261100769043,-1,preflight_wait,1.8614799976348877,0.0,0.0,0.0,0.0,0.0,0.0,0.0,0,0,0,0,1,2.140834331512451,0.0005517495,0.0004709256,0.036778703,-0.00022129714,0.001957107102498412,-0.017903313040733337,0.6389700770378113,0.7690207362174988,0.0021843910217285156,91,0.002247403,-0.0010648398,-0.00083748426,8.251157e-05
1779124545.0842752,2.1612913608551025,-1,preflight_wait,1.8815453052520752,0.0,0.0,0.0,0.0,0.0,0.0,0.0,0,0,0,0,1,2.1608755588531494,0.00046443474,0.00047898758,0.036752697,-0.0002473034,0.002539564622566104,-0.01989411935210228,0.6388965845108032,0.7690311670303345,0.0015115737915039062,92,-0.0042144195,0.0003891281,-0.0012552432,5.672635e-06
1779124545.1042368,2.181252956390381,-1,preflight_wait,1.9014840126037598,0.0,0.0,0.0,0.0,0.0,0.0,0.0,0,0,0,0,1,2.1808249950408936,0.00047117844,0.00047911634,0.03674526,-0.00025473908,0.002682069083675742,-0.020682021975517273,0.638918936252594,0.7689913511276245,0.011313199996948242,93,0.0006647198,1.2691274e-05,-0.00073292677,3.3556155e-06
1779124545.1242332,2.201249361038208,-1,preflight_wait,1.921457052230835,0.0,0.0,0.0,0.0,0.0,0.0,0.0,0,0,0,0,1,2.2008185386657715,0.00047419034,0.00048501114,0.036744103,-0.00025589764,0.002519905799999833,-0.019862888380885124,0.6388682126998901,0.7690556645393372,0.0008943080902099609,95,9.904127e-05,0.00019384097,-3.8097507e-05,9.967738e-06
1779124545.144235,2.2212510108947754,-1,preflight_wait,1.9414560794830322,0.0,0.0,0.0,0.0,0.0,0.0,0.0,0,0,0,0,1,2.2208199501037598,0.0005451222,0.00046311994,0.03678937,-0.00021063164,0.0019506678218021989,-0.017863014712929726,0.6389927268028259,0.7690029144287109,0.00040650367736816406,96,0.0034619519,-0.001068438,0.0022092855,7.684389e-05
1779124545.1642516,2.241267681121826,-1,preflight_wait,1.961524248123169,0.0,0.0,0.0,0.0,0.0,0.0,0.0,0,0,0,0,1,2.2408509254455566,0.0004758821,0.00048343115,0.036761545,-0.00023845583,0.002639670390635729,-0.01960800774395466,0.6389148831367493,0.769023060798645,0.010286569595336914,97,-0.0068161115,0.0019994697,-0.00273906,9.656351e-06
1779124545.1847606,2.2617766857147217,-1,preflight_wait,1.9819862842559814,0.0,0.0,0.0,0.0,0.0,0.0,0.0,0,0,0,0,1,2.2613461017608643,0.0004668408,0.00048544118,0.03674576,-0.0002542399,0.002465650672093034,-0.019890472292900085,0.6388596296310425,0.7690622210502625,0.0003199577331542969,99,-0.00029687697,6.600069e-05,-0.0005182809,9.530197e-06
1779124545.204238,2.2812540531158447,-1,preflight_wait,2.001471519470215,0.0,0.0,0.0,0.0,0.0,0.0,0.0,0,0,0,0,1,2.280824661254883,0.0004668408,0.00048544118,0.03674576,-0.0002542399,0.002465650672093034,-0.019890472292900085,0.6388596296310425,0.7690622210502625,0.01979851722717285,99,-0.00029687697,6.600069e-05,-0.0005182809,9.530197e-06
1779124545.2242448,2.3012609481811523,-1,preflight_wait,2.021479368209839,0.0,0.0,0.0,0.0,0.0,0.0,0.0,0,0,0,0,1,2.3008320331573486,0.00047761807,0.0004862016,0.0367578,-0.00024219975,0.002240983070805669,-0.019066384062170982,0.6388625502586365,0.7690812945365906,0.009322166442871094,101,0.0003535195,2.4943716e-05,0.0003949447,1.2888544e-05
1779124545.2443047,2.3213207721710205,-1,preflight_wait,2.041529417037964,0.0,0.0,0.0,0.0,0.0,0.0,0.0,0,0,0,0,1,2.3208892345428467,0.0005265516,0.00047899107,0.03678911,-0.00021088868,0.0019509621197357774,-0.017929257825016975,0.6390017867088318,0.7689937949180603,0.01852130889892578,102,0.0045073503,-0.00066417403,0.002884114,5.7205867e-05
1779124545.264241,2.341257095336914,-1,preflight_wait,2.061467170715332,0.0,0.0,0.0,0.0,0.0,0.0,0.0,0,0,0,0,1,2.3408260345458984,0.00052659167,0.00048007374,0.036799703,-0.00020029768,0.00197972753085196,-0.01835053414106369,0.6390243172645569,0.7689650654792786,0.018204450607299805,103,1.977266e-06,5.345516e-05,0.0005229179,5.7307647e-05
1779124545.2842546,2.3612706661224365,-1,preflight_wait,2.0815303325653076,0.0,0.0,0.0,0.0,0.0,0.0,0.0,0,0,0,0,1,2.3608522415161133,0.00046846457,0.0004901723,0.036757294,-0.00024270639,0.0023340166080743074,-0.019356874749064445,0.6388950347900391,0.7690469026565552,0.007665157318115234,105,-0.0019012183,0.0003303033,-0.0013871018,1.3940406e-05
1779124545.3047302,2.381746292114258,-1,preflight_wait,2.101970911026001,0.0,0.0,0.0,0.0,0.0,0.0,0.0,0,0,0,0,1,2.381321907043457,0.00046853675,0.00047646486,0.03675197,-0.00024802983,0.002415090799331665,-0.019251836463809013,0.6389088034629822,0.7690377831459045,0.0076482295989990234,106,3.524183e-06,-0.00066928787,-0.00025992555,8.9681885e-07
1779124545.3242416,2.4012577533721924,-1,preflight_wait,2.121469736099243,0.0,0.0,0.0,0.0,0.0,0.0,0.0,0,0,0,0,1,2.400827407836914,0.00047103968,0.0004893048,0.036764275,-0.0002357252,0.002545065712183714,-0.020201120525598526,0.6388699412345886,0.7690452337265015,0.016993045806884766,107,0.00024638674,0.0012639526,0.0012112602,1.3142065e-05
1779124545.3442397,2.4212558269500732,-1,preflight_wait,2.1414740085601807,0.0,0.0,0.0,0.0,0.0,0.0,0.0,0,0,0,0,1,2.4208285808563232,0.0005447841,0.0004808111,0.03677654,-0.00022346154,0.002080456353724003,-0.018143989145755768,0.6390030980110168,0.7689873576164246,0.0065174102783203125,109,0.002419596,-0.00027868172,0.0004023773,7.551036e-05
1779124545.3647153,2.4417314529418945,-1,preflight_wait,2.1619396209716797,0.0,0.0,0.0,0.0,0.0,0.0,0.0,0,0,0,0,1,2.441300392150879,0.00047684228,0.0004741298,0.036726102,-0.00027389824,0.002692565554752946,-0.020457670092582703,0.6388207077980042,0.7690789103507996,0.00639796257019043,110,-0.0032998535,-0.00032450308,-0.00244965,7.731883e-06
1779124545.3842373,2.4612534046173096,-1,preflight_wait,2.181457996368408,0.0,0.0,0.0,0.0,0.0,0.0,0.0,0,0,0,0,1,2.4608213901519775,0.0005383664,0.00047132815,0.03676548,-0.00023452193,0.002008405514061451,-0.01791154406964779,0.6389744877815247,0.7690168023109436,0.01577591896057129,111,0.0060655037,-0.0002762076,0.0038820105,6.9132024e-05
1779124545.4042485,2.481264591217041,-1,preflight_wait,2.2015228271484375,0.0,0.0,0.0,0.0,0.0,0.0,0.0,0,0,0,0,1,2.480839252471924,0.00047207437,0.0005002937,0.036744595,-0.0002554059,0.002460102317854762,-0.019598152488470078,0.6389029026031494,0.7690337896347046,0.00534820556640625,113,-0.002177087,0.00095125305,-0.0006858479,2.4176808e-05
1779124545.4242423,2.501258373260498,-1,preflight_wait,2.221472978591919,0.0,0.0,0.0,0.0,0.0,0.0,0.0,0,0,0,0,1,2.50083065032959,0.0005370951,0.0004737312,0.036787182,-0.00021281838,0.0019949423149228096,-0.01774216629564762,0.6390256881713867,0.7689782381057739,0.005076408386230469,114,0.0032093013,-0.001311074,0.0021020393,6.773171e-05
1779124545.4442425,2.521258592605591,-1,preflight_wait,2.24147629737854,0.0,0.0,0.0,0.0,0.0,0.0,0.0,0,0,0,0,1,2.520831823348999,0.000531781,0.00047381502,0.036799755,-0.00020024553,0.002135989721864462,-0.018265068531036377,0.6390359997749329,0.7689570188522339,0.014924764633178711,115,-0.00052342634,8.255935e-06,0.0012383903,6.241827e-05
1779124545.4642391,2.541255235671997,-1,preflight_wait,2.2614657878875732,0.0,0.0,0.0,0.0,0.0,0.0,0.0,0,0,0,0,1,2.540825843811035,0.00055218907,0.0004786132,0.036788702,-0.00021129847,0.0017908383160829544,-0.016973886638879776,0.6390056610107422,0.7690126895904541,0.014648914337158203,116,0.0010068654,0.00023672571,-0.0005453146,8.28116e-05
1779124545.484249,2.561265230178833,-1,preflight_wait,2.281489610671997,0.0,0.0,0.0,0.0,0.0,0.0,0.0,0,0,0,0,1,2.5608396530151367,0.0005310783,0.00047635892,0.03677808,-0.00022191927,0.002095623640343547,-0.018158094957470894,0.6389406323432922,0.7690388560295105,0.004093647003173828,118,-0.00069053797,-7.37376e-05,-0.00034740908,6.16676e-05
1779124545.504243,2.58125901222229,-1,preflight_wait,2.3014678955078125,0.0,0.0,0.0,0.0,0.0,0.0,0.0,0,0,0,0,1,2.5808300971984863,0.0005310783,0.00047635892,0.03677808,-0.00022191927,0.002095623640343547,-0.018158094957470894,0.6389406323432922,0.7690388560295105,0.024082183837890625,118,-0.00069053797,-7.37376e-05,-0.00034740908,6.16676e-05
1779124545.5242412,2.60125732421875,-1,preflight_wait,2.3214709758758545,0.0,0.0,0.0,0.0,0.0,0.0,0.0,0,0,0,0,1,2.6008286476135254,0.0004648664,0.0004923241,0.036742758,-0.00025724247,0.002469569444656372,-0.019313180819153786,0.6388477087020874,0.7690867781639099,0.013457298278808594,119,-0.0021621152,0.0005213351,-0.0011534606,1.6690641e-05
1779124545.5442429,2.6212589740753174,-1,preflight_wait,2.341472625732422,0.0,0.0,0.0,0.0,0.0,0.0,0.0,0,0,0,0,1,2.62083101272583,0.0005252948,0.0004684229,0.036797523,-0.00020247698,0.0021287240087985992,-0.018308810889720917,0.6389999389648438,0.76898592710495,0.003078460693359375,120,0.0019890217,-0.0007867173,0.0018026253,5.6431432e-05
1779124545.564242,2.6412580013275146,-1,preflight_wait,2.361459255218506,0.0,0.0,0.0,0.0,0.0,0.0,0.0,0,0,0,0,1,2.6408281326293945,0.0005252948,0.0004684229,0.036797523,-0.00020247698,0.0021287240087985992,-0.018308810889720917,0.6389999389648438,0.76898592710495,0.023075103759765625,120,0.0019890217,-0.0007867173,0.0018026253,5.6431432e-05
1779124545.5842361,2.66125226020813,-1,preflight_wait,2.3814594745635986,0.0,0.0,0.0,0.0,0.0,0.0,0.0,0,0,0,0,1,2.6608219146728516,0.00052848924,0.00046932418,0.036793936,-0.00020606443,0.0019366216147318482,-0.017444921657443047,0.639115035533905,0.768910825252533,0.012685060501098633,121,0.00010513608,2.9663395e-05,-0.00011807119,5.948466e-05
1779124545.6042407,2.6812567710876465,-1,preflight_wait,2.4014909267425537,0.0,0.0,0.0,0.0,0.0,0.0,0.0,0,0,0,0,1,2.680830478668213,0.00052570086,0.00044962158,0.036794994,-0.00020500645,0.0020274335984140635,-0.01931571215391159,0.6388400197029114,0.7690944075584412,0.00232696533203125,122,-9.181868e-05,-0.0006487876,3.483835e-05,6.227674e-05
1779124545.6242368,2.7012529373168945,-1,preflight_wait,2.4214539527893066,0.0,0.0,0.0,0.0,0.0,0.0,0.0,0,0,0,0,1,2.7008233070373535,0.00052570086,0.00044962158,0.036794994,-0.00020500645,0.0020274335984140635,-0.01931571215391159,0.6388400197029114,0.7690944075584412,0.02231884002685547,122,-9.181868e-05,-0.0006487876,3.483835e-05,6.227674e-05
1779124545.6445606,2.721576690673828,-1,preflight_wait,2.44179368019104,0.0,0.0,0.0,0.0,0.0,0.0,0.0,0,0,0,0,1,2.7211484909057617,0.00046849297,0.00047790422,0.03676566,-0.00023433939,0.0023926678113639355,-0.019578857347369194,0.638810932636261,0.769110918045044,0.0014412403106689453,123,-0.0013884471,0.00068642537,-0.00071191636,1.8795122e-06
1779124545.6642346,2.74125075340271,-1,preflight_wait,2.4614531993865967,0.0,0.0,0.0,0.0,0.0,0.0,0.0,0,0,0,0,1,2.740818738937378,0.00046794582,0.00050609093,0.036751833,-0.00024816766,0.002367212902754545,-0.019332092255353928,0.6388708353042603,0.7690674662590027,0.000823974609375,124,-2.6971791e-05,0.0013894604,-0.0006816633,2.986284e-05
1779124545.6842358,2.761251926422119,-1,preflight_wait,2.4814577102661133,0.0,0.0,0.0,0.0,0.0,0.0,0.0,0,0,0,0,1,2.760822057723999,0.00046794582,0.00050609093,0.036751833,-0.00024816766,0.002367212902754545,-0.019332092255353928,0.6388708353042603,0.7690674662590027,0.020829200744628906,124,-2.6971791e-05,0.0013894604,-0.0006816633,2.986284e-05
1779124545.704236,2.781252145767212,-1,preflight_wait,2.501455783843994,0.0,0.0,0.0,0.0,0.0,0.0,0.0,0,0,0,0,1,2.7808194160461426,0.0005492624,0.00045898836,0.03680273,-0.00019726902,0.001993069890886545,-0.018803294748067856,0.6389865875244141,0.7689854502677917,0.0004239082336425781,125,0.0020127255,-0.00116587,0.0012598293,8.1699e-05
1779124545.7242484,2.801264524459839,-1,preflight_wait,2.5214972496032715,0.0,0.0,0.0,0.0,0.0,0.0,0.0,0,0,0,0,1,2.800844430923462,0.0005492624,0.00045898836,0.03680273,-0.00019726902,0.001993069890886545,-0.018803294748067856,0.6389865875244141,0.7689854502677917,0.020455598831176758,125,0.0020127255,-0.00116587,0.0012598293,8.1699e-05
1779124545.744238,2.821254014968872,-1,preflight_wait,2.541461706161499,0.0,0.0,0.0,0.0,0.0,0.0,0.0,0,0,0,0,1,2.8208229541778564,0.0004181713,0.00051381416,0.03678512,-0.0002148822,0.0026514932978898287,-0.01964029110968113,0.6388833522796631,0.7690483331680298,0.010025978088378906,126,-0.004312033,0.0018034072,-0.00057935726,6.352557e-05
1779124545.7642753,2.8412914276123047,-1,preflight_wait,2.5614938735961914,0.0,0.0,0.0,0.0,0.0,0.0,0.0,0,0,0,0,1,2.8408613204956055,0.0004181713,0.00051381416,0.03678512,-0.0002148822,0.0026514932978898287,-0.01964029110968113,0.6388833522796631,0.7690483331680298,0.030064821243286133,126,-0.004312033,0.0018034072,-0.00057935726,6.352557e-05
1779124545.7842548,2.8612709045410156,-1,preflight_wait,2.5815165042877197,0.0,0.0,0.0,0.0,0.0,0.0,0.0,0,0,0,0,1,2.860846996307373,0.0005306881,0.0004679237,0.036787096,-0.00021290407,0.002052920637652278,-0.01834157295525074,0.6389140486717224,0.7690567374229431,0.019564390182495117,127,0.003690122,-0.0015050318,6.487509e-05,6.184229e-05
1779124545.80424,2.881256103515625,-1,preflight_wait,2.601471185684204,0.0,0.0,0.0,0.0,0.0,0.0,0.0,0,0,0,0,1,2.8808257579803467,0.0005343165,0.00047388277,0.03679103,-0.00020897016,0.0019680229015648365,-0.01775549352169037,0.6389214396476746,0.7690646648406982,0.018940210342407227,128,0.00017614498,0.0002892874,0.00019097443,6.49494e-05
1779124545.82447,2.9014861583709717,-1,preflight_wait,2.6216933727264404,0.0,0.0,0.0,0.0,0.0,0.0,0.0,0,0,0,0,1,2.901057481765747,0.0005343165,0.00047388277,0.03679103,-0.00020897016,0.0019680229015648365,-0.01775549352169037,0.6389214396476746,0.7690646648406982,0.03917264938354492,128,0.00017614498,0.0002892874,0.00019097443,6.49494e-05
1779124545.8442378,2.9212539196014404,-1,preflight_wait,2.6414718627929688,0.0,0.0,0.0,0.0,0.0,0.0,0.0,0,0,0,0,1,2.9208266735076904,0.00046399934,0.00048428518,0.03674791,-0.0002520904,0.0025401234161108732,-0.01991538144648075,0.6388261318206787,0.7690891027450562,0.018126964569091797,129,-0.0017228624,0.00025487252,-0.0010565018,9.675864e-06
1779124545.8642383,2.9412543773651123,-1,preflight_wait,2.6614792346954346,0.0,0.0,0.0,0.0,0.0,0.0,0.0,0,0,0,0,1,2.9408299922943115,0.0005409862,0.00046696397,0.036780413,-0.00021958724,0.0020626543555408716,-0.018055161461234093,0.6389510631561279,0.7690327167510986,0.0077610015869140625,130,0.0025349243,-0.00057033036,0.0010702222,7.217707e-05
1779124545.8842385,2.961254596710205,-1,preflight_wait,2.681462049484253,0.0,0.0,0.0,0.0,0.0,0.0,0.0,0,0,0,0,1,2.960826873779297,0.0005409862,0.00046696397,0.036780413,-0.00021958724,0.0020626543555408716,-0.018055161461234093,0.6389510631561279,0.7690327167510986,0.027756690979003906,130,0.0025349243,-0.00057033036,0.0010702222,7.217707e-05
1779124545.9042392,2.981255292892456,-1,preflight_wait,2.701493740081787,0.0,0.0,0.0,0.0,0.0,0.0,0.0,0,0,0,0,1,2.980827569961548,0.0004639905,0.00049253553,0.036735803,-0.0002641976,0.0024007949978113174,-0.019910326227545738,0.6388023495674133,0.7691094875335693,0.01738452911376953,131,-0.002534897,0.0008418817,-0.0014686879,1.7150536e-05
1779124545.924239,3.0012550354003906,-1,preflight_wait,2.721463918685913,0.0,0.0,0.0,0.0,0.0,0.0,0.0,0,0,0,0,1,3.0008232593536377,0.0005375785,0.0004693549,0.03678096,-0.00021903962,0.0019989802967756987,-0.017599528655409813,0.6390198469161987,0.7689863443374634,0.006468534469604492,132,0.0023808086,-0.0007499677,0.0014610058,6.8516936e-05
1779124545.944246,3.0212621688842773,-1,preflight_wait,2.741464138031006,0.0,0.0,0.0,0.0,0.0,0.0,0.0,0,0,0,0,1,3.02083158493042,0.0005375785,0.0004693549,0.03678096,-0.00021903962,0.0019989802967756987,-0.017599528655409813,0.6390198469161987,0.7689863443374634,0.026477575302124023,132,0.0023808086,-0.0007499677,0.0014610058,6.8516936e-05
1779124545.9642396,3.0412557125091553,-1,preflight_wait,2.761463165283203,0.0,0.0,0.0,0.0,0.0,0.0,0.0,0,0,0,0,1,3.0408267974853516,0.0004591262,0.0005094651,0.036741775,-0.00025822595,0.002063996158540249,-0.019164444878697395,0.6388251185417175,0.7691104412078857,0.016071796417236328,133,-0.0025806641,0.0013194128,-0.0012890224,3.47575e-05
1779124545.9842458,3.0612618923187256,-1,preflight_wait,2.781475782394409,0.0,0.0,0.0,0.0,0.0,0.0,0.0,0,0,0,0,1,3.06083345413208,0.00054583885,0.00048754644,0.03678875,-0.00021125004,0.0017526088049635291,-0.017338475212454796,0.6389720439910889,0.7690325379371643,0.0057048797607421875,134,0.0028547596,-0.0007216081,0.001546544,7.725633e-05
1779124546.0042362,3.081252336502075,-1,preflight_wait,2.8014578819274902,0.0,0.0,0.0,0.0,0.0,0.0,0.0,0,0,0,0,1,3.080824851989746,0.00054583885,0.00048754644,0.03678875,-0.00021125004,0.0017526088049635291,-0.017338475212454796,0.6389720439910889,0.7690325379371643,0.025696516036987305,134,0.0028547596,-0.0007216081,0.001546544,7.725633e-05
1779124546.024243,3.101259231567383,-1,preflight_wait,2.821477174758911,0.0,0.0,0.0,0.0,0.0,0.0,0.0,0,0,0,0,1,3.100832462310791,0.00052408595,0.00047117122,0.03677914,-0.00022086129,0.0020414572209119797,-0.017931682989001274,0.6390091180801392,0.7689874768257141,0.015347957611083984,135,-0.0007165948,-0.0005394403,-0.0003166185,5.4911834e-05
1779124546.0442414,3.1212575435638428,-1,preflight_wait,2.841475248336792,0.0,0.0,0.0,0.0,0.0,0.0,0.0,0,0,0,0,1,3.120828151702881,0.0005324753,0.000475002,0.036797114,-0.00020288676,0.0017695605056360364,-0.0172504261136055,0.6390153169631958,0.7689985036849976,0.004819631576538086,136,0.00027484438,0.00012549995,0.000588865,6.307714e-05
1779124546.0642402,3.141256332397461,-1,preflight_wait,2.861466646194458,0.0,0.0,0.0,0.0,0.0,0.0,0.0,0,0,0,0,1,3.14082670211792,0.00053163804,0.00047406834,0.036788803,-0.00021119788,0.0019222208065912127,-0.017590632662177086,0.6389061808586121,0.7690811157226562,0.014665603637695312,137,-8.247343e-05,-9.1968424e-05,-0.0008186795,6.226597e-05
1779124546.0842392,3.161255359649658,-1,preflight_wait,2.8814697265625,0.0,0.0,0.0,0.0,0.0,0.0,0.0,0,0,0,0,1,3.1608264446258545,0.00045209844,0.0004914643,0.03674246,-0.0002575405,0.002584273461252451,-0.020143166184425354,0.6388256549835205,0.7690834999084473,0.004267215728759766,138,-0.0026164926,0.00057224766,-0.001524462,2.3038332e-05
1779124546.1042397,3.18125581741333,-1,preflight_wait,2.9014699459075928,0.0,0.0,0.0,0.0,0.0,0.0,0.0,0,0,0,0,1,3.1808273792266846,0.00052776653,0.00046109827,0.03677171,-0.00022828951,0.001963568152859807,-0.01806693710386753,0.6390177607536316,0.7689772844314575,0.004010438919067383,139,0.0037354496,-0.0014990555,0.0014440109,6.0294224e-05
1779124546.1242516,3.201267719268799,-1,preflight_wait,2.9214999675750732,0.0,0.0,0.0,0.0,0.0,0.0,0.0,0,0,0,0,1,3.2008490562438965,0.00053510163,0.00048425212,0.036782578,-0.00021742284,0.0017742145573720336,-0.017224078997969627,0.6389912962913513,0.7690190076828003,0.013869524002075195,140,0.00072141876,0.0022772185,0.0010687549,6.617474e-05
1779124546.1442451,3.2212612628936768,-1,preflight_wait,2.9415009021759033,0.0,0.0,0.0,0.0,0.0,0.0,0.0,0,0,0,0,1,3.2208383083343506,0.0005174661,0.00047849678,0.03677871,-0.0002212897,0.002041506813839078,-0.018232474103569984,0.6389853954315186,0.7690000534057617,0.0033817291259765625,142,-0.00057866296,-0.00018884624,-0.00012688048,4.8107155e-05
1779124546.1642406,3.2412567138671875,-1,preflight_wait,2.961463689804077,0.0,0.0,0.0,0.0,0.0,0.0,0.0,0,0,0,0,1,3.240825653076172,0.00047015306,0.0004770644,0.036755543,-0.00024445727,0.0022492578718811274,-0.01995146833360195,0.6387262344360352,0.7691720128059387,0.00152587890625,143,-0.0021665045,-6.558962e-05,-0.001060863,1.0915699e-06
1779124546.1844342,3.2614502906799316,-1,preflight_wait,2.9816577434539795,0.0,0.0,0.0,0.0,0.0,0.0,0.0,0,0,0,0,1,3.2610204219818115,0.00054415734,0.00047161477,0.036772314,-0.00022768602,0.0018790418980643153,-0.017396261915564537,0.6389725208282471,0.7690305113792419,0.011565923690795898,144,0.007287842,-0.0005366726,0.0016516107,7.489101e-05
1779124546.2042325,3.2812485694885254,-1,preflight_wait,3.001453399658203,0.0,0.0,0.0,0.0,0.0,0.0,0.0,0,0,0,0,1,3.2808175086975098,0.0005115066,0.00047917385,0.036763225,-0.00023677573,0.0018014166271314025,-0.017250508069992065,0.6389342546463013,0.7690657377243042,0.0009419918060302734,146,-0.001073288,0.00024848018,-0.00029879462,4.219623e-05
1779124546.2242398,3.301255941390991,-1,preflight_wait,3.0214786529541016,0.0,0.0,0.0,0.0,0.0,0.0,0.0,0,0,0,0,1,3.3008296489715576,0.0005305861,0.0004642252,0.036788717,-0.00021128356,0.0020233611576259136,-0.01799553819000721,0.6390323042869568,0.7689666748046875,0.0006868839263916016,147,0.0009413091,-0.0007375077,0.0012576825,6.234865e-05
1779124546.2442417,3.3212578296661377,-1,preflight_wait,3.0414764881134033,0.0,0.0,0.0,0.0,0.0,0.0,0.0,0,0,0,0,1,3.320831537246704,0.0005305861,0.0004642252,0.036788717,-0.00021128356,0.0020233611576259136,-0.01799553819000721,0.6390323042869568,0.7689666748046875,0.020689725875854492,147,0.0009413091,-0.0007375077,0.0012576825,6.234865e-05
1779124546.2642365,3.341252565383911,-1,preflight_wait,3.0614655017852783,0.0,0.0,0.0,0.0,0.0,0.0,0.0,0,0,0,0,1,3.3408238887786865,0.0005268073,0.00047948817,0.03676447,-0.00023553148,0.0018683663802221417,-0.017893193289637566,0.6389394998550415,0.7690466046333313,0.00018715858459472656,149,-9.3320275e-05,0.00037692653,-0.00059881376,5.7486963e-05
1779124546.2842374,3.361253499984741,-1,preflight_wait,3.0814554691314697,0.0,0.0,0.0,0.0,0.0,0.0,0.0,0,0,0,0,1,3.360823392868042,0.0005268073,0.00047948817,0.03676447,-0.00023553148,0.0018683663802221417,-0.017893193289637566,0.6389394998550415,0.7690466046333313,0.02018570899963379,149,-9.3320275e-05,0.00037692653,-0.00059881376,5.7486963e-05
1779124546.3042407,3.3812568187713623,-1,preflight_wait,3.10147762298584,0.0,0.0,0.0,0.0,0.0,0.0,0.0,0,0,0,0,1,3.3808295726776123,0.00054112216,0.00048163882,0.036783,-0.00021700189,0.0019051751587539911,-0.017607638612389565,0.6389814615249634,0.7690181732177734,0.009622812271118164,151,0.000468251,7.0349604e-05,0.000606117,7.191252e-05
1779124546.3242474,3.401263475418091,-1,preflight_wait,3.1214756965637207,0.0,0.0,0.0,0.0,0.0,0.0,0.0,0,0,0,0,1,3.4008350372314453,0.0005329028,0.00046876585,0.03677048,-0.00022951886,0.0018853115616366267,-0.017628325149416924,0.6389337778091431,0.7690573930740356,0.009377002716064453,152,-0.0004058988,-0.0006357073,-0.000618127,6.393321e-05
1779124546.3442366,3.421252727508545,-1,preflight_wait,3.1414682865142822,0.0,0.0,0.0,0.0,0.0,0.0,0.0,0,0,0,0,1,3.4208223819732666,0.00053163664,0.00048013031,0.03676404,-0.00023595989,0.001992413541302085,-0.017831983044743538,0.6389671564102173,0.769024670124054,0.01923680305480957,153,-0.00012500699,0.0011220286,-0.0006359311,6.234585e-05
1779124546.364255,3.4412710666656494,-1,preflight_wait,3.161491632461548,0.0,0.0,0.0,0.0,0.0,0.0,0.0,0,0,0,0,1,3.4408466815948486,0.00046140095,0.0004663549,0.03676482,-0.0002351813,0.002537071704864502,-0.021025322377681732,0.6387776732444763,0.7690998315811157,0.008738517761230469,155,-0.0023010338,-0.00045130498,2.5507714e-05,1.27416215e-05
1779124546.3844457,3.4614617824554443,-1,preflight_wait,3.181793451309204,0.0,0.0,0.0,0.0,0.0,0.0,0.0,0,0,0,0,1,3.4610674381256104,0.0005248124,0.00046996237,0.036785655,-0.00021434575,0.0019209733000025153,-0.017646199092268944,0.6389798521995544,0.7690186500549316,0.0086212158203125,156,0.0031161532,0.00017727805,0.0010238969,5.575883e-05
1779124546.4042928,3.481308937072754,-1,preflight_wait,3.201535940170288,0.0,0.0,0.0,0.0,0.0,0.0,0.0,0,0,0,0,1,3.480879306793213,0.00052827224,0.000473561,0.036765933,-0.00023406744,0.001877244794741273,-0.017471835017204285,0.6389588713645935,0.7690401673316956,0.01826786994934082,157,0.00034074666,0.0003544132,-0.0019423019,5.892348e-05
1779124546.4247234,3.501739501953125,-1,preflight_wait,3.221973419189453,0.0,0.0,0.0,0.0,0.0,0.0,0.0,0,0,0,0,1,3.501316547393799,0.00053849164,0.00047400454,0.036760397,-0.00023960322,0.001862888690084219,-0.017744725570082664,0.6389146447181702,0.7690706849098206,0.008258819580078125,159,0.0003356482,1.4567799e-05,-0.00018181837,6.911779e-05
1779124546.4442382,3.521254301071167,-1,preflight_wait,3.241464138031006,0.0,0.0,0.0,0.0,0.0,0.0,0.0,0,0,0,0,1,3.5208234786987305,0.0005279812,0.00049208757,0.036768116,-0.00023188442,0.0019043906359001994,-0.01770755648612976,0.6389930248260498,0.7690063118934631,0.0073375701904296875,160,-0.000514567,0.0008853033,0.00037789476,6.067023e-05
1779124546.464249,3.5412650108337402,-1,preflight_wait,3.261507749557495,0.0,0.0,0.0,0.0,0.0,0.0,0.0,0,0,0,0,1,3.540841579437256,0.0005235621,0.0004823145,0.036768258,-0.00023174286,0.001729183946736157,-0.01730194129049778,0.638866662979126,0.7691211104393005,0.017197608947753906,161,-0.00043485258,-0.0009616932,1.3929945e-05,5.4488253e-05
1779124546.4842412,3.5612573623657227,-1,preflight_wait,3.281468629837036,0.0,0.0,0.0,0.0,0.0,0.0,0.0,0,0,0,0,1,3.5608274936676025,0.00051765004,0.00047995872,0.036770683,-0.0002293177,0.0019531011348590255,-0.01778843067586422,0.6389268636703491,0.7690593004226685,0.01688838005065918,162,-0.0002913646,-0.00011610062,0.00011952007,4.838053e-05
1779124546.504239,3.5812551975250244,-1,preflight_wait,3.3014745712280273,0.0,0.0,0.0,0.0,0.0,0.0,0.0,0,0,0,0,1,3.5808281898498535,0.00044933893,0.0004946368,0.03674144,-0.00025856122,0.002521414076909423,-0.020217156037688255,0.6388165950775146,0.7690892815589905,0.006472349166870117,164,-0.00224577,0.0004825519,-0.00096139906,2.7211006e-05
1779124546.5242362,3.601252317428589,-1,preflight_wait,3.32147479057312,0.0,0.0,0.0,0.0,0.0,0.0,0.0,0,0,0,0,1,3.6008222103118896,0.0005304599,0.00047511444,0.03678911,-0.00021088868,0.0017952899215742946,-0.017491329461336136,0.6390101909637451,0.7689972519874573,0.0061986446380615234,165,0.0040002596,-0.00096269295,0.002350841,6.1059945e-05
1779124546.544722,3.6217381954193115,-1,preflight_wait,3.34195613861084,0.0,0.0,0.0,0.0,0.0,0.0,0.0,0,0,0,0,1,3.6213107109069824,0.0005276832,0.00047137006,0.03679204,-0.0002079606,0.0017957859672605991,-0.01720074936747551,0.6389591693878174,0.7690462470054626,0.01653003692626953,166,-0.00027370005,-0.00036907967,0.00028861745,5.8477537e-05
1779124546.564236,3.641252040863037,-1,preflight_wait,3.3614704608917236,0.0,0.0,0.0,0.0,0.0,0.0,0.0,0,0,0,0,1,3.640824794769287,0.00045915367,0.0004971402,0.036749005,-0.00025099516,0.0024189867544919252,-0.019758028909564018,0.638841450214386,0.7690808773040771,0.005618095397949219,168,-0.002252226,0.00084693776,-0.001414333,2.3259909e-05
1779124546.584247,3.6612632274627686,-1,preflight_wait,3.381471633911133,0.0,0.0,0.0,0.0,0.0,0.0,0.0,0,0,0,0,1,3.660832643508911,0.0005226005,0.00048837205,0.036757525,-0.00024247542,0.0017852914752438664,-0.01789586804807186,0.6389499306678772,0.7690380811691284,0.00537562370300293,169,0.0031334586,-0.00043303505,0.00042076578,5.455041e-05
1779124546.6042445,3.681260585784912,-1,preflight_wait,3.4014739990234375,0.0,0.0,0.0,0.0,0.0,0.0,0.0,0,0,0,0,1,3.68083119392395,0.0005380423,0.0004821103,0.036747772,-0.00025222823,0.0021946867927908897,-0.01907128468155861,0.6389718055725098,0.7689905762672424,0.00507044792175293,171,0.0007605399,-0.00030840386,-0.00048034583,6.888004e-05
1779124546.624257,3.701273202896118,-1,preflight_wait,3.421517848968506,0.0,0.0,0.0,0.0,0.0,0.0,0.0,0,0,0,0,1,3.700854539871216,0.0005380423,0.0004821103,0.036747772,-0.00025222823,0.0021946867927908897,-0.01907128468155861,0.6389718055725098,0.7689905762672424,0.025100231170654297,171,0.0007605399,-0.00030840386,-0.00048034583,6.888004e-05
