wall_time_s,elapsed_s,mode,thrust_raw,thrust_percent,roll_cmd_deg,pitch_cmd_deg,yawrate_cmd_deg_s,mocap_x,mocap_y,mocap_z,mocap_qx,mocap_qy,mocap_qz,mocap_qw,yaw_deg,mocap_age_s,mocap_frame_count,drift_x_m,drift_y_m,horizontal_drift_m,velocity_x_m_s,velocity_y_m_s,horizontal_speed_m_s,body_error_x_m,body_error_y_m,body_velocity_x_m_s,body_velocity_y_m_s,battery_v,estimate_z
1779202033.0862863,0.0010144710540771484,hold-xy,0,0.0,0.0,-0.0,0.0,0.0085765775,-0.004055608,0.036891837,0.013840978033840656,-0.010439184494316578,-0.6241686344146729,-0.7810973525047302,77.24787592721157,0.06874871253967285,58,0.0,0.0,0.0,0.0,0.0,0.0,0.0,0.0,0.0,0.0,4.032844543457031,104.40228271484375
1779202033.1130397,0.02776789665222168,hold-xy,0,0.0,-0.00052929495,0.00017788762,0.0,0.008534366,-0.004029896,0.036866724,0.014096919447183609,-0.010317398235201836,-0.6240493655204773,-0.7811896204948425,77.230020239446,0.00022673606872558594,59,-4.2211264e-05,2.5711954e-05,4.942565570116519e-05,-0.00013291342,8.096095e-05,0.00015562986193829205,-1.5745703e-05,-4.6850488e-05,4.9579554e-05,0.00014752126,4.032844543457031,104.40228271484375
1779202033.2176437,0.1323719024658203,hold-xy,0,0.0,0.00012854043,0.0003995344,0.0,0.008587237,-0.004019588,0.036870517,0.014470742084085941,-0.011327385902404785,-0.6236943602561951,-0.7814522981643677,77.17958502132872,0.013350248336791992,60,1.0659918e-05,3.6019832e-05,3.756410728353969e-05,8.0345715e-05,9.047619e-05,0.00012100154682960002,-3.748726e-05,2.4015162e-06,0.00010604904,-5.8266425e-05,4.032844543457031,104.34133911132812
1779202033.2984474,0.21317553520202637,hold-xy,0,0.0,-0.00017661144,-0.000150949,0.0,0.008555053,-0.0040555466,0.036817383,0.014168290421366692,-0.010001151822507381,-0.6240474581718445,-0.7811940312385559,77.2291624227343,0.00240325927734375,61,-2.1524727e-05,6.146729e-08,2.152481502856428e-05,-4.8993195e-05,-5.424091e-05,7.309178904498793e-05,4.6981404e-06,-2.1005837e-05,-6.3729145e-05,3.5791134e-05,4.032844543457031,104.30755615234375
1779202033.400028,0.3147561550140381,hold-xy,0,0.0,3.1525895e-05,-0.00019953903,0.0,0.008570002,-0.0040671024,0.03687558,0.013789735734462738,-0.010303955525159836,-0.6242055296897888,-0.7810704708099365,77.25307832237512,0.002271890640258789,62,-6.5751374e-06,-1.1494383e-05,1.3242102309233713e-05,9.798652e-06,-7.205267e-05,7.271589251116802e-05,1.2661866e-05,-3.8769094e-06,-6.811485e-05,-2.5455221e-05,4.032844543457031,104.34246063232422
1779202033.4630895,0.37781763076782227,hold-xy,0,0.0,0.000112955284,0.000343782,0.0,0.008584408,-0.0040342957,0.036828738,0.014269771054387093,-0.01043190248310566,-0.6235673427581787,-0.7815697193145752,77.15941536238034,0.0006668567657470703,63,7.83056e-06,2.1312386e-05,2.2705405692585995e-05,7.368978e-05,0.00010175987,0.00012563938074034415,-2.2519667e-05,2.8982881e-06,0.00011559183,-4.9231923e-05,4.032844543457031,104.28229522705078
1779202033.5522094,0.4669375419616699,hold-xy,0,0.0,3.775534e-05,0.000777235,0.0,0.008589419,-0.0039967615,0.03685619,0.014339697547256947,-0.011582080274820328,-0.6237678527832031,-0.7813922762870789,77.19094129699603,0.01779627799987793,64,1.2841076e-05,5.884655e-05,6.0231299058137134e-05,7.2462746e-05,0.00022764492,0.0002388996917542842,-6.022901e-05,-5.249203e-07,0.000238045,-2.0189971e-05,4.032844543457031,104.28229522705078
1779202033.6538296,0.5685577392578125,hold-xy,0,0.0,-9.740605e-05,0.0006157829,0.0,0.008577907,-0.003995916,0.036843,0.014370298013091087,-0.011441560462117195,-0.6238150000572205,-0.7813560962677002,77.19756143971799,0.015760183334350586,65,1.3299286e-06,5.969219e-05,5.970700422995599e-05,1.7408584e-05,0.00016179889,0.00016273272626081336,-5.8502934e-05,-1.1930325e-05,0.00016163412,1.8877212e-05,4.032844543457031,104.28144836425781
1779202033.7357917,0.650519847869873,hold-xy,0,0.0,-0.0002535791,0.0004940433,0.0,0.008563183,-0.0039947852,0.036878888,0.01414704043418169,-0.010646054521203041,-0.6238444447517395,-0.7813479900360107,77.20051126631914,0.004950284957885742,66,-1.3394281e-05,6.0822815e-05,6.228018712455589e-05,-3.5428173e-05,0.00011691536,0.0001221652850095171,-5.6344084e-05,-2.6536127e-05,0.000106161424,6.0449234e-05,4.032844543457031,104.31640625
1779202033.819364,0.7340922355651855,hold-xy,0,0.0,-4.9287977e-05,-0.00014988947,0.0,0.008565826,-0.0040398,0.036887966,0.013494179584085941,-0.009311480447649956,-0.624178409576416,-0.7811099290847778,77.24761848987374,0.01707768440246582,67,-1.0751188e-05,1.580827e-05,1.911777749921497e-05,-1.3701279e-05,-0.0001071769,0.00010804912436532576,-1.30451335e-05,-1.3975476e-05,-0.00010755757,-1.0294701e-05,4.032844543457031,104.29085540771484
1779202033.8865986,0.8013267517089844,hold-xy,0,0.0,-4.1011084e-05,-8.607039e-05,0.0,0.008566916,-0.0040401034,0.036877405,0.013738715089857578,-0.009689932689070702,-0.6241304874420166,-0.7811391949653625,77.24105889359902,0.0072367191314697266,68,-9.66154e-06,1.5504658e-05,1.8268546351781706e-05,-5.3496733e-06,-7.620557e-05,7.639311618945125e-05,-1.2988068e-05,-1.2847175e-05,-7.550536e-05,-1.1612394e-05,4.032844543457031,104.31759643554688
1779202033.9885137,0.9032418727874756,hold-xy,0,0.0,0.00023265296,0.00022104051,0.0,0.008595794,-0.0040232483,0.036881965,0.01268081460148096,-0.007214441895484924,-0.6242861151695251,-0.7810596227645874,77.26097664086141,0.01652979850769043,69,1.921691e-05,3.2359734e-05,3.763564751295912e-05,8.979167e-05,1.2491873e-06,8.980035663173284e-05,-3.580072e-05,1.1608215e-05,2.101845e-05,-8.730595e-05,4.032844543457031,104.32412719726562
1779202034.0694408,0.9841690063476562,hold-xy,0,0.0,9.693204e-05,-2.5914647e-05,0.0,0.008584261,-0.0040414818,0.036893435,0.013636371120810509,-0.009434306062757969,-0.6242379546165466,-0.7810582518577576,77.25647321551781,0.005553483963012695,70,7.683411e-06,1.4126301e-05,1.6080646114100456e-05,2.520542e-05,-5.8644884e-05,6.383209083097239e-05,-1.5473193e-05,4.378066e-06,-5.164031e-05,-3.7520855e-05,4.032844543457031,104.31562042236328
1779202034.171353,1.0860812664031982,hold-xy,0,0.0,-0.000115358685,-0.00046443945,0.0,0.008559171,-0.0040776543,0.036891274,0.013553165830671787,-0.00935732014477253,-0.6242866516113281,-0.7810217142105103,77.26354158731122,0.015206336975097656,71,-1.7406419e-05,-2.2046268e-05,2.8089523816852695e-05,-6.394084e-05,-0.00015867379,0.0001710725109490731,2.5341345e-05,-1.2117651e-05,-0.00016886636,2.7385217e-05,4.032844543457031,104.27494049072266
1779202034.2761154,1.1908435821533203,hold-xy,0,0.0,-0.0001401481,0.00034848077,0.0,0.0085700415,-0.0040123537,0.03688241,0.013966056518256664,-0.009993553161621094,-0.6238721013069153,-0.7813377976417542,77.20353145093077,0.01596975326538086,72,-6.536022e-06,4.3254346e-05,4.3745378279946825e-05,-1.3401343e-05,7.72975e-05,7.84506215445581e-05,-4.0732382e-05,-1.5954021e-05,7.240942e-05,3.0188992e-05,4.032844543457031,104.28551483154297
1779202034.3404994,1.2552275657653809,hold-xy,0,0.0,-0.00021332144,-0.0013192226,0.0,0.008534944,-0.0041349903,0.03677625,0.013910695910453796,-0.008302031084895134,-0.6242433190345764,-0.7810620069503784,77.25547460751841,0.0029778480529785156,73,-4.1633844e-05,-7.938221e-05,8.963767227603648e-05,-0.0001454614,-0.0004213754,0.0004457759934707255,8.661111e-05,-2.3096078e-05,-0.00044308353,4.8920527e-05,4.032844543457031,104.28551483154297
1779202034.4633265,1.3780546188354492,hold-xy,0,0.0,-0.0003758214,-0.0011487292,0.0,0.00851508,-0.0041398425,0.03679981,0.013561191037297249,-0.008139519020915031,-0.6243176460266113,-0.7810105085372925,77.26633691480654,0.016112565994262695,74,-6.149709e-05,-8.42344e-05,0.0001042944226456694,-0.0001561474,-0.0003082331,0.0003455281000579856,9.571782e-05,-4.1417698e-05,-0.00033507007,8.436646e-05,4.032844543457031,104.36515808105469
1779202034.5441158,1.4588439464569092,hold-xy,0,0.0,-0.00020254741,0.00050992466,0.0,0.008550964,-0.0040264837,0.036848806,0.014216778799891472,-0.010457850992679596,-0.6238564848899841,-0.7813395857810974,77.20190172031555,0.014760732650756836,75,-2.5613233e-05,2.912432e-05,3.878483870782531e-05,2.1753622e-05,0.00019825119,0.00019944110492762693,-2.2727032e-05,-3.1428423e-05,0.00019814476,2.2702645e-05,4.032844543457031,104.36515808105469
1779202034.6276934,1.542421579360962,hold-xy,0,0.0,-0.0002283559,-0.00069526443,0.0,0.00852683,-0.0041176286,0.036827125,0.013591630384325981,-0.008011280559003353,-0.6243630051612854,-0.7809749841690063,77.27281129380114,0.00647735595703125,76,-4.9747527e-05,-6.2020496e-05,7.950696889979932e-05,-6.359033e-05,-0.00015888523,0.00017113809707685357,7.1456496e-05,-3.4861554e-05,-0.00016899097,2.702406e-05,4.032844543457031,104.33882141113281
1779202034.7334037,1.6481318473815918,hold-xy,0,0.0,2.2027089e-05,0.00012417356,0.0,0.00856128,-0.0040598214,0.03690069,0.013600105419754982,-0.009678895585238934,-0.6242220401763916,-0.7810686230659485,77.25454805415087,0.015778064727783203,77,-1.5297905e-05,-4.2133033e-06,1.5867508336674192e-05,6.2684514e-05,6.86604e-05,9.297096113213754e-05,7.4845107e-06,-1.3991423e-05,8.0798054e-05,-4.59921e-05,4.032844543457031,104.35356903076172
1779202034.7979476,1.7126758098602295,hold-xy,0,0.0,-0.00021235477,0.0002546141,0.0,0.008548796,-0.0040428564,0.03682204,0.014118931256234646,-0.009477565996348858,-0.6239983439445496,-0.7812406420707703,77.22113270708516,0.0051422119140625,78,-2.7781352e-05,1.2751669e-05,3.056809875600753e-05,-5.9352024e-06,0.00011575986,0.00011591191382360806,-6.2908975e-06,-2.9913763e-05,0.0001115798,3.1392978e-05,4.032844543457031,104.33625793457031
1779202034.8795013,1.794229507446289,hold-xy,0,0.0,0.0001319637,0.00091748184,0.0,0.008584596,-0.003995072,0.036853116,0.014337762258946896,-0.010789915919303894,-0.6238261461257935,-0.7813571095466614,77.19798069121468,0.01514291763305664,79,8.018687e-06,6.0535967e-05,6.106474039979892e-05,0.00014594407,0.000281377,0.00031697426175976304,-6.080794e-05,-5.5943774e-06,0.00030672108,-7.9967795e-05,4.032844543457031,104.3160400390625
1779202034.9633923,1.8781204223632812,hold-xy,0,0.0,-0.00012563588,0.00046101946,0.0,0.008561505,-0.004014192,0.03684865,0.014300367794930935,-0.011358636431396008,-0.6237882971763611,-0.7813799977302551,77.19352416101374,0.006223917007446289,80,-1.5072525e-05,4.1415915e-05,4.407333754631318e-05,2.7520502e-05,0.00013516,0.0001379333260196262,-3.704471e-05,-2.3877783e-05,0.00013789795,3.1234777e-06,4.032844543457031,104.29618072509766
1779202035.0457761,1.9605042934417725,hold-xy,1000,1.525902189669642,-0.00020268332,0.00025579508,0.0,0.008553732,-0.004021805,0.036825493,0.01458874810487032,-0.011568986810743809,-0.6237396001815796,-0.7814104557037354,77.18662506656516,0.01708841323852539,81,-2.2845343e-05,3.3803284e-05,4.079916165407339e-05,-1.3340037e-05,6.267954e-05,6.408339267944937e-05,-2.7894948e-05,-2.97732e-05,5.8160167e-05,2.6908663e-05,4.032844543457031,104.29618072509766
1779202035.1069474,2.0216755867004395,hold-xy,1000,1.525902189669642,0.00039974437,0.00036914056,0.0,0.008598855,-0.0040207133,0.03685012,0.014586067758500576,-0.011908783577382565,-0.6238147020339966,-0.7813454270362854,77.19832885570068,0.006804943084716797,82,2.2277236e-05,3.4894794e-05,4.1399539771575e-05,0.00018010735,4.845834e-05,0.00018651239114227255,-3.896353e-05,1.39916065e-05,8.716145e-05,-0.00016489316,4.032844543457031,104.27435302734375
1779202035.209857,2.1245851516723633,hold-xy,2000,3.051804379339284,-0.000233237,-0.0018160497,0.0,0.008508133,-0.004200697,0.03676457,0.0133254649117589,-0.006280318833887577,-0.6247575283050537,-0.7806799411773682,77.32891091012904,0.00812983512878418,83,-6.844476e-05,-0.00014508888,0.00016042278163366636,-0.0001418452,-0.0004976072,0.0005174292361523221,0.00015656893,-3.4951998e-05,-0.0005166025,2.9238508e-05,4.027565956115723,104.3056411743164
1779202035.295612,2.2103402614593506,hold-xy,3000,4.577706569008926,0.00020145232,0.0010509389,0.0,0.008588461,-0.0040019117,0.03684845,0.014437091536819935,-0.011132804676890373,-0.6236096620559692,-0.7815234065055847,77.16681022757695,0.009181976318359375,84,1.1883676e-05,5.3696334e-05,5.4995617729122064e-05,0.00018521468,0.00035573018,0.0004010591526165698,-5.499457e-05,-3.3984088e-07,0.000387983,-0.00010157576,4.032844543457031,104.31330108642578
1779202035.381192,2.2959201335906982,hold-xy,3000,4.577706569008926,0.00039655072,-0.0016237004,0.0,0.008563265,-0.0042143874,0.03674139,0.013464929535984993,-0.006174573674798012,-0.6245076656341553,-0.7808781862258911,77.29207540019921,0.0020644664764404297,85,-1.3312325e-05,-0.00015877932,0.00015933641024259724,4.810751e-05,-0.00043863177,0.00044126202161459834,0.00015781834,2.1942229e-05,-0.00041730437,-0.00014341979,4.032844543457031,104.28889465332031
1779202035.4840662,2.398794412612915,hold-xy,4000,6.103608758678568,0.00017160235,-0.00035035552,0.0,0.008570956,-0.0041255783,0.036795586,0.013441505841910839,-0.007141206879168749,-0.6240032315254211,-0.7812735438346863,77.21905034459145,0.013743162155151367,86,-5.621463e-06,-6.9970265e-05,7.019571854000508e-05,5.897537e-05,-1.4893012e-05,6.082677179679736e-05,6.9480215e-05,9.99694e-06,-1.4772249e-06,-6.080883e-05,4.027565956115723,104.30469512939453
1779202035.5860322,2.500760316848755,hold-xy,5000,7.629510948348211,-0.00033219167,0.00013400927,0.0,0.008537246,-0.004070038,0.03688191,0.01378700789064169,-0.009734620340168476,-0.6241324543952942,-0.7811362147331238,77.24139486609842,0.0035300254821777344,87,-3.9331615e-05,-1.4429912e-05,4.1895085738030714e-05,-4.8868184e-05,0.00013810626,0.00014649723153797628,2.2759774e-05,-3.517373e-05,0.00012390407,7.8161516e-05,4.032844543457031,104.32036590576172
1779202035.6480331,2.5627613067626953,hold-xy,5000,7.629510948348211,0.00026252633,0.0024000998,0.0,0.008609362,-0.003922129,0.036842402,0.013573186472058296,-0.008357567712664604,-0.6237359046936035,-0.7814726233482361,77.1812755568501,0.003091096878051758,88,3.2784417e-05,0.00013347901,0.00013744623010173722,0.0003122823,0.00080732035,0.0008656132839809842,-0.00013742609,2.3527155e-06,0.00085648464,-0.00012538138,4.032844543457031,104.32036590576172
1779202035.7535648,2.668292999267578,hold-xy,6000,9.155413138017853,0.00018485257,0.0008504362,0.0,0.008587662,-0.0040162504,0.036854047,0.014535819180309772,-0.011559399776160717,-0.6239420175552368,-0.7812499403953552,77.2163330306946,0.003768444061279297,89,1.1084601e-05,3.9357692e-05,4.088882840190187e-05,0.000156512,0.00029583258,0.00033468332335785374,-4.0834806e-05,2.1011447e-06,0.0003231311,-8.717342e-05,4.032844543457031,104.3396987915039
1779202035.8359702,2.7506983280181885,hold-xy,6000,9.155413138017853,-1.8795312e-05,0.0002721897,0.0,0.008568682,-0.0040440913,0.036833283,0.014156486839056015,-0.010222616605460644,-0.6240525841712952,-0.7811872363090515,77.23029619624401,0.003534078598022461,90,-7.895753e-06,1.1516735e-05,1.3963455490301675e-05,4.06556e-05,0.00010601409,0.0001135423504822158,-9.486663e-06,-1.0246038e-05,0.0001123782,-1.621744e-05,4.032844543457031,104.26705169677734
1779202035.9181728,2.8329010009765625,hold-xy,7000,10.681315327687495,-0.00041971402,-0.0009179129,0.0,0.008521697,-0.004119467,0.036800664,0.014082544483244419,-0.00946372002363205,-0.6244073510169983,-0.7809145450592041,77.2811485401505,0.014189720153808594,91,-5.4880977e-05,-6.3858926e-05,8.420145031563441e-05,-0.00016855229,-0.00024184377,0.00029478514607701517,7.437495e-05,-3.9474675e-05,-0.0002730191,0.00011117032,4.027565956115723,104.26570892333984
1779202036.0220816,2.936809778213501,hold-xy,8000,12.207217517357137,7.382733e-05,0.00071409275,0.0,0.008589674,-0.0039966945,0.036843013,0.014308338053524494,-0.010492853820323944,-0.6237568855285645,-0.7814170122146606,77.18730304142531,0.01634669303894043,92,1.3096258e-05,5.8913603e-05,6.0351674907158174e-05,8.243412e-05,0.00019268584,0.0002095786613353629,-6.0350954e-05,-2.9478724e-07,0.00020616897,-3.7650632e-05,4.027565956115723,104.31713104248047
1779202036.10556,3.0202882289886475,hold-xy,8000,12.207217517357137,-0.00023676749,-0.00078722544,0.0,0.008541983,-0.004100926,0.036804646,0.013877223245799541,-0.008527143858373165,-0.6241799592971802,-0.7811108231544495,77.2465002629184,0.01739645004272461,93,-3.459491e-05,-4.5318156e-05,5.701353300682779e-05,-0.00011586857,-0.0002444724,0.00027054072236367197,5.1837174e-05,-2.3737113e-05,-0.0002640198,5.9040965e-05,4.022287368774414,104.35800170898438
1779202036.1711419,3.0858700275421143,hold-xy,8000,12.207217517357137,-0.0006241499,-0.0014191193,0.0,0.008500099,-0.0041494593,0.03685491,0.013404393568634987,-0.007952694781124592,-0.6246029138565063,-0.78078693151474,77.30803654169759,0.016158103942871094,94,-7.647835e-05,-9.385124e-05,0.00012106606487570287,-0.00026915057,-0.00038902793,0.0004730589313252813,0.000108361026,-5.398963e-05,-0.0004386571,0.00017710088,4.027565956115723,104.31179809570312
1779202036.254275,3.1690032482147217,hold-xy,9000,13.733119707026779,-2.0895728e-05,0.00012615186,0.0,0.008562423,-0.0040566623,0.03688062,0.013807673007249832,-0.010296909138560295,-0.6241239905357361,-0.7811354398727417,77.24109163285273,0.017117023468017578,95,-1.41542405e-05,-1.0542572e-06,1.4193448435771734e-05,3.9125982e-05,6.646151e-05,7.712311299039913e-05,4.1541766e-06,-1.3571913e-05,7.346137e-05,-2.348192e-05,4.027565956115723,104.31179809570312
1779202036.3368008,3.2515289783477783,hold-xy,10000,15.259021896696423,-0.0002375786,0.00081409485,0.0,0.0085593555,-0.0039909594,0.036871072,0.01405253168195486,-0.010489042848348618,-0.6238921284675598,-0.7813136577606201,77.2072763777035,0.008007526397705078,96,-1.7222017e-05,6.464869e-05,6.690329320178832e-05,1.7344746e-05,0.00026162466,0.0002621989692917504,-5.9230566e-05,-3.110934e-05,0.000258971,4.101595e-05,4.022287368774414,104.24412536621094
1779202036.4389875,3.353715658187866,hold-xy,11000,16.784924086366065,1.3050674e-05,0.00040303275,0.0,0.008573635,-0.0040170476,0.036844186,0.013998807407915592,-0.010439155623316765,-0.6238157153129578,-0.7813763618469238,77.19600882420822,0.01755046844482422,97,-2.9429793e-06,3.856048e-05,3.8672621665849493e-05,5.8379865e-05,9.865813e-05,0.0001146369719396876,-3.694942e-05,-1.14154345e-05,0.00010914283,-3.5063924e-05,4.011730194091797,104.23503112792969
1779202036.5201921,3.434920310974121,hold-xy,11000,16.784924086366065,0.0010073216,-0.0017778529,0.0,0.008619059,-0.004215559,0.036839448,0.012344282120466232,-0.007663540076464415,-0.6242591142654419,-0.781082272529602,77.25769987525734,0.006753444671630859,98,4.2481348e-05,-0.00015995093,0.0001654961147147755,0.00018898601,-0.0005782473,0.0006083466478153463,0.00014664169,7.671491e-05,-0.00052232225,-0.00031187356,4.006451606750488,104.20819854736328
1779202036.6220033,3.536731481552124,hold-xy,12000,18.310826276035705,0.004007162,-0.0055095907,0.0,0.008825356,-0.0046432577,0.036706507,0.007446266245096922,0.0011177409905940294,-0.6256115436553955,-0.7800984382629395,77.45395620650427,0.0059452056884765625,99,0.0002487786,-0.00058764964,0.0006381401875427654,0.0007353845,-0.0016551176,0.0018111334875685955,0.00051957695,0.0003704899,-0.0014558531,-0.0010773563,4.006451606750488,104.23722839355469
1779202036.7044718,3.6191999912261963,hold-xy,12000,18.310826276035705,0.003493662,0.0004898551,0.0,0.008926716,-0.004238615,0.037001714,0.008819027803838253,-0.01078834105283022,-0.6236405372619629,-0.7815870642662048,77.17356560165764,0.005671501159667969,100,0.00035013817,-0.00018300675,0.00039508001681015854,0.00088227045,0.00030853914,0.0009346644163396605,0.00010071009,0.0003820284,0.0004967028,-0.00079176005,4.00117301940918,104.2198486328125
1779202036.7951176,3.709845781326294,hold-xy,13000,19.83672846570535,0.0026980285,-0.006149049,0.0,0.008786911,-0.004745636,0.036755834,0.00709681399166584,0.00019173395412508398,-0.6258982419967651,-0.7798723578453064,77.49582802147481,0.011083602905273438,101,0.00021033362,-0.0006900281,0.0007213729892897492,0.00012551434,-0.0015686033,0.0015736169516692208,0.0006281213,0.00035474304,-0.0015042213,-0.0004621566,3.995894432067871,104.15887451171875
1779202036.8821764,3.7969045639038086,hold-xy,14000,21.36263065537499,0.0027732432,0.00065938744,0.0,0.008918922,-0.004284136,0.037004627,0.008105662651360035,-0.009487001225352287,-0.6237262487411499,-0.7815431952476501,77.18403872686356,0.01589035987854004,102,0.00034234487,-0.00022852793,0.0004116127082195154,0.0005693482,0.0005852195,0.0008164798016213287,0.00014689576,0.0003845083,0.00069693313,-0.00042535088,3.995894432067871,104.09101104736328
1779202036.9839604,3.898688554763794,hold-xy,14000,21.36263065537499,0.0035994838,0.00011872925,0.0,0.009013323,-0.0043172073,0.037011925,0.0061576394364237785,-0.008145641535520554,-0.6236769556999207,-0.7816154956817627,77.17537029310795,0.01566171646118164,103,0.00043674558,-0.0002615992,0.0005090980620592055,0.0006761586,0.00031239723,0.0007448371941309007,0.00015812996,0.0004839171,0.00045468952,-0.0005899491,3.985337257385254,104.06158447265625
1779202037.0445209,3.9592490196228027,hold-xy,15000,22.888532845044633,0.0012271383,-0.0020483048,0.0,0.0088348035,-0.0044218563,0.036876503,0.0080891577526927,-0.00430816225707531,-0.6244996190071106,-0.780971348285675,77.29129025854716,0.004397392272949219,104,0.00025822595,-0.0003662482,0.00044812763476331,-0.00027233537,-0.00021842311,0.0003491062922131152,0.00030046722,0.0003324723,-0.00027298427,0.00021761158,3.985337257385254,104.06158447265625
1779202037.1262636,4.04099178314209,hold-xy,16000,24.414435034714273,-0.00069693365,-0.0020074728,0.0,0.008670872,-0.004395107,0.03672633,0.010363956913352013,-0.00152654480189085,-0.6247928738594055,-0.7807202339172363,77.33273230247038,0.004878044128417969,105,9.429455e-05,-0.00033949874,0.000352350476773635,-0.0007958297,-5.4143704e-05,0.0007976693620257221,0.00031055757,0.0001664477,-0.00022734242,0.0007645861,3.9800586700439453,104.01361846923828
1779202037.228554,4.143282175064087,hold-xy,16000,24.414435034714273,0.0009865616,-0.0019797392,0.0,0.008772748,-0.004427634,0.03687505,0.00943701434880495,-0.004685624968260527,-0.625002384185791,-0.7805517315864563,77.36495745756976,0.014964103698730469,106,0.00019617006,-0.00037202612,0.0004205783308826927,-0.00022561417,-0.00014373306,0.00026750878002418133,0.00032010657,0.00027279646,-0.00018960316,0.00018871033,3.9747800827026367,103.9546890258789
1779202037.2903934,4.2051215171813965,hold-xy,16000,24.414435034714273,0.0024866227,-0.0042065247,0.0,0.008837499,-0.0046257954,0.036755733,0.007915444672107697,0.0006188752595335245,-0.6253200769424438,-0.7803280353546143,77.41090336538711,0.002269744873046875,107,0.0002609212,-0.00057018735,0.0006270514240753445,0.000102695034,-0.0008982171,0.0009040686964823001,0.0004996093,0.00037892483,-0.00085423916,-0.00029599923,3.969501495361328,103.91000366210938
1779202037.3751621,4.289890289306641,hold-xy,17000,25.940337224383917,0.001769468,-0.002886424,0.0,0.008810652,-0.004556747,0.03684028,0.00800994411110878,-0.0032575223594903946,-0.6251477599143982,-0.7804585695266724,77.38585193204688,0.013061046600341797,108,0.00023407489,-0.0005011391,0.0005531107039636146,-3.6983e-05,-0.0003487413,0.0003506967921676042,0.00043792475,0.00033786587,-0.0003484002,-4.006926e-05,3.9642229080200195,103.84383392333984
1779202037.4581885,4.3729166984558105,hold-xy,17000,25.940337224383917,0.001655057,-0.0022442234,0.0,0.0088111535,-0.004517475,0.03682948,0.008263186551630497,-0.0020290431566536427,-0.6250336766242981,-0.7805514335632324,77.36863276795236,0.00020170211791992188,109,0.00023457594,-0.00046186708,0.0005180222634765994,-2.4320449e-05,-0.00012124765,0.00012366275356127235,0.0003993921,0.00032989847,-0.00012363146,-2.7823062e-06,3.9642229080200195,103.75696563720703
1779202037.5625145,4.477242708206177,hold-xy,19000,28.9921416037232,0.0025618111,0.00078193785,0.0,0.008943848,-0.0042860545,0.037008293,0.00740125123411417,-0.008088118396699429,-0.623687744140625,-0.7815966606140137,77.17643866667242,0.01292562484741211,110,0.00036727078,-0.00023044646,0.00043358204909439284,0.00041755592,0.00067303726,0.0007920429907251086,0.00014318313,0.00040925783,0.0007489268,-0.000257761,3.9536657333374023,103.64798736572266
1779202037.6440594,4.55878758430481,hold-xy,19000,28.9921416037232,0.0037122238,0.00055405754,0.0,0.009060066,-0.0042930953,0.03708279,0.004642370622605085,-0.006290182936936617,-0.6230364441871643,-0.7821537256240845,77.07947177955474,0.0002524852752685547,111,0.00048348866,-0.00023748726,0.0005386664040307406,0.00066233904,0.00044870743,0.000800019608308215,0.0001233666,0.0005243493,0.00058544526,-0.00054523867,3.9536657333374023,103.64798736572266
1779202037.7464163,4.661144495010376,hold-xy,20000,30.518043793392845,0.0038832775,-0.00021975243,0.0,0.009094218,-0.0043387357,0.037087195,0.0028528610710054636,-0.003932998050004244,-0.623091995716095,-0.7821334600448608,77.08576272993513,0.009664535522460938,112,0.00051764026,-0.00028312765,0.0005900107682582463,0.00057386915,0.00016678077,0.0005976132780046042,0.0001602775,0.00056782376,0.00029081752,-0.00052207935,3.943108558654785,103.55355834960938
1779202037.83063,4.745358228683472,hold-xy,21000,32.043945983062486,0.00046567176,-0.0015661544,0.0,0.008824689,-0.0043755304,0.03694423,0.008790715597569942,-0.006618297193199396,-0.624290943145752,-0.7811144590377808,77.2625309737808,0.010306835174560547,113,0.00024811178,-0.00031992234,0.00040485770392957154,-0.0005658296,-1.5336977e-05,0.0005660374414791792,0.0002573445,0.00031254368,-0.000139716,0.0005485233,3.943108558654785,103.56169891357422
1779202037.933346,4.848074197769165,hold-xy,21000,32.043945983062486,0.0010907191,-0.0011441039,0.0,0.008859782,-0.0043499544,0.037008014,0.008609323762357235,-0.008324558846652508,-0.624108612537384,-0.7812458872795105,77.23806550357796,0.0005371570587158203,114,0.00028320402,-0.00029434636,0.00040846579040332596,-0.0003024895,5.7475434e-05,0.0003079014876196008,0.00022451498,0.00034122914,-1.0764532e-05,0.00030771326,3.9272727966308594,103.55006408691406
1779202038.0201087,4.9348368644714355,hold-xy,22000,33.56984817273213,0.0033258358,0.0003217687,0.0,0.009038877,-0.0042756274,0.03707129,0.005288810469210148,-0.0063869282603263855,-0.6232901215553284,-0.7819467186927795,77.11658702893243,0.011935949325561523,115,0.0004622992,-0.00022001937,0.000511985454848849,0.0005011793,0.00033610532,0.0006034463254798767,0.000111402675,0.0004997185,0.00043939103,-0.0004136218,3.9272727966308594,103.45535278320312
1779202038.1055303,5.02025842666626,hold-xy,22000,33.56984817273213,0.0026596223,-0.000788345,0.0,0.008985873,-0.004340589,0.037004933,0.0065042017959058285,-0.007286509964615107,-0.6239004731178284,-0.7814428210258484,77.20682604563439,0.0007228851318359375,116,0.00040929578,-0.00028498098,0.000498735595678821,0.00018627755,3.3601857e-05,0.00018928394137031533,0.00018727523,0.00046223932,7.401558e-05,-0.00017421281,3.916715621948242,103.42961883544922
1779202038.207447,5.122175216674805,hold-xy,23000,35.09575036240177,0.002357996,-0.00095952535,0.0,0.008966576,-0.0043476447,0.03700467,0.006743109319359064,-0.007084663491696119,-0.6237615942955017,-0.7815534472465515,77.1861226818196,0.009506464004516602,117,0.00038999878,-0.00029203668,0.0004872211709427167,6.823492e-05,7.935323e-07,6.823953538352577e-05,0.00019826797,0.0004450554,1.590723e-05,-6.6359586e-05,3.916715621948242,103.4175796508789
1779202038.28868,5.203408241271973,hold-xy,24000,36.62165255207141,0.0015988227,7.1702525e-05,0.0,0.008928703,-0.0042531155,0.037031308,0.00853673554956913,-0.010655679740011692,-0.623767077922821,-0.7814911007881165,77.19199081032465,0.00993490219116211,118,0.00035212561,-0.00019750744,0.00040373462098544264,-9.284577e-05,0.00035151048,0.0003635656044844353,0.00011453224,0.00038714858,0.00032218185,0.00016846014,3.906158447265625,103.35906982421875
1779202038.3714032,5.286131381988525,hold-xy,24000,36.62165255207141,0.0023947286,5.376083e-05,0.0,0.008987172,-0.00425189,0.03707513,0.006083735264837742,-0.006882579997181892,-0.6234753131866455,-0.7817891240119934,77.14410109381228,0.009856224060058594,119,0.00041059405,-0.00019628182,0.0004550978216404943,0.00014684544,0.00025049786,0.00029036660714722466,0.00010000449,0.00044397422,0.00027689163,-8.742872e-05,3.9008798599243164,103.3122329711914
1779202038.453074,5.367802143096924,hold-xy,25000,38.147554741741054,0.0033849063,-0.00087345974,0.0,0.009051612,-0.004326066,0.03708083,0.0046162474900484085,-0.005404056515544653,-0.6233924031257629,-0.7818768620491028,77.13069440129323,0.0178225040435791,120,0.00047503412,-0.00027045794,0.000546630502397568,0.00036508281,-0.00012657123,0.0003864010199383172,0.00015786086,0.0005233401,-4.207772e-05,-0.0003841031,3.895601272583008,103.3122329711914
1779202038.5357387,5.450466871261597,hold-xy,25000,38.147554741741054,0.005009964,-0.002726444,0.0,0.009172188,-0.004521273,0.037169714,0.0015702777309343219,-0.006737733259797096,-0.6231160163879395,-0.7820988297462463,77.09239447385512,0.008346796035766602,121,0.0005956106,-0.000465665,0.0007560395997621667,0.0006481429,-0.00072417455,0.0009718631480286466,0.0003208512,0.0006845804,-0.00056109397,-0.0007935311,3.895601272583008,103.19992065429688
1779202038.6194766,5.534204721450806,hold-xy,26000,39.6734569314107,0.0023147333,-0.0007148781,0.0,0.009027338,-0.004348656,0.03707106,0.005370912607759237,-0.004813668318092823,-0.62352454662323,-0.7817705273628235,77.1493512083477,0.010359048843383789,122,0.00045076013,-0.0002930481,0.0005376447594046241,-7.802009e-05,0.00012672349,0.00014881524618223617,0.00018545441,0.0005046469,0.000106196974,0.00010425056,3.8850440979003906,103.10646057128906
1779202038.721021,5.635749101638794,hold-xy,26000,39.6734569314107,0.0012699894,-0.0018255361,0.0,0.00890772,-0.004419327,0.037030384,0.008407519198954105,-0.008503531105816364,-0.6244568824768066,-0.7809677124023438,77.2895091176432,0.01071619987487793,123,0.00033114292,-0.00036371872,0.0004918810174985218,-0.0004092553,-0.00012081788,0.00042671637500491996,0.00028194586,0.00040305516,-0.00020790347,0.00037264326,3.879765510559082,103.06942749023438
1779202038.8043432,5.719071388244629,hold-xy,27000,41.19935912108034,0.0032329324,-0.0010418826,0.0,0.009056576,-0.00439875,0.03706338,0.005903955549001694,-0.007097099907696247,-0.6236670613288879,-0.7816355228424072,77.17253605859713,0.012392044067382812,124,0.00047999807,-0.00034314208,0.0005900378159409584,0.00026047163,-8.9661335e-06,0.00026062590142169034,0.00022801111,0.0005442018,4.9086477e-05,-0.00025596167,3.879765510559082,103.04463958740234
1779202038.8857486,5.800476789474487,hold-xy,27000,41.19935912108034,0.0029033858,-0.0010680167,0.0,0.009041823,-0.0043950025,0.037064902,0.006760910153388977,-0.007700156886130571,-0.6238052845001221,-0.7815126180648804,77.1933429850697,0.0020439624786376953,125,0.00046524592,-0.00033939444,0.0005758839765677426,0.00013409606,5.9771123e-06,0.00013422920347029381,0.00022782429,0.00052890304,3.5552395e-05,-0.00012943534,3.869208335876465,102.91722106933594
1779202038.9873536,5.902081727981567,hold-xy,28000,42.72526131074998,0.0024583125,-0.0010585156,0.0,0.009010989,-0.004385134,0.0370345,0.007123296149075031,-0.007009153254330158,-0.623954176902771,-0.7813970446586609,77.21414886258673,0.00959157943725586,126,0.0004344117,-0.00032952614,0.0005452531520483097,-4.479909e-06,3.565934e-05,3.593964697687439e-05,0.00022521659,0.0004965667,3.3783697e-05,1.2260512e-05,3.8586511611938477,102.79578399658203
1779202039.0697124,5.984440565109253,hold-xy,29000,44.25116350041962,0.0017266949,-0.00045432724,0.0,0.008963656,-0.0043221544,0.037038684,0.008541571907699108,-0.00843895971775055,-0.624303936958313,-0.7810892462730408,77.26691722110084,0.00963735580444336,127,0.00038707815,-0.00026654638,0.0004699749702563337,-0.0001756488,0.00025449897,0.0003092284375365996,0.00017467566,0.00043630824,0.00020952553,0.00022742312,3.8586511611938477,102.87893676757812
1779202039.1518354,6.066563606262207,hold-xy,29000,44.25116350041962,0.002602565,-0.0012489666,0.0,0.0090070795,-0.004383646,0.03702645,0.0083929393440485,-0.0075271171517670155,-0.6245490312576294,-0.7809041738510132,77.30165174648837,0.01893448829650879,128,0.000430502,-0.0003280379,0.000541240081086849,5.5926605e-05,-7.515964e-05,9.368434346620194e-05,0.00022538225,0.00049208093,-6.1027622e-05,-7.108014e-05,3.8586511611938477,102.87893676757812
1779202039.2368069,6.1515350341796875,hold-xy,29000,44.25116350041962,0.0036233247,-0.0013644762,0.0,0.009094661,-0.004417061,0.037162185,0.003315788460895419,-0.007147419266402721,-0.6244573593139648,-0.7810191512107849,77.28922741522054,0.010995626449584961,129,0.0005180836,-0.0003614528,0.0006317109355392017,0.0003219426,-0.00016050591,0.00035973488483331215,0.00023860103,0.0005849174,-8.573551e-05,-0.00034936887,3.8480939865112305,102.79652404785156
1779202039.3178082,6.232536315917969,hold-xy,29000,44.25116350041962,0.007993981,-0.000585104,0.0,0.009469029,-0.004440995,0.037211947,0.006917154882103205,-0.008805937133729458,-0.6245386004447937,-0.7809136509895325,77.30253131350281,0.010521173477172852,130,0.00089245103,-0.00038538687,0.0009721069293442947,0.0016038099,-0.00020048121,0.0016162916514957683,0.00017979843,0.00095533475,0.0001569441,-0.0016086539,3.8480939865112305,102.78512573242188
1779202039.3791897,6.293917894363403,hold-xy,29000,44.25116350041962,0.008129999,0.004209036,0.0,0.009628907,-0.004104005,0.037007537,0.0073160710744559765,0.0031446251086890697,-0.6246393322944641,-0.7808727622032166,77.31248658116247,0.0007903575897216797,131,0.0010523293,-4.839711e-05,0.0010534416391669028,0.0017971413,0.0012813131,0.002207142969287795,-0.0001839115,0.0010372637,0.0016447392,-0.0014718401,3.8480939865112305,102.67081451416016
1779202039.4751332,6.389861345291138,hold-xy,29000,44.25116350041962,0.009019779,0.0031729694,0.0,0.009770555,-0.0041352436,0.036770165,0.005697385873645544,0.011887351982295513,-0.627001941204071,-0.7789061069488525,77.67431671973038,0.01202535629272461,132,0.0011939779,-7.963553e-05,0.00119663071026512,0.0017596558,0.00078628643,0.0019273387503332003,-0.00017707655,0.0011834564,0.0011437933,-0.0015512485,3.8480939865112305,102.67081451416016
1779202039.5781024,6.492830514907837,hold-xy,29000,44.25116350041962,0.012416242,0.0044908253,0.0,0.010212805,-0.0040347446,0.036742553,0.006367809139192104,0.01061332505196333,-0.6277060508728027,-0.7783520817756653,77.77491908823906,0.006287813186645508,133,0.0016362276,2.0863488e-05,0.001636360554989415,0.002452244,0.00082774955,0.0025881788866693387,-0.0003668659,0.0015947055,0.0013282481,-0.002221357,3.842815399169922,102.70305633544922
1779202039.6598194,6.574547529220581,hold-xy,30000,45.777065690089266,0.011780345,0.00855934,0.0,0.010353652,-0.0036602058,0.03702254,0.006413604132831097,0.0019193568732589483,-0.6270279884338379,-0.7789679765701294,77.66265580545154,0.005042552947998047,134,0.0017770743,0.0003954023,0.0018205317978438383,0.0022258868,0.0019337952,0.0029485819356331374,-0.00076597347,0.001651551,0.002364736,-0.0017612949,3.8322582244873047,102.66214752197266
1779202039.7613287,6.676056861877441,hold-xy,31000,47.30296787975891,0.009400264,0.003640343,0.0,0.010176253,-0.0039280895,0.036691748,0.008439814671874046,0.008761981502175331,-0.6287093162536621,-0.7775452136993408,77.918865455479,0.014843940734863281,135,0.001599675,0.00012751855,0.0016047496028261062,0.0009778026,0.0004773407,0.0010880955879113943,-0.00045950082,0.0015375566,0.00067141943,-0.00085624063,3.8375368118286133,102.61380767822266
1779202039.8458989,6.760627031326294,hold-xy,31000,47.30296787975891,0.017406682,0.007758244,0.0,0.010932576,-0.0037258975,0.0371407,0.002605300396680832,-0.003459978848695755,-0.6256564259529114,-0.7800866961479187,77.46169469652376,0.017307519912719727,136,0.0023559984,0.00032971054,0.002378957260526028,0.0034479063,0.001072905,0.0036109809766499464,-0.00083331636,0.002228233,0.0017958313,-0.0031327582,3.8375368118286133,102.61380767822266
1779202039.9289083,6.843636512756348,hold-xy,32000,48.82887006942855,0.029632796,0.007998996,0.0,0.012169655,-0.0038806293,0.037169445,0.004126329440623522,0.000370727211702615,-0.625886082649231,-0.7799034118652344,77.49438760072663,0.005995750427246094,137,0.0035930779,0.00017497875,0.003597336001710789,0.006348213,0.0002588905,0.0063534899529729405,-0.0009488553,0.0034699424,0.0016273601,-0.0061415415,3.8217010498046875,102.61076354980469
1779202040.0111356,6.925863742828369,hold-xy,32000,48.82887006942855,0.050545733,0.017817903,0.0,0.014329214,-0.0034760628,0.037544228,0.00636091735213995,-0.010857265442609787,-0.6238365173339844,-0.7814536690711975,77.20350108382712,0.0050890445709228516,138,0.005752636,0.0005795453,0.005781755446436005,0.012236806,0.0016411563,0.012346368326937735,-0.0018392962,0.0054813945,0.0043107113,-0.011569381,3.8111438751220703,102.47698974609375
1779202040.099352,7.014080047607422,hold-xy,32000,48.82887006942855,0.07078664,0.029569125,0.0,0.01677694,-0.0028253738,0.03870688,0.0068770768120884895,-0.004059963393956423,-0.623553454875946,-0.7817399501800537,77.15266939357178,0.00917196273803711,139,0.008200362,0.0012302343,0.008292130123953757,0.017293785,0.0034690145,0.01763828318306694,-0.0030228198,0.007721527,0.007227513,-0.016089503,3.8111438751220703,102.35089874267578
1779202040.2051365,7.1198647022247314,hold-xy,32000,48.82887006942855,0.102825746,0.05191987,0.0,0.021143425,-0.0012710765,0.042136323,0.004510032944381237,-0.006013057194650173,-0.6230016350746155,-0.7821844816207886,77.07409267181207,0.009267330169677734,140,0.012566848,0.0027845316,0.012871646117635513,0.024499957,0.0068401974,0.02543690594571441,-0.005525061,0.011625532,0.012147284,-0.022349041,3.8111438751220703,102.31878662109375
1779202040.2867787,7.201506853103638,hold-xy,32000,48.82887006942855,0.13487953,0.07852224,0.0,0.025347365,0.00058451854,0.045580335,0.0006822702707722783,-0.002655596239492297,-0.6231144666671753,-0.7821258902549744,77.08852077684978,0.009176015853881836,141,0.016770788,0.0046401266,0.01740086440553459,0.032580394,0.011599039,0.03458351944414678,-0.008270163,0.015309947,0.018585714,-0.029164895,3.8111438751220703,102.47752380371094
1779202040.3925798,7.307307958602905,hold-xy,32000,48.82887006942855,0.16276681,0.09791858,0.0,0.029842854,0.0022328282,0.049625795,0.0015878429403528571,-0.0014254820998758078,-0.6213547587394714,-0.7835265398025513,76.8303893553382,0.021487712860107422,142,0.021266276,0.0062884362,0.022176539711415384,0.037231937,0.01340862,0.039572822939760575,-0.01096824,0.019274248,0.02153869,-0.033197787,3.8111438751220703,102.65752410888672
1779202040.4355514,7.3502795696258545,hold-xy,32000,48.82887006942855,0.21017468,0.12004991,0.0,0.034623686,0.0034096995,0.052535746,0.002076659118756652,-0.0010041606146842241,-0.620269775390625,-0.7843851447105408,76.67167662047652,0.006891965866088867,143,0.026047109,0.0074653076,0.027095805150292772,0.050976645,0.015519048,0.05328657747647851,-0.01326889,0.023624547,0.026852729,-0.04602597,3.8111438751220703,102.65752410888672
1779202040.5203576,7.435085773468018,hold-xy,32000,48.82887006942855,0.23305836,0.11873804,0.0,0.038892284,0.0036551058,0.05424474,0.007843069732189178,0.0038312904071062803,-0.6206568479537964,-0.7840337157249451,76.72986788267475,0.009464740753173828,144,0.030315707,0.007710714,0.03128093812241123,0.051256143,0.011758613,0.05258761399673626,-0.014463567,0.0277363,0.0232101,-0.047188435,3.8111438751220703,102.89916229248047
1779202040.6027992,7.517527341842651,hold-xy,32000,48.82887006942855,0.2582053,0.123526156,0.0,0.043504998,0.0040938947,0.05422107,0.0024289123248308897,0.0025306211318820715,-0.6198594570159912,-0.7847049832344055,76.612491662824,0.009015798568725586,145,0.03492842,0.008149503,0.03586654078032024,0.05257378,0.009819108,0.05348286975017895,-0.016015232,0.032092385,0.021724999,-0.048871685,3.8058650493621826,103.00198364257812
1779202040.704617,7.619345188140869,hold-xy,32000,48.82887006942855,0.27648583,0.11967772,0.0,0.047693323,0.0038909586,0.051827352,0.007438173051923513,0.004438974428921938,-0.6194995045661926,-0.7849493026733398,76.56147746545336,0.019591093063354492,146,0.039116748,0.007946567,0.039915758516338766,0.050572608,0.006206134,0.05095198475437166,-0.016819794,0.036198925,0.017789379,-0.047745604,3.8058650493621826,103.02644348144531
1779202040.893254,7.8079822063446045,hold-xy,34000,51.880674448767834,0.30589116,0.12622601,0.0,0.05538427,0.0039846282,0.045513693,0.006776253692805767,-0.004158976953476667,-0.6164858937263489,-0.7873258590698242,76.12040508097067,0.0022115707397460938,147,0.04680769,0.008040236,0.04749321320871456,0.046600338,0.004480695,0.046815255456911876,-0.019033816,0.04351229,0.015528465,-0.04416486,3.7953078746795654,102.7906265258789
1779202040.9545376,7.869265794754028,hold-xy,34000,51.880674448767834,0.338045,0.14040332,0.0,0.05940789,0.004425466,0.046084,0.0026369565166532993,-0.0007071705185808241,-0.614473283290863,-0.7889330387115479,75.82724024314555,0.007004499435424805,148,0.05083131,0.008481074,0.05153397752007585,0.053988118,0.0054776054,0.0542652848682294,-0.020668793,0.047207538,0.018529676,-0.05100365,3.7794721126556396,102.61746215820312
1779202041.0567353,7.971463441848755,hold-xy,34000,51.880674448767834,0.35339454,0.145258,0.0,0.0638961,0.00468764,0.051766463,0.006383651401847601,-0.0019318613922223449,-0.6130224466323853,-0.7900373935699463,75.61630861297434,0.006497859954833984,149,0.055319518,0.008743248,0.05600619162184086,0.05090177,0.0046001356,0.05110921089559441,-0.022211334,0.05141352,0.01710066,-0.04816346,3.7847506999969482,102.49201965332031
1779202041.1387782,8.05350637435913,hold-xy,35000,53.40657663843748,0.37834972,0.15009454,0.0,0.06846894,0.004751024,0.06291206,0.006928625516593456,0.004152374342083931,-0.6125457882881165,-0.7903938293457031,75.54963007824593,0.00567626953125,150,0.059892364,0.008806632,0.06053637021212408,0.052186623,0.003449568,0.05230050729438658,-0.023473645,0.055800002,0.016363157,-0.049674846,3.7847506999969482,102.49201965332031
1779202041.241162,8.155890226364136,hold-xy,35000,53.40657663843748,0.39397174,0.15950164,0.0,0.072724834,0.005253191,0.0784684,0.005354391410946846,0.006379998289048672,-0.6111183166503906,-0.7914954423904419,75.3455437277257,0.01589179039001465,151,0.064148255,0.009308799,0.0648201549068805,0.050383195,0.004049209,0.05054564795486094,-0.025234777,0.059706435,0.01666388,-0.04771978,3.7689149379730225,102.53314208984375
1779202041.3021173,8.216845512390137,hold-xy,35000,53.40657663843748,0.40439874,0.15671141,0.0,0.07574223,0.0052068764,0.094577625,0.008911516517400742,-0.003022913821041584,-0.6132705807685852,-0.7898167967796326,75.6520021168327,0.0022051334381103516,152,0.06716565,0.0092624845,0.06780131272467396,0.047395717,0.0026482989,0.04746964888823449,-0.025617938,0.06277531,0.014310859,-0.045261096,3.7689149379730225,102.930419921875
1779202041.4044924,8.319220542907715,hold-xy,35000,53.40657663843748,0.40457124,0.15889299,0.0,0.0783959,0.0057520894,0.1142614,0.006685689091682434,-0.004064678680151701,-0.6153388619422913,-0.7882238626480103,75.95350960333381,0.0024394989013671875,153,0.06981932,0.0098076975,0.07050481298517619,0.040971175,0.0034551686,0.04111660578055466,-0.026460225,0.06535125,0.013295935,-0.038907498,3.7689149379730225,103.46660614013672
1779202041.4870682,8.401796340942383,hold-xy,35000,53.40657663843748,0.41140103,0.15887818,0.0,0.080707245,0.005852582,0.13528873,0.004796809516847134,0.004388331435620785,-0.6161818504333496,-0.7875770926475525,76.07795845151992,0.01400303840637207,154,0.072130665,0.00990819,0.07280799915765351,0.03844437,0.0028431609,0.038549359375191744,-0.02697187,0.067627825,0.012009411,-0.03663096,3.7689149379730225,103.98332977294922
1779202041.5743244,8.489052534103394,hold-xy,35000,53.40657663843748,0.4047099,0.14859352,0.0,0.08185238,0.0054152934,0.15054524,0.0067113349214196205,0.0070306360721588135,-0.6173886060714722,-0.786598265171051,76.25715013334735,0.017705678939819336,155,0.0732758,0.009470901,0.07388531926821518,0.031022668,0.000420123,0.03102551235406834,-0.026607506,0.068928085,0.0077779857,-0.030034736,3.7689149379730225,104.30256652832031
1779202041.6578343,8.572562456130981,hold-xy,35000,53.40657663843748,0.39338568,0.1376382,0.0,0.08225231,0.004863796,0.16416778,0.008018950931727886,0.009187436662614346,-0.6182262301445007,-0.7859055995941162,76.38324988245857,0.019086599349975586,156,0.07367573,0.008919404,0.07421367088305461,0.023176735,-0.0017204189,0.023240502029901876,-0.0260139,0.069505006,0.0037843501,-0.022930322,3.7689149379730225,104.5157470703125
1779202041.7190428,8.633770942687988,hold-xy,35000,53.40657663843748,0.3769946,0.12663743,0.0,0.08191173,0.004241554,0.17578243,0.005299403332173824,0.004039132036268711,-0.6177958250045776,-0.7863103151321411,76.31262779795352,0.009074687957763672,157,0.07333515,0.008297162,0.07380302913450534,0.014789092,-0.0038253476,0.015275815524194887,-0.02541439,0.069289215,-0.00021725846,-0.01527427,3.7689149379730225,104.5157470703125
1779202041.8203278,8.735055923461914,hold-xy,35000,53.40657663843748,0.3518455,0.103589654,0.0,0.08007608,0.0026720017,0.18721317,0.008689848706126213,-0.00066710717510432,-0.618607223033905,-0.7856520414352417,76.42808481909293,0.017592906951904297,158,0.071499504,0.00672761,0.07181531848763213,0.0044160434,-0.0077535454,0.008922942628251732,-0.023318227,0.06792422,-0.0065007424,-0.006112221,3.7689149379730225,104.65850830078125
1779202041.902419,8.817147254943848,hold-xy,35000,53.40657663843748,0.32082292,0.073694214,0.0,0.077092245,0.00052257255,0.19325644,0.0054208384826779366,0.004933306947350502,-0.6204586029052734,-0.7842049598693848,76.70212267344813,0.008292436599731445,159,0.068515666,0.0045781806,0.06866845352949599,-0.006703429,-0.012483134,0.0141691423956928,-0.020214967,0.06562554,-0.01369031,0.0036524008,3.7689149379730225,104.79003143310547
1779202042.00576,8.920488119125366,hold-xy,35000,53.40657663843748,0.28966138,0.042632483,0.0,0.07326126,-0.0022019912,0.19550379,0.005702492780983448,0.00024058287090156227,-0.621968686580658,-0.7830213308334351,76.91978950797258,0.008299827575683594,160,0.06468468,0.0018536169,0.06471123814400728,-0.015814599,-0.016648207,0.022962236770349944,-0.01644463,0.06258689,-0.019795336,0.011636539,3.7689149379730225,104.85637664794922
1779202042.088189,9.002917051315308,hold-xy,35000,53.40657663843748,0.24992104,0.006909199,0.0,0.068700045,-0.005077217,0.19403917,0.006203896831721067,-0.0003531570255290717,-0.6225427985191345,-0.7825610637664795,77.00368493528053,0.008800268173217773,161,0.060123466,-0.0010216087,0.060132146393891785,-0.027772158,-0.022182044,0.035543435580102346,-0.012525629,0.05881312,-0.027859475,0.022072278,3.763636350631714,104.91609191894531
1779202042.1897817,9.104509830474854,hold-xy,35000,53.40657663843748,0.21371938,-0.025047682,0.0,0.0634652,-0.00831851,0.18854004,0.009609375149011612,0.0007875022711232305,-0.6217935681343079,-0.7831218242645264,76.8937647472937,0.015471696853637695,162,0.05488862,-0.004262902,0.05505391182196733,-0.0359853,-0.025771573,0.04426189933183182,-0.008294538,0.05442549,-0.033260185,0.029204033,3.7583577632904053,104.9376220703125
1779202042.2715757,9.186303853988647,hold-xy,35000,53.40657663843748,0.17266223,-0.060851846,0.0,0.057334915,-0.011979861,0.17909059,0.007852238602936268,0.0020304208155721426,-0.61929851770401,-0.7851136922836304,76.5300451097789,0.004556179046630859,163,0.048758335,-0.007924253,0.04939806664192054,-0.04502678,-0.029887915,0.05404348380405512,-0.0036512697,0.04926294,-0.039554097,0.036826238,3.763636350631714,104.93119049072266
1779202042.3528562,9.267584323883057,hold-xy,35000,53.40657663843748,0.119973645,-0.101421304,0.0,0.050206225,-0.015649911,0.16648223,0.009035163559019566,0.003875745926052332,-0.6187227964401245,-0.7855479121208191,76.44744478739746,0.0039675235748291016,164,0.04162965,-0.011594303,0.043214067884885465,-0.05764101,-0.034370016,0.06711023942415087,0.0015160888,0.043187466,-0.04692043,0.047981843,3.763636350631714,104.93119049072266
1779202042.4554245,9.370152711868286,hold-xy,35000,53.40657663843748,0.074957706,-0.13243535,0.0,0.042268366,-0.019372324,0.15161924,0.010503011755645275,0.0036914381198585033,-0.6176333427429199,-0.7863873839378357,76.28827588737394,0.0037407875061035156,165,0.033691786,-0.015316715,0.03700997504502652,-0.06351477,-0.0349226,0.07248250532360043,0.006894001,0.03636222,-0.048982676,0.053426694,3.7583577632904053,104.81755828857422
1779202042.559941,9.474669218063354,hold-xy,35000,53.40657663843748,0.012798309,-0.16863865,0.0,0.032954752,-0.022978572,0.13329326,0.007323313504457474,0.0012721340171992779,-0.6179414391517639,-0.786189079284668,76.33177161923645,0.015712738037109375,166,0.024378175,-0.018922964,0.03086055665832104,-0.074652106,-0.036136128,0.08293827173273564,0.012626525,0.028159276,-0.05275301,0.063999034,3.7583577632904053,104.77916717529297
1779202042.6447694,9.559497594833374,hold-xy,35000,53.40657663843748,-0.022969075,-0.18540081,0.0,0.025655001,-0.025584862,0.118143566,0.008356189355254173,0.0007693939842283726,-0.618855357170105,-0.7854601740837097,76.46468437437996,0.0065577030181884766,167,0.017078424,-0.021529254,0.02748056228041576,-0.075557664,-0.033614703,0.0826976957639952,0.016934182,0.021642892,-0.05036495,0.06559177,3.7583577632904053,104.77916717529297
1779202042.7061257,9.620853900909424,hold-xy,35000,53.40657663843748,-0.082287565,-0.21353275,0.0,0.018112443,-0.02790017,0.10333266,0.008493715897202492,-0.005048218183219433,-0.618855893611908,-0.7854424118995667,76.46592590016239,0.004948139190673828,168,0.009535866,-0.023844562,0.025680653055622924,-0.088826776,-0.03456155,0.09531367625620714,0.020950802,0.014851254,-0.054389365,0.07827192,3.7583577632904053,104.68950653076172
1779202042.7875576,9.702285766601562,hold-xy,35000,53.40657663843748,-0.13028353,-0.23231956,0.0,0.010324415,-0.030075066,0.08930093,0.008189082145690918,-0.0028210545424371958,-0.6211535930633545,-0.7836409211158752,76.80035431405908,0.01367640495300293,169,0.0017478373,-0.026019458,0.026078096380040924,-0.09431482,-0.033167448,0.09997682489132817,0.024932923,0.007643069,-0.05382748,0.08424944,3.7583577632904053,104.55303192138672
1779202042.8688865,9.78361463546753,hold-xy,35000,53.40657663843748,-0.16789967,-0.24683379,0.0,0.0026047379,-0.032213606,0.078301005,0.004343817941844463,-0.006873542908579111,-0.6229690313339233,-0.7822043299674988,77.07038659639444,0.013706684112548828,170,-0.0059718397,-0.028157998,0.028784296126126107,-0.09450676,-0.031108642,0.09949510227841755,0.028780293,0.0004800344,-0.05146616,0.08514992,3.7583577632904053,104.31377410888672
1779202042.952218,9.86694622039795,hold-xy,35000,53.40657663843748,-0.21958181,-0.269954,0.0,-0.006480824,-0.034627758,0.06897785,0.006951653398573399,-0.013111960142850876,-0.6231207847595215,-0.781984806060791,77.10340979359708,0.015306472778320312,171,-0.015057402,-0.03057215,0.03407905102409124,-0.09950367,-0.030637296,0.10411351655957751,0.033161644,-0.007854109,-0.05207289,0.09015564,3.7583577632904053,104.31377410888672
1779202043.0339456,9.948673725128174,hold-xy,35000,53.40657663843748,-0.26366544,-0.29698515,0.0,-0.015946124,-0.03777438,0.06559762,0.009955987334251404,-0.016977684572339058,-0.6242743730545044,-0.7809572219848633,77.28194694399703,0.0034110546112060547,172,-0.024522701,-0.033718772,0.041693146618638745,-0.09998264,-0.031528965,0.10483608519141982,0.03829025,-0.016497735,-0.05276694,0.090588376,3.7583577632904053,104.08889770507812
1779202043.137106,10.051834106445312,hold-xy,35000,53.40657663843748,-0.294089,-0.31003854,0.0,-0.024090756,-0.040008157,0.0681232,0.014642721973359585,-0.017584193497896194,-0.6246801614761353,-0.7805454134941101,77.34027610380218,0.011820793151855469,173,-0.03266733,-0.03595255,0.048577159613105395,-0.095775425,-0.029142873,0.10011113704061302,0.042237885,-0.023993777,-0.049424555,0.08706005,3.7530791759490967,103.78331756591797
1779202043.2211015,10.13582968711853,hold-xy,35000,53.40657663843748,-0.32605705,-0.31952244,0.0,-0.032000884,-0.04179304,0.07595042,0.009354596957564354,-0.005852916743606329,-0.625481128692627,-0.7801612615585327,77.43626959970872,0.0023543834686279297,174,-0.040577464,-0.037737433,0.05541339701418705,-0.092433214,-0.02612924,0.09605538486260146,0.04566043,-0.03139697,-0.04561014,0.0845361,3.7583577632904053,103.54890441894531
1779202043.3232505,10.23797869682312,hold-xy,35000,53.40657663843748,-0.35793203,-0.31940353,0.0,-0.0394758,-0.042637177,0.08804111,0.006773239001631737,-0.004547182936221361,-0.6264873743057251,-0.7793888449668884,77.58377612994032,0.012159109115600586,175,-0.048052378,-0.03858157,0.06162441383763964,-0.0889871,-0.021032821,0.09143895517809246,0.048011035,-0.038633008,-0.039674178,0.082383506,3.7583577632904053,103.50260162353516
1779202043.4055247,10.320252895355225,hold-xy,35000,53.40657663843748,-0.38558108,-0.3147022,0.0,-0.04640138,-0.04282388,0.10225254,0.00347073283046484,-0.006276465952396393,-0.6265195608139038,-0.7793726921081543,77.59097574645735,0.0015299320220947266,176,-0.05497796,-0.038768273,0.06727224760428592,-0.08465479,-0.015325872,0.08603090390490148,0.049676754,-0.045362707,-0.033159234,0.07938376,3.7530791759490967,103.59601593017578
1779202043.509749,10.424477100372314,hold-xy,35000,53.40657663843748,-0.40158385,-0.30949944,0.0,-0.05210564,-0.042945936,0.116995886,0.002839157124981284,-0.007877429947257042,-0.6271107792854309,-0.7788851261138916,77.6802735719543,0.011844873428344727,177,-0.060682215,-0.03889033,0.07207488327212082,-0.077481024,-0.0111180255,0.07827464315664484,0.050942335,-0.05098693,-0.027393878,0.07332458,3.7530791759490967,103.93576049804688
1779202043.59111,10.50583815574646,hold-xy,35000,53.40657663843748,-0.40321296,-0.30457672,0.0,-0.05617594,-0.043071635,0.13050024,0.0008198295254260302,-0.006715737283229828,-0.6270678043365479,-0.7789352536201477,77.67270345920397,0.0017600059509277344,178,-0.06475252,-0.039016027,0.07559853973605675,-0.06758986,-0.008194989,0.06808484674609755,0.051940866,-0.054929826,-0.022436198,0.0642819,3.7530791759490967,104.23931121826172
1779202043.672373,10.587101221084595,hold-xy,35000,53.40657663843748,-0.39444637,-0.30036348,0.0,-0.05873546,-0.043225367,0.14127462,0.005200686864554882,-0.014022973366081715,-0.6262970566749573,-0.7794409990310669,77.5728938546466,0.0007064342498779297,179,-0.06731204,-0.03916976,0.0778792718946766,-0.05664098,-0.0062967613,0.05698990825778226,0.052737407,-0.05730573,-0.01833822,0.05395887,3.7530791759490967,104.43339538574219
1779202043.7587948,10.67352294921875,hold-xy,35000,53.40657663843748,-0.37695697,-0.29351234,0.0,-0.06001298,-0.04333752,0.15108478,0.004370368085801601,-0.01204714272171259,-0.6267655491828918,-0.7791024446487427,77.63711556098474,0.00014662742614746094,180,-0.06858956,-0.039281912,0.07904174096784851,-0.044054866,-0.0047945515,0.044314996462405616,0.053056218,-0.058588687,-0.014115633,0.04200676,3.7530791759490967,104.41246795654297
1779202043.8473802,10.762108325958252,hold-xy,35000,53.40657663843748,-0.35251603,-0.28488845,0.0,-0.060094763,-0.04326804,0.15737765,0.005135229788720608,-0.011833596974611282,-0.6262853145599365,-0.7794871926307678,77.5656982997966,0.0004684925079345703,181,-0.06867134,-0.03921243,0.07907823819207195,-0.031116374,-0.0031200282,0.03127240517720924,0.05307896,-0.05861733,-0.009746822,0.02971469,3.7530791759490967,104.41246795654297
1779202043.929358,10.844086170196533,hold-xy,35000,53.40657663843748,-0.32086852,-0.27744862,0.0,-0.059051864,-0.043386288,0.16149952,0.0004435536975506693,-0.0047881039790809155,-0.6265195608139038,-0.7793908715248108,77.58989728202899,0.010589122772216797,182,-0.06762844,-0.03933068,0.07823367904359627,-0.017427415,-0.0026776993,0.017631926917953518,0.052945558,-0.057595804,-0.0063604163,0.016444754,3.7530791759490967,104.44920349121094
1779202044.0117972,10.926525354385376,hold-xy,35000,53.40657663843748,-0.282378,-0.27293482,0.0,-0.056781605,-0.043764405,0.16373554,0.0006577170570380986,-0.011997574009001255,-0.6254125237464905,-0.7802017331123352,77.43940459906702,0.009016752243041992,183,-0.065358184,-0.039708797,0.07647536109220691,-0.004092237,-0.0032246215,0.0052100468208287195,0.052972004,-0.055158384,-0.0040373923,0.0032930304,3.747800588607788,104.49761962890625
1779202044.0730865,10.987814664840698,hold-xy,35000,53.40657663843748,-0.21762156,-0.2666879,0.0,-0.05264672,-0.044381425,0.1643302,-0.0014393141027539968,-0.0019529741257429123,-0.6244432926177979,-0.7810664176940918,77.2831150458393,0.009581327438354492,184,-0.0612233,-0.040325817,0.07331073414402728,0.017563121,-0.0053055147,0.018346981515907794,0.052813925,-0.0508444,-0.0013091343,-0.018300217,3.747800588607788,104.53633117675781
1779202044.184951,11.099679231643677,hold-xy,35000,53.40657663843748,-0.15812385,-0.26805803,0.0,-0.046260457,-0.045901738,0.1620711,-0.00046769040636718273,-0.004175195936113596,-0.6211090087890625,-0.7837129831314087,76.79614471800767,0.01013636589050293,185,-0.054837033,-0.04184613,0.06897969806797305,0.029506354,-0.0078113894,0.030522822883057566,0.053265546,-0.043828994,-0.0008651493,-0.030510562,3.747800588607788,104.56600952148438
1779202044.3511088,11.265836954116821,hold-xy,35000,53.40657663843748,-0.019414157,-0.27063817,0.0,-0.028987087,-0.050284836,0.14922263,0.006654336582869291,-0.009991515427827835,-0.6148385405540466,-0.7885616421699524,75.88804594327009,0.008305788040161133,186,-0.037563667,-0.04622923,0.059566521133090924,0.0515019,-0.013295479,0.053190370268761125,0.05399276,-0.02515855,-0.00033717882,-0.0531893,3.747800588607788,104.55535888671875
1779202044.4580646,11.372792720794678,hold-xy,35000,53.40657663843748,0.064878345,-0.26587874,0.0,-0.018786486,-0.052458003,0.13969758,0.007259931415319443,-0.00824087392538786,-0.6124950647354126,-0.790398120880127,75.54475150482672,0.015202522277832031,187,-0.027363064,-0.048402395,0.05560151986885232,0.06663508,-0.015822489,0.06848784704086505,0.05370059,-0.014414441,0.001312104,-0.068475276,3.7425220012664795,104.5633316040039
1779202044.541829,11.456557273864746,hold-xy,35000,53.40657663843748,0.16136244,-0.25696722,0.0,-0.007909867,-0.054505594,0.12915134,0.009825614280998707,-0.00749775068834424,-0.6109236478805542,-0.7915931940078735,75.31501935201662,0.0174863338470459,188,-0.016486444,-0.050449986,0.05307545341208972,0.08669066,-0.018614668,0.0886666529541988,0.05298138,-0.0031586094,0.0039698537,-0.08857774,3.7425220012664795,104.5633316040039
1779202044.622913,11.537641048431396,hold-xy,35000,53.40657663843748,0.24063233,-0.23493639,0.0,0.0035985392,-0.055468746,0.11834677,0.008824286982417107,-0.006559376139193773,-0.6083357930183411,-0.7936035990715027,74.94019215222889,0.006316184997558594,189,-0.0049780384,-0.051413137,0.0516535725932415,0.09810758,-0.016162334,0.09942996473102132,0.05094079,0.008551462,0.0098837735,-0.098937504,3.7425220012664795,104.51136779785156
1779202044.725629,11.640357255935669,hold-xy,35000,53.40657663843748,0.30781057,-0.21141934,0.0,0.015429277,-0.055952713,0.107835315,0.006233979482203722,-0.003038473892956972,-0.6069866418838501,-0.7946818470954895,74.74376708138222,0.007214069366455078,190,0.0068526994,-0.051897105,0.05234757710102088,0.10353368,-0.012739607,0.10431452380383327,0.04826499,0.020267207,0.01495281,-0.10323727,3.7425220012664795,104.4172134399414
1779202044.807674,11.722402095794678,hold-xy,35000,53.40657663843748,0.36800492,-0.18939352,0.0,0.025630243,-0.05617761,0.09997389,0.0055483123287558556,-0.005401069298386574,-0.6062794923782349,-0.7952139377593994,74.64355932753973,0.007097721099853516,191,0.017053666,-0.052122,0.054840956114793706,0.10972096,-0.0097389,0.1101523263381289,0.045744885,0.030247908,0.01966545,-0.10838268,3.737243413925171,104.40160369873047
