wall_time_s,elapsed_s,mode,thrust_raw,thrust_percent,roll_cmd_deg,pitch_cmd_deg,yawrate_cmd_deg_s,target_x,target_y,target_error_x_m,target_error_y_m,target_error_m,figure8_active,mocap_x,mocap_y,mocap_z,mocap_qx,mocap_qy,mocap_qz,mocap_qw,yaw_deg,mocap_age_s,mocap_frame_count,drift_x_m,drift_y_m,horizontal_drift_m,velocity_x_m_s,velocity_y_m_s,horizontal_speed_m_s,body_error_x_m,body_error_y_m,body_velocity_x_m_s,body_velocity_y_m_s,battery_v,estimate_z
1779209496.7288253,0.0008199214935302734,hold-xy,0,0.0,0.0,0.0,0.0,0.006765196,0.0015136264,0.0,0.0,0.0,0,0.006765196,0.0015136264,0.037173446,0.010963394306600094,0.001830346300266683,-0.6238239407539368,-0.7814858555793762,77.19147107029245,0.1102762222290039,49,0.0,0.0,0.0,0.0,0.0,0.0,0.0,0.0,0.0,0.0,4.03812313079834,111.71116638183594
1779209496.8118954,0.08388996124267578,hold-xy,0,0.0,-0.0008040167,-0.00014999017,0.0,0.006765196,0.0015136264,-4.1352585e-05,1.78786e-05,4.50519771572399e-05,0,0.0067238435,0.001531505,0.037174817,0.010806501843035221,0.00298218778334558,-0.623781144618988,-0.7815186381340027,77.18610294623336,0.009394407272338867,51,-4.1352585e-05,1.78786e-05,4.50519771572399e-05,-6.744034e-05,2.9157522e-05,7.347353856617521e-05,-8.26196e-06,-4.4287928e-05,1.3474113e-05,7.2227485e-05,4.03812313079834,111.72224426269531
1779209496.913903,0.1858975887298584,hold-xy,0,0.0,-0.00082003674,5.7677767e-05,0.0,0.006765196,0.0015136264,-4.802458e-05,1.1517666e-05,4.938640264618686e-05,0,0.0067171715,0.0015251441,0.037193563,0.010559510439634323,0.0033032363280653954,-0.6238017678260803,-0.7815042734146118,77.18945277391022,0.007289409637451172,52,-4.802458e-05,1.1517666e-05,4.938640264618686e-05,-6.643356e-05,2.0812695e-06,6.646615470746686e-05,-5.825814e-07,-4.938297e-05,-1.2700716e-05,6.524141e-05,4.03812313079834,111.71823120117188
1779209496.9963112,0.26830577850341797,hold-xy,0,0.0,-0.0004704165,0.0010676627,0.0,0.006765196,0.0015136264,-4.7402456e-05,-2.5887042e-05,5.401047925537656e-05,0,0.0067177936,0.0014877394,0.037186533,0.010584721341729164,0.0027679901104420424,-0.623928427696228,-0.7814048528671265,77.20754644800395,0.007839202880859375,53,-4.7402456e-05,-2.5887042e-05,5.401047925537656e-05,-4.4223492e-05,-0.00013562634,0.00014265420100311179,3.5740344e-05,-4.0493946e-05,-0.00014205187,1.3095409e-05,4.03812313079834,111.70870208740234
1779209497.0779228,0.3499174118041992,hold-xy,0,0.0,-0.00023439538,2.5922094e-05,0.0,0.006765196,0.0015136264,-3.349036e-05,9.2573464e-07,3.350315095700555e-05,0,0.0067317057,0.0015145522,0.037168298,0.010908029973506927,0.0021267274860292673,-0.6236838102340698,-0.7815977334976196,77.17113747523533,0.007738590240478516,54,-3.349036e-05,9.2573464e-07,3.350315095700555e-05,2.0120708e-05,3.5025441e-06,2.0423288351412572e-05,6.533563e-06,-3.285991e-05,7.882708e-06,-1.8840743e-05,4.03812313079834,111.70297241210938
1779209497.1604784,0.43247294425964355,hold-xy,0,0.0,-0.00031906576,-0.000119665056,0.0,0.006765196,0.0015136264,-3.4198165e-05,6.7725778e-06,3.48623326714468e-05,0,0.006730998,0.001520399,0.0371806,0.010780292563140392,0.003434445708990097,-0.6237586140632629,-0.7815351486206055,77.18322256827898,0.008693933486938477,55,-3.4198165e-05,6.7725778e-06,3.48623326714468e-05,1.1482276e-05,2.3947478e-05,2.6557943340504636e-05,9.824817e-07,-3.4848486e-05,2.5897973e-05,-5.8838227e-06,4.03812313079834,111.70297241210938
1779209497.2426038,0.5145983695983887,hold-xy,0,0.0,-0.00041162496,-0.00027283537,0.0,0.006765196,0.0015136264,-3.5459176e-05,1.34008005e-05,3.790691983438564e-05,0,0.006729737,0.0015270272,0.037172895,0.0107304397970438,0.003045277204364538,-0.6238568425178528,-0.7814590334892273,77.19726867925014,0.019518613815307617,56,-3.5459176e-05,1.34008005e-05,3.790691983438564e-05,2.7318524e-06,4.465168e-05,4.473516960533334e-05,-5.210064e-06,-3.7547168e-05,4.4146946e-05,7.230653e-06,4.03812313079834,111.71195983886719
1779209497.3078938,0.5798883438110352,hold-xy,0,0.0,-0.0006933686,2.7086986e-05,0.0,0.006765196,0.0015136264,-4.6817586e-05,7.919036e-06,4.748260333754677e-05,0,0.0067183785,0.0015215455,0.0371757,0.010743900202214718,0.0025600576773285866,-0.6236305236816406,-0.7816412448883057,77.16367814206508,0.008558511734008789,57,-4.6817586e-05,7.919036e-06,4.748260333754677e-05,-4.2776486e-05,9.688596e-06,4.3859965063822145e-05,2.6801772e-06,-4.74069e-05,-5.7042598e-08,4.385993e-05,4.03812313079834,111.74913787841797
1779209497.3737366,0.6457312107086182,hold-xy,0,0.0,-0.00050744636,0.0003172878,0.0,0.006765196,0.0015136264,-4.511699e-05,-2.0805746e-06,4.5164937783241825e-05,0,0.006720079,0.0015115459,0.037187595,0.01082287635654211,0.002896553836762905,-0.6237642765045166,-0.7815322279930115,77.18355330127399,0.002948760986328125,58,-4.511699e-05,-2.0805746e-06,4.5164937783241825e-05,-2.2803444e-05,-3.520221e-05,4.19427309604089e-05,1.2036969e-05,-4.3531403e-05,-3.9383627e-05,1.4426463e-05,4.03812313079834,111.72130584716797
1779209497.4749618,0.7469563484191895,hold-xy,0,0.0,-0.0009162814,-2.9143164e-05,0.0,0.006765196,0.0015136264,-5.918555e-05,1.2764707e-05,6.054640322377938e-05,0,0.0067060106,0.0015263911,0.037161782,0.010387593880295753,0.004749254789203405,-0.6237598657608032,-0.7815327048301697,77.1848983732308,0.006169795989990234,59,-5.918555e-05,1.2764707e-05,6.054640322377938e-05,-5.9027625e-05,2.080129e-05,6.258557239781931e-05,6.809314e-07,-6.0542574e-05,7.190496e-06,6.217114e-05,4.03812313079834,111.70973205566406
1779209497.5773551,0.8493497371673584,hold-xy,0,0.0,-0.0010531882,0.0005377182,0.0,0.006765196,0.0015136264,-7.236004e-05,-5.846843e-06,7.259587283204543e-05,0,0.006692836,0.0015077796,0.037190415,0.010215549729764462,0.003998142201453447,-0.6237962245941162,-0.7815101742744446,77.18938191027539,0.017075061798095703,60,-7.236004e-05,-5.846843e-06,7.259587283204543e-05,-8.451999e-05,-4.6468493e-05,9.645179895594925e-05,2.174564e-05,-6.926246e-05,-6.4052365e-05,7.2112714e-05,4.03812313079834,111.70411682128906
1779209497.6644304,0.936424970626831,hold-xy,0,0.0,2.0942127e-05,0.0005687851,0.0,0.006765196,0.0015136264,-3.793277e-05,-1.8587336e-05,4.224196934226546e-05,0,0.0067272633,0.0014950391,0.037173275,0.010436123237013817,0.0037067572120577097,-0.6238774061203003,-0.7814437747001648,77.2009537984056,0.013483047485351562,61,-3.793277e-05,-1.8587336e-05,4.224196934226546e-05,5.474905e-05,-7.468372e-05,9.260192076087857e-05,2.6528829e-05,-3.2872562e-05,-6.069937e-05,-6.993355e-05,4.03812313079834,111.70411682128906
1779209497.7675347,1.0395293235778809,hold-xy,0,0.0,-0.0008619685,0.00031406913,0.0,0.006765196,0.0015136264,-6.647967e-05,-5.479902e-06,6.670513754442625e-05,0,0.0066987164,0.0015081465,0.037151262,0.010122053325176239,0.004741093143820763,-0.6239840388298035,-0.7813571095466614,77.21777820901367,0.01858210563659668,62,-6.647967e-05,-5.479902e-06,6.670513754442625e-05,-4.905942e-05,-1.21559715e-05,5.05429947061296e-05,2.0052454e-05,-6.3619766e-05,-2.2708919e-05,4.5154175e-05,4.03812313079834,111.65345001220703
1779209497.8490734,1.121068000793457,hold-xy,0,0.0,-0.00084274856,-0.0008467953,0.0,0.006765196,0.0015136264,-5.8809295e-05,3.653206e-05,6.92323953356929e-05,0,0.006706387,0.0015501585,0.037160877,0.010302145034074783,0.004625655710697174,-0.6237249374389648,-0.7815622687339783,77.17963232178478,0.008778810501098633,63,-5.8809295e-05,3.653206e-05,6.92323953356929e-05,-9.149322e-06,0.00012947328,0.00012979615208280403,-2.257184e-05,-6.5449494e-05,0.00012421538,3.7650723e-05,4.03812313079834,111.63920593261719
1779209497.9351234,1.207118034362793,hold-xy,0,0.0,-0.00042327825,3.721452e-05,0.0,0.006765196,0.0015136264,-5.128421e-05,7.7812e-06,5.187116043167614e-05,0,0.006713912,0.0015214076,0.037176207,0.010710964910686016,0.003250397741794586,-0.6237204670906067,-0.7815672755241394,77.17746298597802,0.0037136077880859375,64,-5.128421e-05,7.7812e-06,5.187116043167614e-05,1.8372079e-05,-4.031892e-06,1.8809291379176953e-05,3.794456e-06,-5.1732186e-05,1.46008e-07,-1.8808725e-05,4.03812313079834,111.62284088134766
1779209498.0383658,1.3103604316711426,hold-xy,0,0.0,4.6654022e-06,0.00027998944,0.0,0.006765196,0.0015136264,-3.597699e-05,-5.4407865e-06,3.638606964061126e-05,0,0.006729219,0.0015081856,0.037180886,0.010850719176232815,0.0027996390126645565,-0.6238322854042053,-0.7814779877662659,77.19343890388946,0.010463476181030273,65,-3.597699e-05,-5.4407865e-06,3.638606964061126e-05,6.0451348e-05,-4.3930133e-05,7.472765200192031e-05,1.3280107e-05,-3.3876022e-05,-2.9437673e-05,-6.868512e-05,4.03812313079834,111.69976043701172
1779209498.1401165,1.4121110439300537,hold-xy,0,0.0,-6.536525e-05,0.00024112563,0.0,0.006765196,0.0015136264,-3.4717843e-05,-5.947426e-06,3.522357935111501e-05,0,0.0067304783,0.001507679,0.037166268,0.010989773087203503,0.0018225841922685504,-0.6238295435905457,-0.7814810872077942,77.19228378187422,0.009605884552001953,66,-3.4717843e-05,-5.947426e-06,3.522357935111501e-05,4.5997367e-05,-3.2232376e-05,5.616657233162668e-05,1.3495696e-05,-3.2535623e-05,-2.1233733e-05,-5.19982e-05,4.03812313079834,111.73206329345703
1779209498.222071,1.494065523147583,hold-xy,0,0.0,-0.0006133588,0.00047306577,0.0,0.006765196,0.0015136264,-5.3202733e-05,-1.1433847e-05,5.4417494234056036e-05,0,0.0067119934,0.0015021926,0.037207033,0.01032276637852192,0.00356603623367846,-0.6239874362945557,-0.781358003616333,77.21695920560046,0.007991552352905273,67,-5.3202733e-05,-1.1433847e-05,5.4417494234056036e-05,-3.4159944e-05,-4.2258125e-05,5.4338301524593956e-05,2.2922086e-05,-4.9354247e-05,-4.876898e-05,2.396326e-05,4.03812313079834,111.72563934326172
1779209498.3238351,1.595829725265503,hold-xy,0,0.0,-0.0002308014,-0.00022354038,0.0,0.006765196,0.0015136264,-3.511645e-05,8.753501e-06,3.6191004862372914e-05,0,0.0067300797,0.0015223799,0.03719059,0.010662704706192017,0.0035659088753163815,-0.6238321661949158,-0.7814773917198181,77.19414970064732,0.01785731315612793,68,-3.511645e-05,8.753501e-06,3.6191004862372914e-05,3.5130237e-05,3.6320373e-05,5.0530217716150805e-05,-7.5227945e-07,-3.6183184e-05,4.3203516e-05,-2.6206093e-05,4.03812313079834,111.72954559326172
1779209498.4061244,1.6781189441680908,hold-xy,0,0.0,1.6776117e-05,0.00024883263,0.0,0.006765196,0.0015136264,-2.846308e-05,-7.4412674e-06,2.9419711655645787e-05,0,0.006736733,0.0015061852,0.037175693,0.01098661683499813,0.0019823561888188124,-0.623820960521698,-0.7814875245094299,77.19113112090886,0.018920421600341797,69,-2.846308e-05,-7.4412674e-06,2.9419711655645787e-05,4.9164675e-05,-3.43894e-05,5.9998300116159996e-05,1.3566341e-05,-2.6105054e-05,-2.2633842e-05,-5.5565328e-05,4.03812313079834,111.70809173583984
1779209498.4888325,1.7608270645141602,hold-xy,0,0.0,-0.00044224385,-0.00013041992,0.0,0.006765196,0.0015136264,-3.9467588e-05,8.502975e-06,4.037314877564426e-05,0,0.0067257285,0.0015221294,0.03716016,0.010557848028838634,0.0035521367099136114,-0.6238932013511658,-0.781430184841156,77.20309890611102,0.009808063507080078,70,-3.9467588e-05,8.502975e-06,4.037314877564426e-05,-1.5391524e-06,2.8021172e-05,2.806341170828865e-05,4.5013167e-07,-4.037064e-05,2.6984248e-05,7.707493e-06,4.03812313079834,111.71317291259766
1779209498.5729442,1.8449387550354004,hold-xy,0,0.0,-0.00034638858,5.3592285e-05,0.0,0.006765196,0.0015136264,-3.7811697e-05,3.291294e-06,3.7954670424274354e-05,0,0.0067273844,0.0015169177,0.037202593,0.010733994655311108,0.002397479023784399,-0.6239089965820312,-0.781419575214386,77.20438029456724,0.0205380916595459,71,-3.7811697e-05,3.291294e-06,3.7954670424274354e-05,5.692234e-06,-1.6916547e-06,5.938284800067335e-06,5.1647467e-06,-3.7601625e-05,-3.8896303e-07,-5.9255317e-06,4.03812313079834,111.75237274169922
1779209498.640128,1.9121224880218506,hold-xy,0,0.0,-0.0004482548,0.0007290641,0.0,0.006765196,0.0015136264,-4.5882538e-05,-1.8102117e-05,4.9324374160758336e-05,0,0.0067193136,0.0014955243,0.037177064,0.010647023096680641,0.0034292880445718765,-0.6236472725868225,-0.7816258668899536,77.16691239604319,0.012099742889404297,72,-4.5882538e-05,-1.8102117e-05,4.9324374160758336e-05,-2.8033233e-05,-8.605385e-05,9.050484455475198e-05,2.7840993e-05,-4.071576e-05,-9.013084e-05,8.21944e-06,4.03812313079834,111.75237274169922
1779209498.726967,1.9989616870880127,hold-xy,0,0.0,-0.0002958339,0.0005528423,0.0,0.006765196,0.0015136264,-4.0605664e-05,-1.7790124e-05,4.433179852539783e-05,0,0.0067245904,0.0014958363,0.03717334,0.010489429347217083,0.003387508448213339,-0.6238877773284912,-0.7814362049102783,77.20215267248287,0.014035463333129883,73,-4.0605664e-05,-1.7790124e-05,4.433179852539783e-05,-9.778305e-07,-5.913529e-05,5.9143375178283276e-05,2.6342812e-05,-3.56562e-05,-5.7882833e-05,-1.214563e-05,4.03812313079834,111.72347259521484
1779209498.7880895,2.060084104537964,hold-xy,0,0.0,6.869482e-05,0.00045974914,0.0,0.006765196,0.0015136264,-2.849847e-05,-2.0332634e-05,3.5008268460746405e-05,0,0.0067366976,0.0014932938,0.037198607,0.0107247494161129,0.002314032521098852,-0.6238821148872375,-0.7814414501190186,77.20037788114709,0.0035293102264404297,74,-2.849847e-05,-2.0332634e-05,3.5008268460746405e-05,5.002375e-05,-5.2043433e-05,7.218652801420754e-05,2.6140995e-05,-2.3285775e-05,-3.9667833e-05,-6.031051e-05,4.03812313079834,111.71381378173828
1779209498.8700578,2.142052412033081,hold-xy,0,0.0,-0.000920888,0.00021495867,0.0,0.006765196,0.0015136264,-5.5370852e-05,-8.115545e-06,5.596242729869864e-05,0,0.0067098252,0.0015055109,0.037191037,0.010415693745017052,0.004025931470096111,-0.6238412261009216,-0.7814713716506958,77.19598685707598,0.014406919479370117,75,-5.5370852e-05,-8.115545e-06,5.596242729869864e-05,-7.838379e-05,1.5125246e-05,7.982976655195774e-05,2.0184854e-05,-5.219545e-05,-2.622026e-06,7.9786696e-05,4.03812313079834,111.71381378173828
1779209498.956149,2.2281436920166016,hold-xy,0,0.0,-0.00057140586,-0.00020039217,0.0,0.006765196,0.0015136264,-4.316494e-05,5.445443e-06,4.350706811395183e-05,0,0.006722031,0.0015190719,0.037161183,0.01097578089684248,0.002570054028183222,-0.6238372921943665,-0.78147292137146,77.19396319080049,0.005740165710449219,76,-4.316494e-05,5.445443e-06,4.350706811395183e-05,-1.6225233e-05,5.35212e-05,5.592652952136081e-05,4.257569e-06,-4.3298245e-05,4.859357e-05,2.7684686e-05,4.03812313079834,111.71439361572266
1779209499.0664139,2.3384084701538086,hold-xy,0,0.0,-0.000740333,-0.0004264274,0.0,0.006765196,0.0015136264,-4.863739e-05,1.8779188e-05,5.213687392039792e-05,0,0.0067165587,0.0015324056,0.03718019,0.010777190327644348,0.0028474119026213884,-0.6237499713897705,-0.78154456615448,77.1814222548234,0.01841115951538086,77,-4.863739e-05,1.8779188e-05,5.213687392039792e-05,-2.8179795e-05,7.845232e-05,8.335986866275193e-05,-7.5202443e-06,-5.159166e-05,7.024499e-05,4.488328e-05,4.03812313079834,111.7203140258789
1779209499.148881,2.4208755493164062,hold-xy,0,0.0,-0.0009730053,0.00052654603,0.0,0.006765196,0.0015136264,-6.68671e-05,-1.0075048e-05,6.76218569661653e-05,0,0.006698329,0.0015035514,0.037170913,0.010554219596087933,0.0034675903152674437,-0.6239333152770996,-0.781398594379425,77.208898555303,0.009159326553344727,78,-6.68671e-05,-1.0075048e-05,6.76218569661653e-05,-7.9352736e-05,-3.9461633e-05,8.862323278045287e-05,2.46292e-05,-6.2977124e-05,-5.6050805e-05,6.864681e-05,4.03812313079834,111.71278381347656
1779209499.2526693,2.5246639251708984,hold-xy,500,0.762951094834821,-0.0007009861,0.0003781959,0.0,0.006765196,0.0015136264,-6.0068443e-05,-9.099022e-06,6.0753684367083185e-05,0,0.0067051277,0.0015045274,0.037141263,0.011051192879676819,0.0025179320946335793,-0.6237154006958008,-0.7815693616867065,77.17603932555541,0.021053314208984375,79,-6.0068443e-05,-9.099022e-06,6.0753684367083185e-05,-3.3351913e-05,-2.4436791e-05,4.134618325064834e-05,2.220463e-05,-5.655055e-05,-3.1229923e-05,2.7096106e-05,4.03812313079834,111.67649841308594
1779209499.3336701,2.6056647300720215,hold-xy,500,0.762951094834821,-0.0010963856,0.00011903713,0.0,0.006765196,0.0015136264,-7.457845e-05,2.5574118e-06,7.462228670155497e-05,0,0.0066906177,0.0015161838,0.037185017,0.010998102836310863,0.002390647539868951,-0.6237501502037048,-0.7815427780151367,77.18104329795479,0.008623600006103516,80,-7.457845e-05,2.5574118e-06,7.462228670155497e-05,-6.993713e-05,2.0322384e-05,7.282994935086217e-05,1.4053134e-05,-7.3287076e-05,4.2988413e-06,7.270297e-05,4.03812313079834,111.69278717041016
1779209499.436242,2.7082366943359375,hold-xy,500,0.762951094834821,-0.000120590674,-0.00022367686,0.0,0.006765196,0.0015136264,-3.9326027e-05,8.21799e-06,4.017551200834294e-05,0,0.00672587,0.0015218444,0.037202325,0.010823864489793777,0.0025032011326402426,-0.6238796710968018,-0.7814414501190186,77.2001482842707,0.018426179885864258,81,-3.9326027e-05,8.21799e-06,4.017551200834294e-05,6.5044194e-05,3.2530992e-05,7.272559922952754e-05,6.9875114e-07,-4.0169434e-05,4.6132875e-05,-5.6220728e-05,4.03812313079834,111.6507797241211
1779209499.5199475,2.7919421195983887,hold-xy,1000,1.525902189669642,0.00022279106,-6.850448e-05,0.0,0.006765196,0.0015136264,-2.4095178e-05,1.3839453e-06,2.41348894188011e-05,0,0.006741101,0.0015150104,0.03718398,0.010851684026420116,0.0027177997399121523,-0.6238722205162048,-0.7814463973045349,77.19922605437853,0.009158134460449219,82,-2.4095178e-05,1.3839453e-06,2.41348894188011e-05,9.4676725e-05,7.2009607e-07,9.467946417835541e-05,3.9890188e-06,-2.3802953e-05,2.1678932e-05,-9.216412e-05,4.03812313079834,111.61405944824219
1779209499.6216784,2.8936729431152344,hold-xy,1000,1.525902189669642,-0.0011091516,-0.00030459778,0.0,0.006765196,0.0015136264,-6.620586e-05,2.1465123e-05,6.959861352991004e-05,0,0.0066989902,0.0015350915,0.037204314,0.010635552927851677,0.003331222105771303,-0.6237783432006836,-0.7815217971801758,77.18603447883049,0.018444061279296875,83,-6.620586e-05,2.1465123e-05,6.959861352991004e-05,-7.038289e-05,6.5671025e-05,9.626232248729584e-05,-6.246998e-06,-6.931769e-05,4.842556e-05,8.319495e-05,4.03812313079834,111.63832092285156
1779209499.6839993,2.955993890762329,hold-xy,1000,1.525902189669642,-0.0007289682,-0.0004910622,0.0,0.006765196,0.0015136264,-5.6330115e-05,2.777949e-05,6.28074982348407e-05,0,0.006708866,0.0015414059,0.037190724,0.010877239517867565,0.0029164867009967566,-0.6238619089126587,-0.7814534306526184,77.1978768360717,0.009410619735717773,84,-5.6330115e-05,2.777949e-05,6.28074982348407e-05,-7.74677e-06,7.2517636e-05,7.293024099136786e-05,-1.4607037e-05,-6.1085324e-05,6.8998364e-05,2.362299e-05,4.03812313079834,111.69642639160156
1779209499.787077,3.0590715408325195,hold-xy,1500,2.288853284504463,-0.0008203457,0.001146147,0.0,0.006765196,0.0015136264,-7.4096024e-05,-2.85618e-05,7.941030825947563e-05,0,0.0066911,0.0014850646,0.037213743,0.01017669029533863,0.004090376663953066,-0.6240904331207275,-0.7812750935554504,77.23262419930934,0.01907515525817871,85,-7.4096024e-05,-2.85618e-05,7.941030825947563e-05,-6.247868e-05,-0.00013018001,0.0001443967453136407,4.4230335e-05,-6.595206e-05,-0.00014076872,3.2165015e-05,4.03812313079834,111.71635437011719
1779209499.8480673,3.1200618743896484,hold-xy,2000,3.051804379339284,-0.00054629234,-0.00062091806,0.0,0.006765196,0.0015136264,-5.776249e-05,1.3899989e-05,5.941140246376596e-05,0,0.0067074336,0.0015275264,0.037178796,0.010598319582641125,0.0035151871852576733,-0.6237942576408386,-0.7815088629722595,77.18855121647898,0.019011974334716797,86,-5.776249e-05,1.3899989e-05,5.941140246376596e-05,3.6523383e-05,0.00011751944,0.00012306411377763026,-7.455019e-07,-5.9406724e-05,0.00012269261,-9.554982e-06,4.03812313079834,111.71635437011719
1779209499.9295611,3.2015557289123535,hold-xy,2000,3.051804379339284,0.00016969841,-0.00090509094,0.0,0.006765196,0.0015136264,-2.8450042e-05,2.4477951e-05,3.7530987655396366e-05,0,0.006736746,0.0015381044,0.037156753,0.010717632248997688,0.003142168978229165,-0.6237066984176636,-0.7815786600112915,77.17534448781618,0.01644134521484375,87,-2.8450042e-05,2.4477951e-05,3.7530987655396366e-05,0.00013017337,0.000120013065,0.00017705435073011113,-1.755232e-05,-3.317365e-05,0.00014591354,-0.00010028698,4.03812313079834,111.71318817138672
1779209499.9933782,3.2653727531433105,hold-xy,2000,3.051804379339284,-0.00039646213,-0.0011677283,0.0,0.006765196,0.0015136264,-3.8508326e-05,4.3429434e-05,5.804314646254642e-05,0,0.006726688,0.0015570559,0.037152026,0.010817340575158596,0.003020570147782564,-0.6236096024513245,-0.7816552519798279,77.16098743884083,0.0039010047912597656,88,-3.8508326e-05,4.3429434e-05,5.804314646254642e-05,5.1603423e-05,0.0001584675,0.0001666579229985515,-3.3786597e-05,-4.7196114e-05,0.00016597247,-1.5099802e-05,4.03812313079834,111.69585418701172
1779209500.0801182,3.3521127700805664,hold-xy,2000,3.051804379339284,-0.0007403832,9.048795e-05,0.0,0.006765196,0.0015136264,-5.6363642e-05,1.3100915e-05,5.786617447719381e-05,0,0.0067088325,0.0015267273,0.03719969,0.010477688163518906,0.0035034585744142532,-0.6238375902175903,-0.7814759016036987,77.19490726018238,0.0160367488861084,89,-5.6363642e-05,1.3100915e-05,5.786617447719381e-05,-3.5677713e-05,-1.103033e-05,3.7343906470638803e-05,-2.829247e-07,-5.7865484e-05,-1.8663439e-05,3.2345684e-05,4.03812313079834,111.68450927734375
1779209500.1609476,3.4329421520233154,hold-xy,3000,4.577706569008926,0.0011109519,0.002508042,0.0,0.006765196,0.0015136264,-1.354143e-05,-8.494966e-05,8.602217469292332e-05,0,0.0067516547,0.0014286768,0.037142955,0.010620374232530594,0.0015438224654644728,-0.6238537430763245,-0.7814674377441406,77.19572471822875,0.015328645706176758,90,-1.354143e-05,-8.494966e-05,8.602217469292332e-05,0.00013258091,-0.00036847763,0.0003916037137087274,8.583827e-05,5.621956e-06,-0.00032993188,-0.00021094648,4.03812313079834,111.68450927734375
1779209500.2423778,3.5143723487854004,hold-xy,3000,4.577706569008926,0.0011818729,0.0018516022,0.0,0.006765196,0.0015136264,2.1010637e-06,-8.224137e-05,8.226820300559632e-05,0,0.006767297,0.001431385,0.037135795,0.010611383244395256,0.0016763772582635283,-0.6237632036209106,-0.7815395593643188,77.18253045468444,0.005321025848388672,91,2.1010637e-06,-8.224137e-05,8.226820300559632e-05,0.00014412838,-0.00024904867,0.0002877468043065569,7.972595e-05,2.0293613e-05,-0.00021086854,-0.00019578736,4.03812313079834,111.68501281738281
1779209500.3445253,3.6165199279785156,hold-xy,3500,5.340657663843747,-0.0011301113,-0.0001903807,0.0,0.006765196,0.0015136264,-5.8434904e-05,-9.369105e-07,5.844241309260252e-05,0,0.006706761,0.0015126895,0.037198544,0.010234272107481956,0.0041408780962228775,-0.6240853071212769,-0.7812782526016235,77.23192315786456,0.014829635620117188,92,-5.8434904e-05,-9.369105e-07,5.844241309260252e-05,-9.514848e-05,8.8960514e-05,0.00013025822932397516,1.38281575e-05,-5.67829e-05,6.5732456e-05,0.000112456444,4.03812313079834,111.69451904296875
1779209500.4261584,3.698153018951416,hold-xy,3500,5.340657663843747,-0.00056906673,-0.0004673809,0.0,0.006765196,0.0015136264,-4.0683895e-05,9.725802e-06,4.183025879281835e-05,0,0.006724512,0.0015233522,0.037161145,0.01089466642588377,0.0027163298800587654,-0.6236345767974854,-0.7816353440284729,77.16437525433534,0.004279375076293945,93,-4.0683895e-05,9.725802e-06,4.183025879281835e-05,-8.835341e-06,9.6972915e-05,9.737458146580773e-05,-4.446465e-07,-4.1827894e-05,9.258689e-05,3.0157553e-05,4.03812313079834,111.67857360839844
1779209500.528063,3.8000576496124268,hold-xy,4000,6.103608758678568,-0.00062299095,0.00010510342,0.0,0.006765196,0.0015136264,-4.8026443e-05,-5.5357814e-06,4.8344430929406996e-05,0,0.0067171697,0.0015080906,0.037201505,0.010255289264023304,0.0038965465500950813,-0.6239309906959534,-0.7814024090766907,77.20902701197414,0.014104604721069336,94,-4.8026443e-05,-5.5357814e-06,4.8344430929406996e-05,-3.0107183e-05,1.815792e-05,3.515896064567209e-05,1.6031214e-05,-4.5609035e-05,1.1041742e-05,3.338012e-05,4.03812313079834,111.65237426757812
1779209500.6106944,3.8826889991760254,hold-xy,4000,6.103608758678568,-0.00028154347,-0.0002710803,0.0,0.006765196,0.0015136264,-3.392808e-05,6.56303e-06,3.455702651783762e-05,0,0.006731268,0.0015201895,0.03716374,0.010678323917090893,0.0031076984014362097,-0.6237922310829163,-0.7815111875534058,77.18786030878596,0.004884243011474609,95,-3.392808e-05,6.56303e-06,3.455702651783762e-05,2.497211e-05,5.2226886e-05,5.789001590101396e-05,1.1240991e-06,-3.4538738e-05,5.6464254e-05,-1.2768785e-05,4.03812313079834,111.6558837890625
1779209500.7129035,3.984898090362549,hold-xy,4000,6.103608758678568,-0.00012338231,-0.0008127741,0.0,0.006765196,0.0015136264,-2.1222979e-05,2.9851682e-05,3.662700874711451e-05,0,0.006743973,0.0015434781,0.037183512,0.010744721628725529,0.0033315238542854786,-0.6238081455230713,-0.781496524810791,77.19038996455077,0.0039215087890625,96,-2.1222979e-05,2.9851682e-05,3.662700874711451e-05,5.4424e-05,0.000104276885,0.00011762500192248427,-2.440335e-05,-2.7313265e-05,0.000113748116,-2.9950064e-05,4.032844543457031,111.69730377197266
1779209500.8153272,4.087321758270264,hold-xy,4500,6.866559853513389,-0.0003952788,-0.00029477815,0.0,0.006765196,0.0015136264,-3.2542273e-05,1.8909574e-05,3.763736875429364e-05,0,0.006732654,0.001532536,0.03717979,0.010766837745904922,0.002641920233145356,-0.6238852143287659,-0.781437337398529,77.20108009671794,0.01467442512512207,97,-3.2542273e-05,1.8909574e-05,3.763736875429364e-05,1.0534823e-06,3.7184876e-05,3.719979613521485e-05,-1.1230644e-05,-3.592275e-05,3.649434e-05,7.210263e-06,4.032844543457031,111.66259765625
1779209500.900234,4.172228574752808,hold-xy,5000,7.629510948348211,-0.00098836,-0.00032037238,0.0,0.006765196,0.0015136264,-5.449727e-05,2.7074479e-05,6.085211701113994e-05,0,0.006710699,0.0015407009,0.03718233,0.010821937583386898,0.0033255619928240776,-0.6237861514091492,-0.7815130352973938,77.18714917708571,0.005867481231689453,98,-5.449727e-05,2.7074479e-05,6.085211701113994e-05,-6.954573e-05,5.2167212e-05,8.693690933596737e-05,-1.4314606e-05,-5.91445e-05,3.5445264e-05,7.938299e-05,4.032844543457031,111.62129974365234
1779209500.9844162,4.256410837173462,hold-xy,5000,7.629510948348211,-0.000877618,0.00023616104,0.0,0.006765196,0.0015136264,-5.8760867e-05,9.663403e-06,5.955015239664197e-05,0,0.0067064352,0.0015232898,0.037172813,0.01063521672040224,0.0033062719739973545,-0.6238065958023071,-0.7814993858337402,77.19015366575222,0.007118940353393555,99,-5.8760867e-05,9.663403e-06,5.955015239664197e-05,-6.410545e-05,-2.646706e-05,6.935426565645902e-05,3.6053361e-06,-5.9440914e-05,-4.0021536e-05,5.664177e-05,4.03812313079834,111.62694549560547
1779209501.0661569,4.338151454925537,hold-xy,5500,8.392462043183032,-4.163332e-05,-0.00015108689,0.0,0.006765196,0.0015136264,-3.2179058e-05,1.4701858e-05,3.537847297607906e-05,0,0.006733017,0.0015283283,0.037170537,0.010779321193695068,0.0029856187757104635,-0.6238605380058289,-0.7814556360244751,77.19775069098111,0.014889717102050781,100,-3.2179058e-05,1.4701858e-05,3.537847297607906e-05,6.293422e-05,1.907556e-06,6.296312112939167e-05,-7.2059256e-06,-3.4636843e-05,1.5805526e-05,-6.0947023e-05,4.03812313079834,111.62694549560547
1779209501.1276214,4.399616003036499,hold-xy,5500,8.392462043183032,-0.0007672095,0.00039494506,0.0,0.006765196,0.0015136264,-5.5525452e-05,2.9643998e-06,5.5604527081413724e-05,0,0.0067096706,0.0015165908,0.03721636,0.010611510835587978,0.0021442407742142677,-0.6239757537841797,-0.7813687324523926,77.21400437512739,0.006399869918823242,101,-5.5525452e-05,2.9643998e-06,5.5604527081413724e-05,-5.6067256e-05,-4.9000904e-05,7.446224608210159e-05,9.397453e-06,-5.4804663e-05,-6.0194106e-05,4.3832584e-05,4.032844543457031,111.65116119384766
1779209501.2110026,4.482997179031372,hold-xy,5500,8.392462043183032,-0.0008461587,-0.00051847234,0.0,0.006765196,0.0015136264,-5.4057688e-05,3.26233e-05,6.313884178268032e-05,0,0.0067111384,0.0015462497,0.03715237,0.010310765355825424,0.005076950881630182,-0.6238049268722534,-0.7814955711364746,77.19192268956606,0.007153987884521484,102,-5.4057688e-05,3.26233e-05,6.313884178268032e-05,-3.391796e-05,7.3384064e-05,8.084336033932969e-05,-1.9827738e-05,-5.9944756e-05,6.403899e-05,4.9342234e-05,4.032844543457031,111.62773895263672
1779209501.2950034,4.56699800491333,hold-xy,5500,8.392462043183032,-0.000105546584,0.00047674082,0.0,0.006765196,0.0015136264,-3.9268285e-05,-9.965152e-07,3.9280927818638864e-05,0,0.006725928,0.0015126299,0.03717335,0.0106345284730196,0.0031924224458634853,-0.6238436698913574,-0.7814702391624451,77.19548307359607,0.01789546012878418,103,-3.9268285e-05,-9.965152e-07,3.9280927818638864e-05,3.6820624e-05,-8.630565e-05,9.383188673615677e-05,9.6745825e-06,-3.8070903e-05,-7.5999e-05,-5.5032484e-05,4.032844543457031,111.64330291748047
1779209501.3785548,4.650549411773682,hold-xy,5500,8.392462043183032,-9.35166e-05,0.00016507047,0.0,0.006765196,0.0015136264,-3.412552e-05,5.496666e-06,3.456536735767783e-05,0,0.0067310706,0.0015191231,0.03717434,0.010685074143111706,0.003074901644140482,-0.6238933205604553,-0.7814304232597351,77.20265028242193,0.010290861129760742,104,-3.412552e-05,5.496666e-06,3.456536735767783e-05,4.2699587e-05,-3.9044495e-05,5.7859547237769025e-05,2.1987921e-06,-3.449536e-05,-2.8616509e-05,-5.02874e-05,4.032844543457031,111.63495635986328
1779209501.4825766,4.754571199417114,hold-xy,5500,8.392462043183032,-0.00023934119,-0.00017209287,0.0,0.006765196,0.0015136264,-3.4263358e-05,1.7812476e-05,3.861686163805834e-05,0,0.0067309327,0.0015314389,0.03717141,0.010655405931174755,0.0033633906859904528,-0.6237438917160034,-0.7815488576889038,77.18101108716846,0.011359214782714844,105,-3.4263358e-05,1.7812476e-05,3.861686163805834e-05,2.9488065e-05,8.556373e-06,3.070435519075279e-05,-9.766447e-06,-3.736146e-05,1.488568e-05,-2.6854685e-05,4.032844543457031,111.65996551513672
1779209501.5684109,4.840405464172363,hold-xy,5500,8.392462043183032,-0.00071726285,0.00035963266,0.0,0.006765196,0.0015136264,-5.465001e-05,2.7175993e-06,5.471753666464181e-05,0,0.006710546,0.001516344,0.03717916,0.010669156908988953,0.0033272227738052607,-0.6237644553184509,-0.7815325260162354,77.18399149836588,0.006148099899291992,106,-5.465001e-05,2.7175993e-06,5.471753666464181e-05,-4.6533598e-05,-4.3749063e-05,6.386983958196882e-05,9.47262e-06,-5.3891355e-05,-5.298129e-05,3.566987e-05,4.032844543457031,111.65996551513672
1779209501.6702042,4.942198753356934,hold-xy,5500,8.392462043183032,-0.00023612013,0.0007391564,0.0,0.006765196,0.0015136264,-4.232116e-05,-1.8483028e-05,4.618119642417396e-05,0,0.006722875,0.0014951434,0.037208874,0.01059812493622303,0.002698034280911088,-0.6240040063858032,-0.7813445925712585,77.21857034210207,0.011764764785766602,107,-4.232116e-05,-1.8483028e-05,4.618119642417396e-05,5.883383e-06,-9.675464e-05,9.693334896188202e-05,2.7387852e-05,-3.7183443e-05,-9.305557e-05,-2.7142862e-05,4.032844543457031,111.65462493896484
1779209501.754344,5.026338577270508,hold-xy,5500,8.392462043183032,-9.2296614e-05,6.588742e-05,0.0,0.006765196,0.0015136264,-3.1696633e-05,-1.383014e-06,3.172679083033015e-05,0,0.0067334995,0.0015122434,0.037180826,0.010764478705823421,0.002948795910924673,-0.6239022612571716,-0.7814226150512695,77.20383751546197,0.012804031372070312,108,-3.1696633e-05,-1.383014e-06,3.172679083033015e-05,4.247381e-05,-5.995753e-06,4.289491236603348e-05,8.368937e-06,-3.0603107e-05,3.5603912e-06,-4.2746895e-05,4.032844543457031,111.67154693603516
1779209501.8438978,5.11589241027832,hold-xy,5500,8.392462043183032,-0.00047503595,0.00033593626,0.0,0.006765196,0.0015136264,-4.628487e-05,-8.791685e-06,4.711245017902348e-05,0,0.006718911,0.0015048347,0.037185833,0.010711347684264183,0.0027994720730930567,-0.623904287815094,-0.7814223766326904,77.20401602813261,0.004428863525390625,109,-4.628487e-05,-8.791685e-06,4.711245017902348e-05,-1.4958581e-05,-2.6893076e-05,3.077331154226234e-05,1.8824521e-05,-4.3188196e-05,-2.9538212e-05,8.630801e-06,4.032844543457031,111.6812515258789
1779209501.9458652,5.217859745025635,hold-xy,5500,8.392462043183032,-0.0006671623,-0.0002789414,0.0,0.006765196,0.0015136264,-4.9063936e-05,1.3959594e-05,5.10111758243488e-05,0,0.006716132,0.001527586,0.037176862,0.010611720383167267,0.0031940804328769445,-0.6238245368003845,-0.7814858555793762,77.19268296882812,0.015250921249389648,110,-4.9063936e-05,1.3959594e-05,5.10111758243488e-05,-1.9618163e-05,5.6059514e-05,5.9393110645622654e-05,-2.736143e-06,-5.0937742e-05,5.0315997e-05,3.1556967e-05,4.027565956115723,111.72502899169922
1779209502.0269818,5.298976421356201,hold-xy,5500,8.392462043183032,-0.0009790644,0.00061474723,0.0,0.006765196,0.0015136264,-6.7837536e-05,-1.1410564e-05,6.879049689934246e-05,0,0.0066973586,0.0015022159,0.037196584,0.010625692084431648,0.0033448662143200636,-0.6238888502120972,-0.7814338207244873,77.20225393026365,0.014476537704467773,111,-6.7837536e-05,-1.1410564e-05,6.879049689934246e-05,-8.250799e-05,-5.3699474e-05,9.84439053835028e-05,2.6153806e-05,-6.3624764e-05,-7.0641836e-05,6.856336e-05,4.027565956115723,111.732666015625
1779209502.108386,5.380380630493164,hold-xy,5500,8.392462043183032,-0.00026155057,0.00039908884,0.0,0.006765196,0.0015136264,-4.4086948e-05,-1.2526289e-05,4.5831941171922314e-05,0,0.006721109,0.0015011001,0.03720696,0.01035628467798233,0.0031515180598944426,-0.6240262985229492,-0.7813283205032349,77.22226264943893,0.0036592483520507812,112,-4.4086948e-05,-1.2526289e-05,4.5831941171922314e-05,1.9505966e-05,-4.1219126e-05,4.5601524288412285e-05,2.196677e-05,-4.0224717e-05,-3.5884223e-05,-2.8139324e-05,4.027565956115723,111.71404266357422
1779209502.190788,5.462782621383667,hold-xy,5500,8.392462043183032,-0.0005462644,-0.00046820487,0.0,0.006765196,0.0015136264,-4.589185e-05,1.4831312e-05,4.822893128822574e-05,0,0.0067193042,0.0015284577,0.037171565,0.010965559631586075,0.0028031126130372286,-0.6235726475715637,-0.7816834449768066,77.1553590852338,0.014554500579833984,113,-4.589185e-05,1.4831312e-05,4.822893128822574e-05,6.0818693e-06,8.592293e-05,8.613790971156754e-05,-4.258044e-06,-4.8040594e-05,8.5124884e-05,1.3171694e-05,4.027565956115723,111.77542114257812
1779209502.2531009,5.525095462799072,hold-xy,5500,8.392462043183032,-0.00047034226,8.309413e-05,0.0,0.006765196,0.0015136264,-4.7199428e-05,7.0780516e-07,4.720473374926953e-05,0,0.0067179967,0.0015143342,0.03718405,0.010323775000870228,0.0040007177740335464,-0.6239377856254578,-0.781395673751831,77.21012864036682,0.0024595260620117188,114,-4.7199428e-05,7.0780516e-07,4.720473374926953e-05,-1.0146259e-06,3.2024072e-06,3.359297180410463e-06,9.758582e-06,-4.6185032e-05,2.8983366e-06,1.698388e-06,4.027565956115723,111.77542114257812
1779209502.3340023,5.60599684715271,hold-xy,5500,8.392462043183032,-0.0003269713,1.9729283e-05,0.0,0.006765196,0.0015136264,-4.1924417e-05,1.9147992e-06,4.196811989330945e-05,0,0.0067232717,0.0015155412,0.037177276,0.010430965572595596,0.0036869801115244627,-0.6239460110664368,-0.7813891768455505,77.21099423780319,0.003892660140991211,115,-4.1924417e-05,1.9147992e-06,4.196811989330945e-05,1.9203417e-05,6.798199e-06,2.0371222635398163e-05,7.4131503e-06,-4.130821e-05,1.0880443e-05,-1.7222155e-05,4.027565956115723,111.78063201904297
1779209502.4168956,5.688890218734741,hold-xy,5500,8.392462043183032,-0.00018761735,0.00012381712,0.0,0.006765196,0.0015136264,-3.6893412e-05,-2.4214387e-06,3.697278986105972e-05,0,0.0067283027,0.001511205,0.03716123,0.010592369362711906,0.003506158711388707,-0.6237882971763611,-0.7815136909484863,77.1876683983002,0.0041468143463134766,116,-3.6893412e-05,-2.4214387e-06,3.697278986105972e-05,3.1706135e-05,-1.0982835e-05,3.355445714326061e-05,1.0542572e-05,-3.5437854e-05,-3.6782803e-06,-3.335224e-05,4.027565956115723,111.76024627685547
1779209502.50386,5.775854587554932,hold-xy,5500,8.392462043183032,-0.00069140125,0.0001209064,0.0,0.006765196,0.0015136264,-5.2779913e-05,1.0989606e-06,5.279135262018646e-05,0,0.006712416,0.0015147254,0.037173133,0.010718383826315403,0.002583170309662819,-0.6237426996231079,-0.7815519571304321,77.1801447059671,0.007252693176269531,117,-5.2779913e-05,1.0989606e-06,5.279135262018646e-05,-3.4638953e-05,4.906088e-06,3.498466590892429e-05,1.0639579e-05,-5.1708084e-05,-2.9021217e-06,3.4864086e-05,4.027565956115723,111.7929458618164
1779209502.605835,5.877829551696777,hold-xy,5500,8.392462043183032,-0.0003263086,-2.1309454e-05,0.0,0.006765196,0.0015136264,-3.986247e-05,3.5986304e-06,4.002457444378153e-05,0,0.0067253336,0.001517225,0.03719271,0.010985984466969967,0.0022414035629481077,-0.6238512992858887,-0.781462550163269,77.19576208333177,0.015346050262451172,118,-3.986247e-05,3.5986304e-06,4.002457444378153e-05,1.7030608e-05,1.1421992e-05,2.050618250412844e-05,5.325202e-06,-3.966874e-05,1.4912294e-05,-1.4075758e-05,4.027565956115723,111.80618286132812
1779209502.688378,5.960372686386108,hold-xy,5500,8.392462043183032,2.8470997e-05,-0.00021845111,0.0,0.006765196,0.0015136264,-2.4184585e-05,8.536503e-06,2.5646949298646474e-05,0,0.0067410115,0.0015221629,0.037175544,0.010622379370033741,0.00270271860063076,-0.6239113211631775,-0.7814182639122009,77.20497925330226,0.006873369216918945,119,-2.4184585e-05,8.536503e-06,2.5646949298646474e-05,6.359778e-05,2.4271267e-05,6.807181525967392e-05,-2.9685207e-06,-2.5474574e-05,3.775318e-05,-5.664335e-05,4.027565956115723,111.78739929199219
1779209502.7908032,6.062797784805298,hold-xy,5500,8.392462043183032,0.00045542867,-0.00027163184,0.0,0.006765196,0.0015136264,-3.1944364e-06,8.283183e-06,8.877811522544996e-06,0,0.0067620017,0.0015219096,0.037164096,0.010615205392241478,0.0029663322493433952,-0.6238867044448853,-0.7814371585845947,77.20159516903817,0.008911371231079102,120,-3.1944364e-06,8.283183e-06,8.877811522544996e-06,0.00010724607,1.6232858e-05,0.00010846762709062027,-7.3697556e-06,-4.949974e-06,3.9586856e-05,-0.00010098568,4.022287368774414,111.78651428222656
1779209502.8919759,6.163970470428467,hold-xy,5500,8.392462043183032,-0.00039582237,-0.0004305715,0.0,0.006765196,0.0015136264,-2.72654e-05,2.2253953e-05,3.519432358292743e-05,0,0.0067379307,0.0015358804,0.037196666,0.010739481076598167,0.0027571150567382574,-0.6238366961479187,-0.7814760804176331,77.194065272019,0.018268108367919922,121,-2.72654e-05,2.2253953e-05,3.519432358292743e-05,-3.57737e-06,5.7011184e-05,5.712331136175456e-05,-1.5657053e-05,-3.151979e-05,5.4800188e-05,1.6124888e-05,4.022287368774414,111.78343200683594
1779209502.9756749,6.247669458389282,hold-xy,5500,8.392462043183032,-0.00024636282,-0.0004237843,0.0,0.006765196,0.0015136264,-2.2396445e-05,2.3858622e-05,3.2723608177545236e-05,0,0.0067427997,0.001537485,0.037179053,0.010680735111236572,0.0030786714050918818,-0.6237025856971741,-0.781582772731781,77.17469039644004,0.021123409271240234,122,-2.2396445e-05,2.3858622e-05,3.2723608177545236e-05,1.5563874e-05,4.5862536e-05,4.8431460599465873e-05,-1.8291837e-05,-2.7133805e-05,4.8173188e-05,-4.995046e-06,4.022287368774414,111.73963165283203
1779209503.0569751,6.328969717025757,hold-xy,5500,8.392462043183032,0.00094460504,4.6107074e-05,0.0,0.006765196,0.0015136264,1.8792227e-05,-1.0477379e-06,1.8821411997001502e-05,0,0.0067839883,0.0015125787,0.03718445,0.009557778015732765,0.0046540009789168835,-0.6238747239112854,-0.7814520597457886,77.20168999266448,0.010007143020629883,123,1.8792227e-05,-1.0477379e-06,1.8821411997001502e-05,0.00014460026,-4.8746573e-05,0.00015259574845689558,-3.1411414e-06,1.8557444e-05,-1.5503698e-05,-0.00015180612,4.022287368774414,111.73963165283203
1779209503.1384826,6.410477161407471,hold-xy,5500,8.392462043183032,0.006100662,0.0054446068,0.0,0.006765196,0.0015136264,0.000150932,-0.00021283422,0.0002609192899538373,0,0.006916128,0.0013007922,0.03720046,0.007822458632290363,0.0015058813150972128,-0.62364262342453,-0.7816689610481262,77.16516593742139,0.018732786178588867,124,0.000150932,-0.00021283422,0.0002609192899538373,0.0006458884,-0.0009070874,0.0011135436152984244,0.00017398823,0.00019444016,-0.0007409449,-0.00083125214,4.022287368774414,111.7324447631836
1779209503.2271285,6.4991230964660645,hold-xy,5500,8.392462043183032,0.01065435,0.00562084,0.0,0.006765196,0.0015136264,0.0003492888,-0.00030697975,0.00046501531523187044,0,0.007114485,0.0012066467,0.037243016,0.002142175566405058,0.006170953623950481,-0.6234759092330933,-0.781815230846405,77.14497788739575,0.019435405731201172,125,0.0003492888,-0.00030697975,0.00046501531523187044,0.0011287741,-0.0009561188,0.0014792884352533358,0.0002215742,0.00040883262,-0.0006810196,-0.0013132046,4.022287368774414,111.73658752441406
1779209503.3131807,6.585175275802612,hold-xy,5500,8.392462043183032,0.014646557,0.008687041,0.0,0.006765196,0.0015136264,0.00052826107,-0.00050046854,0.0007276870937268739,0,0.007293457,0.0010131579,0.037301816,-0.001125669339671731,0.002752820262685418,-0.6236701011657715,-0.781682014465332,77.16996387905427,0.019402265548706055,126,0.00052826107,-0.00050046854,0.0007276870937268739,0.001413845,-0.0013435751,0.0019504234603177698,0.0003706679,0.00062620593,-0.0009960723,-0.0016768995,4.027565956115723,111.78085327148438
1779209503.37469,6.646684646606445,hold-xy,5500,8.392462043183032,0.01676679,0.013284857,0.0,0.006765196,0.0015136264,0.00063107535,-0.0007239189,0.0009603721735428635,0,0.0073962715,0.0007897075,0.037369356,-0.003849704284220934,0.0029011026490479708,-0.6243494153022766,-0.7811303734779358,77.26932947752874,0.009770870208740234,127,0.00063107535,-0.0007239189,0.0009603721735428635,0.0014232585,-0.0018827908,0.002360204634746405,0.00056705356,0.0007750903,-0.0015228644,-0.0018031776,4.022287368774414,111.75790405273438
1779209503.459057,6.731051683425903,hold-xy,5500,8.392462043183032,0.011583071,0.010039888,0.0,0.006765196,0.0015136264,0.0005577989,-0.00067489594,0.0008755707348625011,0,0.007322995,0.0008387305,0.037376083,-0.0031695689540356398,0.003296241629868746,-0.624183177947998,-0.7812646627426147,77.24525886855487,0.01980757713317871,128,0.0005577989,-0.00067489594,0.0008755707348625011,0.0007005344,-0.001120095,0.0013211212131987848,0.00053509243,0.00069303694,-0.00093779294,-0.0009305405,4.022287368774414,111.75790405273438
1779209503.541696,6.813690662384033,hold-xy,5500,8.392462043183032,0.01168111,0.010261638,0.0,0.006765196,0.0015136264,0.00059958734,-0.0007475503,0.0009582986770919668,0,0.0073647834,0.00076607615,0.037359055,-0.0038594251964241266,0.003102286485955119,-0.6243104934692383,-0.7811605930328369,77.26372031158435,0.01075601577758789,129,0.00059958734,-0.0007475503,0.0009582986770919668,0.00062710064,-0.0010217824,0.0011988721725418425,0.00059696956,0.00074964244,-0.00085838855,-0.000836937,4.022287368774414,111.7824478149414
1779209503.644292,6.9162867069244385,hold-xy,5500,8.392462043183032,0.010126336,0.008389484,0.0,0.006765196,0.0015136264,0.00059322827,-0.0007230602,0.0009352731476067544,0,0.0073584244,0.0007905662,0.037362136,-0.0039110383950173855,0.003791601862758398,-0.6242431402206421,-0.781211256980896,77.2542491766425,0.0191497802734375,130,0.00059322827,-0.0007230602,0.0009352731476067544,0.00041871914,-0.0006372557,0.0007625093961634844,0.000574362,0.0007381356,-0.00052917295,-0.0005489959,4.022287368774414,111.74429321289062
1779209503.725912,6.997906684875488,hold-xy,5500,8.392462043183032,0.009871736,0.0066296915,0.0,0.006765196,0.0015136264,0.0006224103,-0.00069202855,0.0009307513831444922,0,0.0073876064,0.0008215979,0.037379894,-0.003404364688321948,0.0029897510539740324,-0.6242579817771912,-0.7812051177024841,77.25602633730234,0.00889730453491211,131,0.0006224103,-0.00069202855,0.0009307513831444922,0.0003883944,-0.0003447483,0.0005193280151170873,0.0005376803,0.00075973547,-0.00025057778,-0.00045487622,4.022287368774414,111.7604751586914
1779209503.8279996,7.09999418258667,hold-xy,5500,8.392462043183032,0.008629665,0.006474912,0.0,0.006765196,0.0015136264,0.0005998239,-0.000695521,0.0009184433585386605,0,0.00736502,0.0008181054,0.037352215,-0.0035688334610313177,0.0033229971304535866,-0.624270498752594,-0.7811930775642395,77.25802294267487,0.01906728744506836,132,0.0005998239,-0.000695521,0.0009184433585386605,0.00019815857,-0.00025272247,0.0003211471046680786,0.00054609485,0.00073845685,-0.00020279271,-0.00024901924,4.022287368774414,111.77342987060547
1779209503.911963,7.183957576751709,hold-xy,5500,8.392462043183032,0.008320391,0.00618789,0.0,0.006765196,0.0015136264,0.0006020423,-0.00069673173,0.0009208094689719143,0,0.0073672384,0.0008168947,0.03735885,-0.004042462911456823,0.004106379114091396,-0.6242243647575378,-0.7812238931655884,77.25169080056406,0.010164260864257812,133,0.0006020423,-0.00069673173,0.0009208094689719143,0.00014587745,-0.00018081689,0.0002323251582434123,0.00054670457,0.00074094813,-0.00014416895,-0.00018218202,4.022287368774414,111.76399230957031
1779209503.9934556,7.2654502391815186,hold-xy,6000,9.155413138017853,0.007843296,0.005985465,0.0,0.006765196,0.0015136264,0.0005942024,-0.0006956961,0.0009149150738225221,0,0.0073593985,0.0008179303,0.037350237,-0.003503168001770973,0.0033530164510011673,-0.6239697933197021,-0.7814334034919739,77.21394603343963,9.655952453613281e-05,134,0.0005942024,-0.0006956961,0.0009149150738225221,7.642666e-05,-0.00012317854,0.0001449620191462039,0.0005469415,0.00073343347,-0.00010321005,-0.000101792306,4.022287368774414,111.79871368408203
1779209504.0753655,7.347360134124756,hold-xy,6000,9.155413138017853,0.0072052786,0.0046200603,0.0,0.006765196,0.0015136264,0.00058703683,-0.0006501209,0.0008759391521324801,0,0.007352233,0.0008635055,0.037363455,-0.0037147938273847103,0.003994554281234741,-0.6241265535354614,-0.7813042402267456,77.23732203131479,0.00010323524475097656,135,0.00058703683,-0.0006501209,0.0008759391521324801,2.7252088e-05,8.0710604e-05,8.51873098845798e-05,0.00050437445,0.0007161535,8.473687e-05,-8.748742e-06,4.0170087814331055,111.79755401611328
1779209504.157218,7.42921257019043,hold-xy,6000,9.155413138017853,0.0079593295,0.0059790984,0.0,0.006765196,0.0015136264,0.0006039664,-0.0006983951,0.0009233261156951256,0,0.0073691625,0.00081523135,0.03738376,-0.003208630718290806,0.0031586524564772844,-0.6243171095848083,-0.7811580896377563,77.26482067539393,0.0001480579376220703,136,0.0006039664,-0.0006983951,0.0009233261156951256,8.115962e-05,-0.00012053076,0.0001453084592581577,0.0005480726,0.00074306625,-9.9674384e-05,-0.00010573347,4.0170087814331055,111.79755401611328
1779209504.2403364,7.512331008911133,hold-xy,6000,9.155413138017853,0.007208644,0.005942367,0.0,0.006765196,0.0015136264,0.0005844906,-0.0006978214,0.0009102658364748684,0,0.0073496867,0.00081580505,0.037387777,-0.0043743811547756195,0.003936197608709335,-0.6241327524185181,-0.7812961339950562,77.2380694308022,0.01219940185546875,137,0.0005844906,-0.0006978214,0.0009102658364748684,-2.5402762e-05,-8.194976e-05,8.579663929576905e-05,0.00055146834,0.0007242006,-8.5536776e-05,6.672475e-06,4.022287368774414,111.76368713378906
1779209504.3016698,7.573664426803589,hold-xy,6000,9.155413138017853,0.007433467,0.005426394,0.0,0.006765196,0.0015136264,0.0005939603,-0.00068720616,0.0009083177456005096,0,0.0073591564,0.00082642026,0.03734893,-0.003432084573432803,0.0035153906792402267,-0.6240864396095276,-0.7813398838043213,77.23116358684052,0.0023717880249023438,138,0.0005939603,-0.00068720616,0.0009083177456005096,2.2140286e-05,-1.2613305e-05,2.548112506716769e-05,0.0005389354,0.00073115644,-7.4079717e-06,-2.4380519e-05,4.022287368774414,111.74466705322266
1779209504.3829036,7.654898166656494,hold-xy,6000,9.155413138017853,0.00879806,0.0067216326,0.0,0.006765196,0.0015136264,0.0006284751,-0.0007381048,0.0009694223149828725,0,0.007393671,0.0007755216,0.037354622,-0.003964320290833712,0.0034146448597311974,-0.6239745616912842,-0.7814271450042725,77.21460771579208,0.012702226638793945,139,0.0006284751,-0.0007381048,0.0009694223149828725,0.00016153434,-0.00022418732,0.00027632100036355445,0.00058072264,0.0007762351,-0.00018288122,-0.00020714183,4.0170087814331055,111.7817611694336
1779209504.586626,7.858620643615723,hold-xy,6000,9.155413138017853,0.008308243,0.006437269,0.0,0.006765196,0.0015136264,0.00061887875,-0.00073487684,0.0009607574459104809,0,0.007384075,0.0007787496,0.037387963,-0.0037657413631677628,0.002992885187268257,-0.6243319511413574,-0.7811443209648132,77.26682517711552,0.008061885833740234,140,0.00061887875,-0.00073487684,0.0009607574459104809,9.9257246e-05,-0.00015228351,0.00018177532661246666,0.0005803964,0.00076563365,-0.00012666102,-0.00013038119,4.022287368774414,111.80256652832031
1779209504.6683755,7.940370082855225,hold-xy,6500,9.918364232852674,0.007827909,0.005676799,0.0,0.006765196,0.0015136264,0.0006138105,-0.00071453117,0.0009419756639102126,0,0.0073790066,0.00079909526,0.03737595,-0.0037953045684844255,0.002470524050295353,-0.6242351531982422,-0.7812234163284302,77.25238197548202,0.016121387481689453,141,0.0006138105,-0.00071453117,0.0009419756639102126,4.8846625e-05,-2.3768938e-05,5.432269356249994e-05,0.0005614775,0.0007563472,-1.2404725e-05,-5.2887408e-05,4.022287368774414,111.80256652832031
1779209504.7502265,8.022221088409424,hold-xy,6500,9.918364232852674,0.008170074,0.0057542706,0.0,0.006765196,0.0015136264,0.00062854774,-0.0007215962,0.0009569604702406462,0,0.007393744,0.00079203025,0.037379812,-0.0036568508949130774,0.0025776659604161978,-0.6242269277572632,-0.7812302708625793,77.25123908352585,0.0067713260650634766,142,0.00062854774,-0.0007215962,0.0009569604702406462,8.266986e-05,-3.987816e-05,9.178547292016607e-05,0.00056510116,0.00077229145,-2.0651763e-05,-8.9431975e-05,4.022287368774414,111.73445892333984
1779209504.85217,8.124164581298828,hold-xy,6500,9.918364232852674,0.008312101,0.0056276736,0.0,0.006765196,0.0015136264,0.0006400887,-0.00072026066,0.0009635813043979564,0,0.007405285,0.00079336576,0.037357982,-0.004140056669712067,0.003764672437682748,-0.6243072152137756,-0.7811589241027832,77.26358890021622,0.010708332061767578,143,0.0006400887,-0.00072026066,0.0009635813043979564,9.3195995e-05,-2.3826666e-05,9.619357326105456e-05,0.00056142046,0.0007831321,-2.6938433e-06,-9.615584e-05,4.0170087814331055,111.72464752197266
1779209504.9348202,8.206814765930176,hold-xy,7000,10.681315327687495,0.008215741,0.0057282196,0.0,0.006765196,0.0015136264,0.00064090826,-0.000724582,0.0009673584921919478,0,0.0074061044,0.0007890444,0.037370242,-0.004040131811052561,0.003107944969087839,-0.6242067217826843,-0.7812426090240479,77.24847293331099,0.0022361278533935547,144,0.00064090826,-0.000724582,0.0009673584921919478,6.793543e-05,-3.0905696e-05,7.463500919830041e-05,0.0005652477,0.0007850334,-1.5148511e-05,-7.308151e-05,4.0170087814331055,111.72779083251953
1779209505.0364966,8.308491230010986,hold-xy,7000,10.681315327687495,0.007748376,0.0053708646,0.0,0.006765196,0.0015136264,0.00063040666,-0.00070938095,0.0009490173001342324,0,0.0073956028,0.0008042455,0.03734991,-0.0041017085313797,0.0028868638910353184,-0.6240364909172058,-0.7813791036605835,77.22338341668328,0.012903451919555664,145,0.00063040666,-0.00070938095,0.0009490173001342324,1.2937635e-05,2.8474326e-05,3.1275703931084654e-05,0.0005524017,0.0007716775,3.0630457e-05,-6.320184e-06,4.0170087814331055,111.72602844238281
1779209505.1214075,8.393402099609375,hold-xy,7500,11.444266422522317,0.006986047,0.0051425374,0.0,0.006765196,0.0015136264,0.0006048698,-0.0006929748,0.000919826911942602,0,0.007370066,0.00082065165,0.037353173,-0.004152823239564896,0.002950214548036456,-0.6239869594573975,-0.7814181447029114,77.2161422921234,0.00639653205871582,146,0.0006048698,-0.0006929748,0.000919826911942602,-7.474638e-05,7.377115e-05,0.000105020018170746,0.0005419553,0.0007432133,5.540308e-05,8.921717e-05,4.0170087814331055,111.72642517089844
1779209505.2240498,8.496044397354126,hold-xy,8000,12.207217517357137,0.00790905,0.00623203,0.0,0.006765196,0.0015136264,0.00062564574,-0.0007368475,0.0009666317215970659,0,0.007390842,0.0007767789,0.03737051,-0.004095736425369978,0.003173123113811016,-0.624005138874054,-0.7814030647277832,77.21893307146071,0.017258644104003906,147,0.00062564574,-0.0007368475,0.0009666317215970659,1.558744e-05,-9.176613e-05,9.308056350372684e-05,0.000580181,0.00077315385,-8.604405e-05,-3.55023e-05,4.011730194091797,111.67449951171875
1779209505.290649,8.56264352798462,hold-xy,8000,12.207217517357137,0.008621144,0.006260992,0.0,0.006765196,0.0015136264,0.00065115653,-0.00074825436,0.0009919120100602232,0,0.0074163526,0.00076537207,0.037373565,-0.004291395656764507,0.003416741732507944,-0.6242004632949829,-0.7812449336051941,77.24768459830742,0.0007312297821044922,148,0.00065115653,-0.00074825436,0.0009919120100602232,0.000102978505,-0.00010540307,0.000147357998180364,0.00058606325,0.00080026203,-8.0071986e-05,-0.00012370471,4.011730194091797,111.72174835205078
1779209505.3775911,8.649585723876953,hold-xy,8000,12.207217517357137,0.007686099,0.006684824,0.0,0.006765196,0.0015136264,0.0006238986,-0.0007599052,0.0009832117417522927,0,0.0073890947,0.0007537212,0.03738223,-0.004539216868579388,0.003477452788501978,-0.6244044899940491,-0.7810802459716797,77.27760756197392,0.016466379165649414,149,0.0006238986,-0.0007599052,0.0009832117417522927,-4.2754604e-05,-0.00012286793,0.00013009413870205576,0.00060384884,0.0007759329,-0.0001292671,1.4646024e-05,4.011730194091797,111.70453643798828
1779209505.4586666,8.730661153793335,hold-xy,8500,12.970168612191959,0.007625621,0.006203454,0.0,0.006765196,0.0015136264,0.00062316284,-0.0007495042,0.0009747247848345884,0,0.007388359,0.00076412223,0.037367698,-0.004447974730283022,0.0029785267543047667,-0.6242145895957947,-0.781234622001648,77.24949461278544,0.01610565185546875,150,0.00062316284,-0.0007495042,0.0009747247848345884,-3.2638607e-05,-4.769161e-05,5.7790729894900075e-05,0.0005934859,0.000773216,-5.371909e-05,2.1307926e-05,4.011730194091797,111.70453643798828
1779209505.5197153,8.791709899902344,hold-xy,9000,13.733119707026779,0.007908709,0.0056136455,0.0,0.006765196,0.0015136264,0.00063494034,-0.0007349979,0.0009712729891045323,0,0.0074001364,0.0007786285,0.037389595,-0.004789142869412899,0.0037493258714675903,-0.6243951916694641,-0.7810848951339722,77.27636433640208,0.004434347152709961,151,0.00063494034,-0.0007349979,0.0009712729891045323,2.5740012e-05,2.6460224e-05,3.691465327218317e-05,0.0005771044,0.00078123086,3.1479663e-05,-1.9280107e-05,4.011730194091797,111.70915985107422
1779209505.626612,8.898606538772583,hold-xy,9000,13.733119707026779,0.00830605,0.005214776,0.0,0.006765196,0.0015136264,0.00065479986,-0.0007218551,0.0009745961281509489,0,0.007419996,0.00079177134,0.03739156,-0.004467549733817577,0.002831824589520693,-0.6242234110832214,-0.7812280654907227,77.2507161798992,0.015960216522216797,152,0.00065479986,-0.0007218551,0.0009745961281509489,8.048848e-05,5.9864462e-05,0.0001003102609297123,0.00055955315,0.0007979586,7.6151126e-05,-6.5292836e-05,4.006451606750488,111.6857681274414
1779209505.71179,8.983784675598145,hold-xy,9500,14.4960708018616,0.007845342,0.006350065,0.0,0.006765196,0.0015136264,0.00063389353,-0.00075496733,0.000985797484506885,0,0.0073990896,0.0007586591,0.037389487,-0.004760138690471649,0.003497524419799447,-0.6243120431900024,-0.7811528444290161,77.26401841689595,0.015981435775756836,153,0.00063389353,-0.00075496733,0.000985797484506885,-1.7309143e-05,-7.474628e-05,7.67242629860909e-05,0.00059664494,0.0007847366,-7.67232e-05,4.0479972e-07,4.006451606750488,111.74066162109375
1779209505.8141098,9.086104393005371,hold-xy,9500,14.4960708018616,0.008260194,0.005886555,0.0,0.006765196,0.0015136264,0.0006534364,-0.0007448569,0.000990853617021308,0,0.0074186325,0.00076876953,0.037395597,-0.0047284578904509544,0.0032909978181123734,-0.6243466138839722,-0.7811262011528015,77.26897633581474,0.015836715698242188,154,0.0006534364,-0.0007448569,0.000990853617021308,4.5102104e-05,-2.2720596e-05,5.050173466685845e-05,0.0005825442,0.00080151926,-1.2222671e-05,-4.9000322e-05,4.006451606750488,111.76271057128906
1779209505.8958092,9.167803764343262,hold-xy,10000,15.259021896696423,0.0082888175,0.006524423,0.0,0.006765196,0.0015136264,0.0006518476,-0.0007699318,0.0010088113016320913,0,0.0074170437,0.0007436946,0.037386864,-0.005117675289511681,0.004378477577120066,-0.6244937777519226,-0.7810007333755493,77.29120425042937,0.005629539489746094,155,0.0006518476,-0.0007699318,0.0010088113016320913,2.6385216e-05,-9.775364e-05,0.00010125193307998482,0.0006076653,0.0008052597,-8.955411e-05,-4.7244204e-05,4.006451606750488,111.81643676757812
1779209505.9981117,9.270106315612793,hold-xy,10500,16.021972991531243,0.008602138,0.0058985357,0.0,0.006765196,0.0015136264,0.0006700065,-0.0007551089,0.0010095039057166938,0,0.0074352026,0.00075851753,0.037385438,-0.0048058535903692245,0.003430440090596676,-0.6241298913955688,-0.7812982797622681,77.23724970818961,0.015322685241699219,156,0.0006700065,-0.0007551089,0.0010095039057166938,7.7293895e-05,-2.0409967e-05,7.994318690193188e-05,0.00058843836,0.00082026725,-2.8303602e-06,-7.989306e-05,4.006451606750488,111.83313751220703
1779209506.079763,9.351757526397705,hold-xy,10500,16.021972991531243,0.0074074795,0.006141153,0.0,0.006765196,0.0015136264,0.0006283019,-0.00075510144,0.0009823143477687406,0,0.007393498,0.000758525,0.037390336,-0.005166165065020323,0.004212597850710154,-0.6243608593940735,-0.7811076045036316,77.27156898696141,0.0051386356353759766,157,0.0006283019,-0.00075510144,0.0009823143477687406,-8.213158e-05,-1.4262638e-05,8.336077697509669e-05,0.0005981112,0.0007792333,-3.200821e-05,7.697073e-05,4.00117301940918,111.79688262939453
1779209506.1820624,9.454056978225708,hold-xy,11000,16.784924086366065,0.007971573,0.0055284593,0.0,0.006765196,0.0015136264,0.0006494969,-0.00073807314,0.0009831572794413127,0,0.007414693,0.0007755533,0.03738285,-0.005028496962040663,0.003959696274250746,-0.6241608262062073,-0.7812696695327759,77.24207598563007,0.015657424926757812,158,0.0006494969,-0.00073807314,0.0009831572794413127,1.17873315e-05,4.5675926e-05,4.717235771647472e-05,0.00057642156,0.00079645246,4.7151294e-05,-1.4096031e-06,4.00117301940918,111.8216323852539
1779209506.2633183,9.53531289100647,hold-xy,11500,17.547875181200887,0.007365693,0.0037422047,0.0,0.006765196,0.0015136264,0.00064255483,-0.0006643031,0.0009242160218107986,0,0.007407751,0.00084932335,0.03739431,-0.0051100836135447025,0.0035442011430859566,-0.6238831877708435,-0.7814928889274597,77.20107899245563,0.004870891571044922,159,0.00064255483,-0.0006643031,0.0009242160218107986,-1.43756415e-05,0.00027241674,0.00027279578873326137,0.0005054522,0.00077375275,0.00026246352,7.436698e-05,4.00117301940918,111.8216323852539
1779209506.3455167,9.61751127243042,hold-xy,11500,17.547875181200887,0.008780854,0.005801761,0.0,0.006765196,0.0015136264,0.00067177415,-0.0007261075,0.000989197966390787,0,0.0074369702,0.0007875189,0.037372302,-0.004971304442733526,0.003103831084445119,-0.6239678263664246,-0.7814280390739441,77.21327459403103,0.015407323837280273,160,0.00067177415,-0.0007261075,0.000989197966390787,0.000112258516,-6.804154e-05,0.00013126928774068297,0.0005594217,0.00081581855,-4.1508807e-05,-0.0001245337,4.00117301940918,111.79692840576172
1779209506.4271755,9.699170112609863,hold-xy,12000,18.310826276035705,0.007880242,0.006742294,0.0,0.006765196,0.0015136264,0.00063694455,-0.00075721927,0.0009894844411533455,0,0.0074021406,0.00075640716,0.03734602,-0.004285179078578949,0.0025033203419297934,-0.6240041851997375,-0.7814052700996399,77.21844866912436,0.0052490234375,161,0.00063694455,-0.00075721927,0.0009894844411533455,-3.5220022e-05,-0.00014928252,0.0001533809695336302,0.00059754174,0.0007886845,-0.00015337528,1.3208482e-06,4.00117301940918,111.82597351074219
