wall_time_s,elapsed_s,mode,thrust_raw,thrust_percent,roll_cmd_deg,pitch_cmd_deg,yawrate_cmd_deg_s,target_x,target_y,target_error_x_m,target_error_y_m,target_error_m,figure8_active,mocap_x,mocap_y,mocap_z,mocap_qx,mocap_qy,mocap_qz,mocap_qw,yaw_deg,mocap_age_s,mocap_frame_count,drift_x_m,drift_y_m,horizontal_drift_m,velocity_x_m_s,velocity_y_m_s,horizontal_speed_m_s,body_error_x_m,body_error_y_m,body_velocity_x_m_s,body_velocity_y_m_s,battery_v,estimate_z
1779209326.1998734,0.0006906986236572266,hold-xy,0,0.0,0.0,-0.0,0.0,0.007604246,0.0030890123,0.0,0.0,0.0,0,0.007604246,0.0030890123,0.037404656,0.00520066823810339,0.010201697237789631,-0.6470851898193359,-0.7623317837715149,80.6561134667163,0.002927064895629883,48,0.0,0.0,0.0,0.0,0.0,0.0,0.0,0.0,0.0,0.0,4.090909004211426,112.54167175292969
1779209326.2841601,0.08497738838195801,hold-xy,0,0.0,0.0012531348,-0.0006428107,0.0,0.007604246,0.0030890123,3.6437996e-05,-2.6926864e-05,4.5307653864887946e-05,0,0.007640684,0.0030620855,0.037387483,0.004799216985702515,0.010662881657481194,-0.6473207473754883,-0.7621279954910278,80.69253114603252,0.016072988510131836,49,3.6437996e-05,-2.6926864e-05,4.5307653864887946e-05,0.00015365871,-0.00011355036,0.00019106198920846437,2.0679156e-05,4.0313225e-05,-8.720383e-05,-0.00017000051,4.090909004211426,112.51048278808594
1779209326.3655758,0.16639304161071777,hold-xy,0,0.0,-0.0009667574,0.0014762736,0.0,0.007604246,0.0030890123,-2.5099143e-05,5.982374e-05,6.487562411699614e-05,0,0.007579147,0.003148836,0.037437394,0.005098912864923477,0.01173526793718338,-0.6472672820091248,-0.7621557116508484,80.68715775603282,0.005360841751098633,50,-2.5099143e-05,5.982374e-05,6.487562411699614e-05,-9.282514e-05,0.00020300476,0.00022322060428082836,-5.497356e-05,-3.44493e-05,0.00018530761,0.0001244529,4.090909004211426,112.53961181640625
1779209326.4510996,0.25191688537597656,hold-xy,0,0.0,0.0010669837,-0.00087725336,0.0,0.007604246,0.0030890123,2.8401613e-05,-2.4631387e-05,3.759463744946312e-05,0,0.0076326476,0.003064381,0.037368268,0.0049853334203362465,0.010824344120919704,-0.6472851634025574,-0.7621548175811768,80.68758465964137,0.0065729618072509766,51,2.8401613e-05,-2.4631387e-05,3.759463744946312e-05,0.00012539007,-0.00015840693,0.000202028270678074,1.971088e-05,3.2013093e-05,-0.0001360289,-0.00014937055,4.090909004211426,112.56529235839844
1779209326.5163436,0.31716084480285645,hold-xy,0,0.0,0.00048235254,-0.00058968685,0.0,0.007604246,0.0030890123,1.7330982e-05,-2.0078849e-05,2.6524010417776243e-05,0,0.007621577,0.0030689335,0.03738324,0.0048932479694485664,0.010715491138398647,-0.647284746170044,-0.7621573805809021,80.68725493110676,0.00011754035949707031,52,1.7330982e-05,-2.0078849e-05,2.6524010417776243e-05,4.1452015e-05,-9.183641e-05,0.00010075810403481124,1.7009646e-05,2.0351781e-05,-8.391808e-05,-5.576694e-05,4.090909004211426,112.56529235839844
1779209326.5985363,0.3993535041809082,hold-xy,0,0.0,0.0006130634,-0.001979184,0.0,0.007604246,0.0030890123,1.6237609e-05,-7.129647e-05,7.312213123947783e-05,0,0.0076204836,0.0030177159,0.037390817,0.004749760497361422,0.010644027963280678,-0.6474765539169312,-0.7619962692260742,80.71590860533885,0.00682520866394043,53,1.6237609e-05,-7.129647e-05,7.312213123947783e-05,2.4671019e-05,-0.0002678397,0.0002689735396339431,6.774292e-05,2.7527152e-05,-0.00026035096,-6.755837e-05,4.090909004211426,112.54735565185547
1779209326.6999178,0.5007350444793701,hold-xy,0,0.0,-0.0016172992,0.001260526,0.0,0.007604246,0.0030890123,-4.89885e-05,5.4212287e-05,7.306739985595184e-05,0,0.0075552575,0.0031432246,0.037431154,0.004765777848660946,0.01316672284156084,-0.6471475958824158,-0.7622362375259399,80.67299716887388,0.009188175201416016,54,-4.89885e-05,5.4212287e-05,7.306739985595184e-05,-0.00018034808,0.00019277043,0.0002639808094216681,-4.555606e-05,-5.712697e-05,0.00016099308,0.00020920587,4.090909004211426,112.53520965576172
1779209326.782657,0.5834741592407227,hold-xy,0,0.0,0.00065200945,-0.0010037001,0.0,0.007604246,0.0030890123,8.359086e-06,-2.8578797e-05,2.9776198515624912e-05,0,0.007612605,0.0030604335,0.037387766,0.005198088474571705,0.009949996136128902,-0.6472773551940918,-0.7621719837188721,80.68444160023695,0.008295059204101562,55,8.359086e-06,-2.8578797e-05,2.9776198515624912e-05,7.94698e-05,-0.0001620434,0.00018048133882522858,2.6848795e-05,1.2874946e-05,-0.00014704242,-0.00010465199,4.090909004211426,112.50534057617188
1779209326.887192,0.6880092620849609,hold-xy,0,0.0,0.0008649279,-0.00031272526,0.0,0.007604246,0.0030890123,2.6259571e-05,-1.2170756e-05,2.8942915539435997e-05,0,0.0076305056,0.0030768416,0.037369754,0.004978414624929428,0.01030530035495758,-0.6473220586776733,-0.7621306777000427,80.69192834087066,0.010431766510009766,56,2.6259571e-05,-1.2170756e-05,2.8942915539435997e-05,0.00010807251,-6.535919e-05,0.00012629921841118255,7.763205e-06,2.788234e-05,-4.7018642e-05,-0.000117220894,4.090909004211426,112.51158905029297
1779209326.9691043,0.7699215412139893,hold-xy,0,0.0,-0.0015414346,0.0021608796,0.0,0.007604246,0.0030890123,-4.2480417e-05,9.153364e-05,0.00010091081763316035,0,0.0075617656,0.003180546,0.037447568,0.005108480807393789,0.012377241626381874,-0.6471128463745117,-0.7622766494750977,80.66563330414003,0.0006082057952880859,57,-4.2480417e-05,9.153364e-05,0.00010091081763316035,-0.00014914686,0.00029338888,0.0003291227943199708,-8.343146e-05,-5.6764282e-05,0.000265313,0.00019475837,4.090909004211426,112.56556701660156
1779209327.073958,0.8747751712799072,hold-xy,0,0.0,0.0010482257,-0.0019126257,0.0,0.007604246,0.0030890123,2.228003e-05,-6.33311e-05,6.713589147558838e-05,0,0.007626526,0.0030256812,0.037395515,0.005090074613690376,0.009836898185312748,-0.6474042534828186,-0.7620664238929749,80.70326327512696,0.010661840438842773,58,2.228003e-05,-6.33311e-05,6.713589147558838e-05,0.00010053533,-0.00028470613,0.00030193531617961605,5.8899954e-05,3.221837e-05,-0.00026472524,-0.00014520838,4.090909004211426,112.56585693359375
1779209327.1588733,0.9596905708312988,hold-xy,0,0.0,-0.0011332886,0.0019286495,0.0,0.007604246,0.0030890123,-2.7942471e-05,7.1850605e-05,7.709274409776054e-05,0,0.0075763036,0.003160863,0.037436396,0.005109200719743967,0.012348688207566738,-0.6472232937812805,-0.7621833086013794,80.68215876790615,0.009825944900512695,59,-2.7942471e-05,7.1850605e-05,7.709274409776054e-05,-0.00010532816,0.00027363753,0.0002932090064397669,-6.6378365e-05,-3.920719e-05,0.00025297317,0.00014824334,4.090909004211426,112.5738525390625
1779209327.24052,1.041337251663208,hold-xy,0,0.0,0.0018250012,-0.0008751197,0.0,0.007604246,0.0030890123,5.3463504e-05,-2.8151553e-05,6.042231427138268e-05,0,0.0076577095,0.0030608608,0.037380036,0.005087836645543575,0.010042316280305386,-0.6473747491836548,-0.7620886564254761,80.69927399316477,0.009717226028442383,60,5.3463504e-05,-2.8151553e-05,6.042231427138268e-05,0.0002249881,-0.0001754099,0.0002852863109705975,1.9140887e-05,5.7310404e-05,-0.00013674216,-0.00025037944,4.090909004211426,112.57379913330078
1779209327.3235018,1.124319076538086,hold-xy,0,0.0,0.0008178685,-0.0010229487,0.0,0.007604246,0.0030890123,3.1036325e-05,-3.6270358e-05,4.7736697267377576e-05,0,0.0076352824,0.003052742,0.03739135,0.005238951183855534,0.00979537982493639,-0.6473066210746765,-0.7621487975120544,80.68850866549906,0.01896500587463379,61,3.1036325e-05,-3.6270358e-05,4.7736697267377576e-05,6.624272e-05,-0.00015581973,0.00016931592974860768,3.07707e-05,3.6495974e-05,-0.00014304834,-9.058176e-05,4.090909004211426,112.57379913330078
1779209327.3906362,1.191453456878662,hold-xy,0,0.0,0.0012603172,-0.00058624876,0.0,0.007604246,0.0030890123,5.132146e-05,-3.207638e-05,6.052095933255154e-05,0,0.0076555675,0.003056936,0.0373761,0.005158497951924801,0.01017167791724205,-0.6472226977348328,-0.7622156739234924,80.6767105098847,0.010714054107666016,62,5.132146e-05,-3.207638e-05,6.052095933255154e-05,0.0001270957,-9.238364e-05,0.0001571243274212665,2.3338318e-05,5.5840035e-05,-7.0573114e-05,-0.00014038336,4.090909004211426,112.51605224609375
1779209327.4571066,1.2579238414764404,hold-xy,0,0.0,-0.0001483508,0.00010043829,0.0,0.007604246,0.0030890123,1.5802681e-05,-7.031951e-06,1.7296620340465914e-05,0,0.0076200487,0.0030819804,0.03737948,0.005175048019737005,0.009871971793472767,-0.6471908092498779,-0.7622465491294861,80.67125760283811,0.004496335983276367,63,1.5802681e-05,-7.031951e-06,1.7296620340465914e-05,-5.7626938e-05,3.869539e-05,6.941323646550849e-05,4.3773534e-06,1.6733555e-05,2.8842365e-05,6.313727e-05,4.090909004211426,112.5362777709961
1779209327.541341,1.342158317565918,hold-xy,0,0.0,0.00087401475,-0.0012431099,0.0,0.007604246,0.0030890123,4.0733255e-05,-5.7698926e-05,7.062835399629078e-05,0,0.0076449793,0.0030313134,0.037378654,0.00499716866761446,0.010525351390242577,-0.6473420262336731,-0.7621106505393982,80.69543591314255,0.0067021846771240234,64,4.0733255e-05,-5.7698926e-05,7.062835399629078e-05,5.083873e-05,-0.00015821552,0.0001661828163789326,5.035392e-05,4.952622e-05,-0.00014791414,-7.5750504e-05,4.090909004211426,112.51689910888672
1779209327.6229916,1.4238088130950928,hold-xy,500,0.762951094834821,0.00029211264,-0.0009078354,0.0,0.007604246,0.0030890123,2.5106594e-05,-5.1089562e-05,5.692525403862633e-05,0,0.0076293526,0.0030379228,0.037388876,0.005180528853088617,0.010065708309412003,-0.6474019289016724,-0.7620647549629211,80.70342351027242,0.006788730621337891,65,2.5106594e-05,-5.1089562e-05,5.692525403862633e-05,-2.1889246e-05,-8.6440996e-05,8.916942013828412e-05,4.636268e-05,3.3030083e-05,-8.884172e-05,7.637639e-06,4.090909004211426,112.51689910888672
1779209327.7101362,1.510953426361084,hold-xy,500,0.762951094834821,0.0018138762,2.8249196e-05,0.0,0.007604246,0.0030890123,8.4524974e-05,-3.0997908e-05,9.002966892660809e-05,0,0.007688771,0.0030580144,0.037355542,0.004933829419314861,0.010165220126509666,-0.6472988128662109,-0.7621525526046753,80.68811349892452,0.007056474685668945,66,8.4524974e-05,-3.0997908e-05,9.002966892660809e-05,0.0001898589,8.871066e-06,0.00019006603478790627,1.691256e-05,8.8426845e-05,3.947496e-05,-0.00018592156,4.090909004211426,112.52487182617188
1779209327.7943776,1.5951948165893555,hold-xy,500,0.762951094834821,0.00058555347,0.00031201894,0.0,0.007604246,0.0030890123,5.1923096e-05,-1.2799166e-05,5.347734658485226e-05,0,0.007656169,0.0030762132,0.037370503,0.00538981519639492,0.009371323511004448,-0.6472613215446472,-0.7621914744377136,80.68081493172294,0.003245830535888672,67,5.1923096e-05,-1.2799166e-05,5.347734658485226e-05,2.182414e-05,6.821425e-05,7.162036612081573e-05,4.22211e-06,5.3310414e-05,7.084801e-05,-1.0489873e-05,4.090909004211426,112.57263946533203
1779209327.896143,1.696960210800171,hold-xy,500,0.762951094834821,-0.0035453155,0.0017943606,0.0,0.007604246,0.0030890123,-9.9884346e-05,7.6378696e-05,0.00012574016221581985,0,0.0075043617,0.003165391,0.03745848,0.004923378117382526,0.012360277585685253,-0.647185742855072,-0.7622162103652954,80.67651687534843,0.005370378494262695,68,-9.9884346e-05,7.6378696e-05,0.00012574016221581985,-0.000441787,0.0003162479,0.000543312524631803,-5.9187594e-05,-0.000110938796,0.00024049691,0.00048718552,4.090909004211426,112.521240234375
1779209327.9988852,1.7997024059295654,hold-xy,1000,1.525902189669642,-0.0013393158,0.0014039034,0.0,0.007604246,0.0030890123,-4.4338405e-05,6.610807e-05,7.960006999568162e-05,0,0.0075599076,0.0031551204,0.037441783,0.0053483122028410435,0.011466890573501587,-0.6471904516220093,-0.7622233629226685,80.67496028711464,0.01507115364074707,69,-4.4338405e-05,6.610807e-05,7.960006999568162e-05,-0.0001301502,0.00018825723,0.0002288664685991302,-5.8050075e-05,-5.44643e-05,0.0001646805,0.00015893455,4.090909004211426,112.44993591308594
1779209328.0806684,1.8814857006072998,hold-xy,1500,2.288853284504463,0.0012602956,-0.0018575252,0.0,0.007604246,0.0030890123,2.5773421e-05,-6.1637955e-05,6.680947876861352e-05,0,0.0076300194,0.0030273744,0.0373827,0.005174541380256414,0.009961182251572609,-0.6473596692085266,-0.7621021270751953,80.69683945040585,0.004701137542724609,70,2.5773421e-05,-6.1637955e-05,6.680947876861352e-05,0.00013714004,-0.00028409009,0.00031545929289999655,5.6660734e-05,3.53987e-05,-0.00025818357,-0.00018126173,4.090909004211426,112.3985366821289
1779209328.1896958,1.9905130863189697,hold-xy,1500,2.288853284504463,0.00060654664,0.00031594996,0.0,0.007604246,0.0030890123,2.2320077e-05,9.959796e-06,2.444142722914281e-05,0,0.007626566,0.0030989721,0.037393693,0.005197020247578621,0.01012019906193018,-0.6471845507621765,-0.7622484564781189,80.6708650375038,0.016814470291137695,71,2.2320077e-05,9.959796e-06,2.444142722914281e-05,8.5308115e-05,2.2769687e-05,8.829458463796683e-05,-1.34462725e-05,2.041032e-05,3.6297446e-05,-8.048869e-05,4.090909004211426,112.40962982177734
1779209328.271111,2.0719282627105713,hold-xy,2000,3.051804379339284,0.00055130164,-0.0011387568,0.0,0.007604246,0.0030890123,1.6650185e-05,-3.8796803e-05,4.221872399204112e-05,0,0.007620896,0.0030502155,0.03741386,0.005360469687730074,0.009506197646260262,-0.6473402380943298,-0.7621229887008667,80.69295777076697,0.017386436462402344,72,1.6650185e-05,-3.8796803e-05,4.221872399204112e-05,3.8675353e-05,-0.00016499145,0.00016946374639519504,3.5593323e-05,2.2705415e-05,-0.0001565647,-6.484949e-05,4.090909004211426,112.4435806274414
1779209328.3562813,2.1570985317230225,hold-xy,2000,3.051804379339284,-0.0028019003,0.001997309,0.0,0.007604246,0.0030890123,-8.102413e-05,8.191145e-05,0.00011521456420429407,0,0.007523222,0.0031709238,0.037454803,0.004801873117685318,0.013252229429781437,-0.6471845507621765,-0.7622030377388,80.67880239053409,0.019618988037109375,73,-8.102413e-05,8.191145e-05,0.00011521456420429407,-0.0003262321,0.00032112852,0.0004577673195405508,-6.770649e-05,-9.322139e-05,0.00026404884,0.0003739373,4.090909004211426,112.45100402832031
1779209328.4379413,2.2387585639953613,hold-xy,2500,3.8147554741741057,0.0015643387,-0.0008045016,0.0,0.007604246,0.0030890123,3.8190745e-05,-2.3991568e-05,4.510131285514557e-05,0,0.007642437,0.0030650208,0.037375957,0.005143442656844854,0.010253853164613247,-0.6473457217216492,-0.7621101140975952,80.695387395158,0.019008398056030273,74,3.8190745e-05,-2.3991568e-05,4.510131285514557e-05,0.00020635486,-0.00016138564,0.00026196880815576416,1.7501101e-05,4.156729e-05,-0.00012589812,-0.00022973315,4.090909004211426,112.40442657470703
1779209328.5198743,2.3206915855407715,hold-xy,2500,3.8147554741741057,-0.0016441965,0.0019709165,0.0,0.007604246,0.0030890123,-4.685577e-05,8.256477e-05,9.493368761652984e-05,0,0.0075573903,0.0031715771,0.037454292,0.005206158850342035,0.011966344900429249,-0.6471776962280273,-0.7622275352478027,80.67430438216903,0.018996238708496094,75,-4.685577e-05,8.256477e-05,9.493368761652984e-05,-0.00016690555,0.00027713113,0.00032351062155290105,-7.3880714e-05,-5.9615806e-05,0.00024642187,0.00020960768,4.090909004211426,112.40442657470703
1779209328.602029,2.402846336364746,hold-xy,3000,4.577706569008926,0.002167561,-0.0009244762,0.0,0.007604246,0.0030890123,5.980581e-05,-2.4675624e-05,6.469637689224817e-05,0,0.007664052,0.0030643367,0.03738938,0.005218156613409519,0.009877546690404415,-0.6473010778427124,-0.7621525526046753,80.687850834773,0.020163297653198242,76,5.980581e-05,-2.4675624e-05,6.469637689224817e-05,0.00027826906,-0.00020325527,0.0003445959531950913,1.4673073e-05,6.301049e-05,-0.00015554909,-0.00030749122,4.090909004211426,112.40483093261719
1779209328.6637504,2.4645676612854004,hold-xy,3000,4.577706569008926,0.0010294003,-0.00032575056,0.0,0.007604246,0.0030890123,3.9981678e-05,-9.380048e-06,4.1067260971678334e-05,0,0.0076442277,0.0030796323,0.037389114,0.0054636127315461636,0.009221766144037247,-0.6472148299217224,-0.7622323036193848,80.67352542248678,0.009490966796875,77,3.9981678e-05,-9.380048e-06,4.1067260971678334e-05,0.000112636946,-7.8893674e-05,0.0001375183401013155,2.7766305e-06,4.0973286e-05,-5.9596852e-05,-0.00012393348,4.090909004211426,112.3751449584961
1779209328.7454224,2.5462396144866943,hold-xy,3000,4.577706569008926,0.0011908899,-0.0015584535,0.0,0.007604246,0.0030890123,4.4548884e-05,-5.745236e-05,7.270059546416111e-05,0,0.007648795,0.00303156,0.037405245,0.005387122742831707,0.009265587665140629,-0.6473731994628906,-0.7620977759361267,80.6974167356948,0.009203910827636719,78,4.4548884e-05,-5.745236e-05,7.270059546416111e-05,9.556351e-05,-0.00023118785,0.0002501603603815266,4.9495517e-05,5.325007e-05,-0.00021269967,-0.00013167782,4.090909004211426,112.41714477539062
1779209328.8531308,2.6539480686187744,hold-xy,3500,5.340657663843747,-0.001769732,0.0017218292,0.0,0.007604246,0.0030890123,-4.429277e-05,7.573422e-05,8.773552149005256e-05,0,0.0075599533,0.0031647466,0.037447672,0.005270329304039478,0.012077192775905132,-0.6472204327583313,-0.7621890306472778,80.68102864295975,0.018860578536987305,79,-4.429277e-05,7.573422e-05,8.773552149005256e-05,-0.00020492618,0.00024566724,0.0003199173797751831,-6.756234e-05,-5.5971886e-05,0.00020924115,0.00024200263,4.090909004211426,112.46141815185547
1779209328.938311,2.739128351211548,hold-xy,4000,6.103608758678568,0.0014513943,-0.0014821924,0.0,0.007604246,0.0030890123,4.024664e-05,-4.3375185e-05,5.917092565001391e-05,0,0.0076444927,0.0030456372,0.037389603,0.005115309730172157,0.010522927157580853,-0.6472983956336975,-0.7621468901634216,80.6888835646589,0.019907236099243164,80,4.024664e-05,-4.3375185e-05,5.917092565001391e-05,0.00015799861,-0.00025274808,0.000298069044405445,3.629197e-05,4.6734265e-05,-0.00022385453,-0.00019681032,4.090909004211426,112.44813537597656
1779209329.019708,2.8205251693725586,hold-xy,4000,6.103608758678568,-0.0027218566,0.0019881278,0.0,0.007604246,0.0030890123,-8.883886e-05,0.000101359095,0.00013478133825346885,0,0.007515407,0.0031903714,0.037440516,0.005318654701113701,0.01245945319533348,-0.6471489667892456,-0.7622432708740234,80.67131748528068,0.005835771560668945,81,-8.883886e-05,0.000101359095,0.00013478133825346885,-0.0002950399,0.00027789007,0.0004053041162924779,-8.5618e-05,-0.000104094026,0.00022638956,0.00033618326,4.090909004211426,112.44813537597656
1779209329.1211593,2.9219765663146973,hold-xy,4500,6.866559853513389,0.00061316387,-0.0009847407,0.0,0.007604246,0.0030890123,4.307367e-06,-1.8959632e-05,1.9442763664148846e-05,0,0.0076085534,0.0030700527,0.037391007,0.005515353288501501,0.009142870083451271,-0.6473089456558228,-0.7621530294418335,80.68751867399521,0.009942054748535156,82,4.307367e-06,-1.8959632e-05,1.9442763664148846e-05,8.0531885e-05,-0.00017627748,0.0001938017871250857,1.801274e-05,7.318623e-06,-0.00016092266,-0.000107995525,4.090909004211426,112.43387603759766
1779209329.2035384,3.0043556690216064,hold-xy,4500,6.866559853513389,0.0014898719,-0.0013385769,0.0,0.007604246,0.0030890123,3.7287362e-05,-4.5785913e-05,5.9048261220979486e-05,0,0.0076415334,0.0030432264,0.037370834,0.005139646586030722,0.009979352355003357,-0.6473045945167542,-0.7621487975120544,80.68859423767604,0.00972294807434082,83,3.7287362e-05,-4.5785913e-05,5.9048261220979486e-05,0.00017615699,-0.00022082837,0.00028248265492997817,3.9149512e-05,4.420422e-05,-0.00018941637,-0.00020956594,4.090909004211426,112.3442611694336
1779209329.3061259,3.106943130493164,hold-xy,5000,7.629510948348211,-0.0021571766,0.0018857418,0.0,0.007604246,0.0030890123,-7.016305e-05,8.572335e-05,0.0001107761102653916,0,0.007534083,0.0031747357,0.037417714,0.005230732262134552,0.012058599852025509,-0.647082507610321,-0.7623066306114197,80.66024062243034,0.019545555114746094,84,-7.016305e-05,8.572335e-05,0.0001107761102653916,-0.00022418298,0.00027071894,0.00035149218348160265,-7.320029e-05,-8.314484e-05,0.00023074778,0.00026514565,4.090909004211426,112.36167907714844
1779209329.3960822,3.1968994140625,hold-xy,5000,7.629510948348211,0.001968789,-0.001137249,0.0,0.007604246,0.0030890123,6.0020946e-05,-4.445645e-05,7.469196903728436e-05,0,0.007664267,0.003044556,0.03736228,0.0051003326661884785,0.010636626742780209,-0.6473612189292908,-0.7620920538902283,80.69859093850391,0.009026527404785156,85,6.0020946e-05,-4.445645e-05,7.469196903728436e-05,0.00023177636,-0.00019918867,0.00030560826040700213,3.4170855e-05,6.641719e-05,-0.00015910811,-0.0002609234,4.085630416870117,112.38158416748047
1779209329.4840386,3.284855842590332,hold-xy,5500,8.392462043183032,0.0008114135,-0.00041620698,0.0,0.007604246,0.0030890123,3.5868026e-05,-2.30812e-05,4.26527512517e-05,0,0.007640114,0.0030659311,0.03740988,0.005080586764961481,0.010529070161283016,-0.6474077105522156,-0.7620542645454407,80.70533013691566,0.013956546783447266,86,3.5868026e-05,-2.30812e-05,4.26527512517e-05,7.497151e-05,-6.2196705e-05,9.741230879044919e-05,1.6985045e-05,3.9125e-05,-4.9271308e-05,-8.4032705e-05,4.085630416870117,112.35791015625
1779209329.6473713,3.448188543319702,hold-xy,6500,9.918364232852674,-0.0017338918,0.0013931489,0.0,0.007604246,0.0030890123,-7.707253e-05,8.970569e-05,0.00011826785698620216,0,0.0075271735,0.003178718,0.037456688,0.005360160488635302,0.011661759577691555,-0.6472765207290649,-0.7621472477912903,80.68839431257985,0.003943920135498047,87,-7.707253e-05,8.970569e-05,0.00011826785698620216,-0.00014298047,0.00015165689,0.00020843038623374565,-7.605302e-05,-9.057166e-05,0.00012652374,0.00016563505,4.085630416870117,112.37142944335938
1779209329.6709733,3.4717905521392822,hold-xy,6500,9.918364232852674,0.0021687322,0.0006058698,0.0,0.007604246,0.0030890123,-5.343929e-05,8.175173e-05,9.766833079847746e-05,0,0.0075508067,0.003170764,0.03746072,0.005226451437920332,0.01195450872182846,-0.6472327709197998,-0.762180745601654,80.68255462368406,0.016715049743652344,88,-5.343929e-05,8.175173e-05,9.766833079847746e-05,0.000554521,-0.00011415363,0.0005661489005077783,-7.202108e-05,-6.597019e-05,-2.2868204e-05,-0.00056568685,4.085630416870117,112.37142944335938
1779209329.7577524,3.5585696697235107,hold-xy,6500,9.918364232852674,0.0026644992,-0.0023009933,0.0,0.007604246,0.0030890123,-2.2176653e-05,-3.3052638e-05,3.9803025232334205e-05,0,0.0075820694,0.0030559597,0.03738888,0.0051587666384875774,0.010426913388073444,-0.6471707224845886,-0.7622563242912292,80.6694746660297,0.0161895751953125,89,-2.2176653e-05,-3.3052638e-05,3.9803025232334205e-05,0.0004955908,-0.00047440353,0.0006860531588105921,3.6210826e-05,-1.6524435e-05,-0.00038777702,-0.0005659487,4.085630416870117,112.35076141357422
1779209329.8207204,3.621537685394287,hold-xy,7000,10.681315327687495,0.0032665192,-0.0019066567,0.0,0.007604246,0.0030890123,2.3718923e-05,-4.673726e-05,5.241143635255341e-05,0,0.007627965,0.003042275,0.03737905,0.005381876137107611,0.009563613682985306,-0.6474186778068542,-0.762055516242981,80.70487453305223,0.006223201751708984,90,2.3718923e-05,-4.673726e-05,5.241143635255341e-05,0.0005356952,-0.00038837123,0.0006616657252088801,4.2292493e-05,3.095648e-05,-0.00029674632,-0.0005913909,4.085630416870117,112.35076141357422
1779209329.9225242,3.723341464996338,hold-xy,7500,11.444266422522317,0.00046404105,0.0009286533,0.0,0.007604246,0.0030890123,-3.275741e-05,5.3448835e-05,6.268832266148287e-05,0,0.0075714886,0.0031424612,0.03742529,0.005490669049322605,0.01103135384619236,-0.6473296880722046,-0.7621104717254639,80.69483434019665,0.017834901809692383,91,-3.275741e-05,5.3448835e-05,6.268832266148287e-05,0.00018713309,6.138257e-05,0.00019694317208898357,-4.744887e-05,-4.096865e-05,9.083292e-05,-0.00017474551,4.085630416870117,112.36676025390625
1779209329.9876857,3.7885029315948486,hold-xy,7500,11.444266422522317,-0.00015978166,0.0007777804,0.0,0.007604246,0.0030890123,-4.328508e-05,5.4739416e-05,6.978539772196785e-05,0,0.007560961,0.0031437518,0.03743518,0.005179505795240402,0.011625931598246098,-0.6473392248153687,-0.7620957493782043,80.69770570182078,0.020842790603637695,92,-4.328508e-05,5.4739416e-05,6.978539772196785e-05,8.017868e-05,4.9197108e-05,9.406899947663082e-05,-4.7022804e-05,-5.156411e-05,6.151048e-05,-7.117189e-05,4.080351829528809,112.3715591430664
1779209330.0734322,3.8742494583129883,hold-xy,7500,11.444266422522317,-0.0011276292,0.0016239932,0.0,0.007604246,0.0030890123,-7.0885755e-05,9.692041e-05,0.00012007646016885602,0,0.0075333603,0.0031859328,0.0374334,0.005393352825194597,0.011210010387003422,-0.6471860408782959,-0.7622305750846863,80.67366404977626,0.00832223892211914,93,-7.0885755e-05,9.692041e-05,0.00012007646016885602,-2.813715e-05,0.00016321253,0.0001656201424327857,-8.415169e-05,-8.565541e-05,0.00015649525,5.4215016e-05,4.080351829528809,112.36801147460938
1779209330.1754947,3.9763119220733643,hold-xy,8000,12.207217517357137,-2.1631626e-05,0.0008872037,0.0,0.007604246,0.0030890123,-3.326405e-05,7.0156995e-05,7.764342376371603e-05,0,0.007570982,0.0031591693,0.03742417,0.005432736594229937,0.010882665403187275,-0.6471575498580933,-0.7622592449188232,80.66859254059219,0.008452892303466797,94,-3.326405e-05,7.0156995e-05,7.764342376371603e-05,9.10301e-05,3.5480174e-05,9.770016762746101e-05,-6.383502e-05,-4.4199453e-05,4.9770715e-05,-8.407258e-05,4.0750732421875,112.35470581054688
1779209330.2607672,4.06158447265625,hold-xy,8000,12.207217517357137,0.005582577,-0.0048609814,0.0,0.007604246,0.0030890123,0.00013956893,-0.00016779942,0.00021825702263874054,0,0.007743815,0.002921213,0.03745308,0.002193772466853261,0.011475205421447754,-0.6474257707595825,-0.762039065361023,80.70987797848933,0.007605552673339844,95,0.00013956893,-0.00016779942,0.00021825702263874054,0.00066578755,-0.00080408884,0.001043950154958431,0.00014306736,0.00016482676,-0.00068606157,-0.00078686187,4.080351829528809,112.34071350097656
1779209330.343123,4.143940210342407,hold-xy,8500,12.970168612191959,0.016387394,-0.009219544,0.0,0.007604246,0.0030890123,0.0005353419,-0.0004297283,0.000686481885985376,0,0.008139588,0.002659284,0.037542332,-0.0037092198617756367,0.009719607420265675,-0.6474514007568359,-0.7620357275009155,80.70861161417795,0.005154848098754883,96,0.0005353419,-0.0004297283,0.000686481885985376,0.0018660852,-0.001489427,0.0023876069318944176,0.00033765638,0.00059770024,-0.0011685961,-0.0020820783,4.080351829528809,112.3480224609375
1779209330.4454925,4.246309757232666,hold-xy,9000,13.733119707026779,0.02117906,-0.012971474,0.0,0.007604246,0.0030890123,0.000802367,-0.0006882164,0.0010570878087884609,0,0.008406613,0.002400796,0.0376092,-0.008980819955468178,0.008581306785345078,-0.6475808620452881,-0.761895477771759,80.724606665231,0.013422727584838867,97,0.000802367,-0.0006882164,0.0010570878087884609,0.0021575466,-0.0018666699,0.002852974538330338,0.0005498925,0.0009028028,-0.0014945099,-0.0024302064,4.0750732421875,112.3262710571289
1779209330.613353,4.414170265197754,hold-xy,9500,14.4960708018616,0.015925914,-0.009765794,0.0,0.007604246,0.0030890123,0.0007266691,-0.00062481756,0.0009583553231689371,0,0.008330915,0.0024641948,0.03760222,-0.00833224132657051,0.008727021515369415,-0.6473968029022217,-0.7620576024055481,80.69735677345588,0.01437067985534668,98,0.0007266691,-0.00062481756,0.0009583553231689371,0.0013742271,-0.001192719,0.0018196369615080142,0.00049913453,0.00081811345,-0.0009548897,-0.0015489559,4.0750732421875,112.33064270019531
1779209330.634485,4.435302257537842,hold-xy,9500,14.4960708018616,0.020394241,-0.013514985,0.0,0.007604246,0.0030890123,0.0008262368,-0.000729786,0.0011023859440795626,0,0.008430483,0.0023592263,0.037641272,-0.009618564508855343,0.008765368722379208,-0.6477027535438538,-0.7617821097373962,80.74305479916809,0.0049130916595458984,99,0.0008262368,-0.000729786,0.0011023859440795626,0.0019384454,-0.0018643562,0.0026894970954404293,0.00058737164,0.0009328716,-0.0015282538,-0.002213105,4.0750732421875,112.32728576660156
1779209330.7218864,4.522703647613525,hold-xy,10000,15.259021896696423,0.016933588,-0.010592567,0.0,0.007604246,0.0030890123,0.00082476716,-0.0007061779,0.0010857845951538108,0,0.008429013,0.0023828344,0.03761829,-0.009535003453493118,0.008918889798223972,-0.6476384997367859,-0.7618359327316284,80.73367217864923,0.005087137222290039,100,0.00082476716,-0.0007061779,0.0010857845951538108,0.0013518572,-0.0012238543,0.0018235507327390604,0.00056415546,0.00092771585,-0.0009902024,-0.0015312859,4.0750732421875,112.32728576660156
1779209330.8047743,4.605591535568237,hold-xy,10000,15.259021896696423,0.015528987,-0.009098328,0.0,0.007604246,0.0030890123,0.0008538356,-0.0007106194,0.0011108623426380668,0,0.008458082,0.002378393,0.037618395,-0.009456446394324303,0.008021246641874313,-0.6476500034332275,-0.7618370652198792,80.73398251383732,0.014259576797485352,101,0.0008538356,-0.0007106194,0.0011108623426380668,0.0010646,-0.0008747735,0.0013778975995667726,0.0005638635,0.0009571171,-0.0006919386,-0.0011915632,4.069794654846191,112.3607406616211
1779209330.8866773,4.687494516372681,hold-xy,10500,16.021972991531243,0.01403011,-0.008961457,0.0,0.007604246,0.0030890123,0.0008592168,-0.00074637565,0.0011381256933456025,0,0.008463463,0.0023426367,0.037627675,-0.009965170174837112,0.008894413709640503,-0.6476770639419556,-0.7617978453636169,80.73929495115428,0.0032110214233398438,102,0.0008592168,-0.00074637565,0.0011381256933456025,0.00076258765,-0.00072774437,0.0010541118215836992,0.0005983765,0.00096813,-0.0005955383,-0.00086976204,4.069794654846191,112.3497543334961
1779209330.974881,4.775698184967041,hold-xy,10500,16.021972991531243,0.01212311,-0.0076440424,0.0,0.007604246,0.0030890123,0.0008411603,-0.0007288705,0.0011130152522652787,0,0.008445406,0.0023601418,0.037655264,-0.00978577695786953,0.008743727579712868,-0.647576630115509,-0.7618873119354248,80.72399067007002,0.013636112213134766,103,0.0008411603,-0.0007288705,0.0011130152522652787,0.00046416564,-0.0004419019,0.0006408798950930664,0.0005837522,0.0009476478,-0.00036130415,-0.00052932627,4.069794654846191,112.33209991455078
1779209331.0581477,4.858964920043945,hold-xy,11000,16.784924086366065,0.012396357,-0.00910471,0.0,0.007604246,0.0030890123,0.00086700823,-0.00080420054,0.0011825573059814733,0,0.008471254,0.0022848118,0.037644193,-0.009845473803579807,0.008568951860070229,-0.647753119468689,-0.7617385387420654,80.75023746648849,0.015625,104,0.00086700823,-0.00080420054,0.0011825573059814733,0.00042032177,-0.0005873777,0.0007222762081517545,0.00065438193,0.0009850005,-0.0005121782,-0.0005092705,4.069794654846191,112.27751159667969
1779209331.1209815,4.9217987060546875,hold-xy,11000,16.784924086366065,0.011488648,-0.00710694,0.0,0.007604246,0.0030890123,0.000868815,-0.00076325587,0.001156459683109442,0,0.008473061,0.0023257565,0.03764194,-0.009644106961786747,0.008433057926595211,-0.6477031707763672,-0.761785089969635,80.74256577370483,0.004087686538696289,105,0.000868815,-0.00076325587,0.001156459683109442,0.0003015134,-0.00024600077,0.00038913586094783877,0.000613548,0.0009802845,-0.00019429208,-0.00033716066,4.069794654846191,112.27751159667969
1779209331.2247117,5.025528907775879,hold-xy,11500,17.547875181200887,0.010409438,-0.00645693,0.0,0.007604246,0.0030890123,0.0008490132,-0.0007461875,0.0011303182189773412,0,0.008453259,0.0023428248,0.03764576,-0.009838570840656757,0.00858219526708126,-0.6475133895874023,-0.7619422078132629,80.71419574351073,0.013309240341186523,106,0.0008490132,-0.0007461875,0.0011303182189773412,0.00014820235,-0.00011802026,0.00018945373612304651,0.00059941306,0.0009582918,-9.255986e-05,-0.00016530394,4.064516067504883,112.23333740234375
1779209331.3059206,5.106737852096558,hold-xy,11500,17.547875181200887,0.009160953,-0.00510026,0.0,0.007604246,0.0030890123,0.00082114805,-0.00069790776,0.001077663845655193,0,0.008425394,0.0023911046,0.037609123,-0.00988112110644579,0.009235400706529617,-0.6476434469223022,-0.7618235349655151,80.73485389824161,0.012547492980957031,107,0.00082114805,-0.00069790776,0.001077663845655193,1.759443e-06,9.408226e-05,9.409870805440403e-05,0.00055659504,0.0009228008,9.313812e-05,1.34110805e-05,4.064516067504883,112.23333740234375
1779209331.395766,5.196583271026611,hold-xy,12000,18.310826276035705,0.009040071,-0.005046755,0.0,0.007604246,0.0030890123,0.0008167224,-0.0006896162,0.001068927464584148,0,0.008420968,0.0023993962,0.037618123,-0.01033134013414383,0.010426658205688,-0.6474226713180542,-0.7619898319244385,80.7037326277969,0.0037412643432617188,108,0.0008167224,-0.0006896162,0.001068927464584148,-1.2226792e-05,9.107226e-05,9.188934166503588e-05,0.000548626,0.00091739604,8.7901026e-05,2.6777978e-05,4.059237480163574,112.22511291503906
1779209331.4780264,5.278843641281128,hold-xy,12000,18.310826276035705,0.010190495,-0.006491536,0.0,0.007604246,0.0030890123,0.00084794406,-0.00074132136,0.0011263065272226458,0,0.00845219,0.002347691,0.037644867,-0.009765359573066235,0.009003871120512486,-0.6476394534111023,-0.7618311643600464,80.73388741529888,0.004639625549316406,109,0.00084794406,-0.00074132136,0.0011263065272226458,0.00010656252,-0.000126898,0.00016570658339600715,0.00059511187,0.000956247,-0.00010808341,-0.00012560512,4.059237480163574,112.10724639892578
1779209331.5860345,5.386851787567139,hold-xy,12500,19.073777370870527,0.009602363,-0.0061930967,0.0,0.007604246,0.0030890123,0.0008328026,-0.00073328405,0.0011096241443875824,0,0.008437049,0.0023557283,0.037648752,-0.010015841573476791,0.009151794947683811,-0.6476036906242371,-0.7618565559387207,80.72868222147154,0.010267496109008789,110,0.0008328026,-0.00073328405,0.0011096241443875824,3.0225521e-05,-6.527724e-05,7.193539231814038e-05,0.0005895322,0.0009400626,-5.9554866e-05,-4.034747e-05,4.059237480163574,112.0538101196289
1779209331.687809,5.48862624168396,hold-xy,13000,19.83672846570535,0.010448178,-0.006626861,0.0,0.007604246,0.0030890123,0.0008635437,-0.0007584847,0.0011493505648409394,0,0.00846779,0.0023305276,0.03764756,-0.010010993108153343,0.00890964362770319,-0.6475608944892883,-0.7618958353996277,80.72182979236811,0.020154476165771484,111,0.0008635437,-0.0007584847,0.0011493505648409394,0.00012152333,-0.00012797076,0.00017647785863062103,0.0006093343,0.00097453495,-0.00010670361,-0.00014056591,4.053958892822266,112.01382446289062
1779209331.955143,5.75596022605896,hold-xy,13000,19.83672846570535,0.009676106,-0.006284613,0.0,0.007604246,0.0030890123,0.00082949456,-0.0007406173,0.001112014003735182,0,0.008433741,0.002348395,0.03762519,-0.009669866412878036,0.009197857230901718,-0.647706151008606,-0.7617733478546143,80.74428936713312,0.00527191162109375,113,0.00082949456,-0.0007406173,0.001112014003735182,4.8871614e-05,-7.058622e-05,8.58536476813149e-05,0.000597558,0.0009378164,-6.180665e-05,-5.9588474e-05,4.053958892822266,111.87120056152344
1779209331.997598,5.798415184020996,hold-xy,13000,19.83672846570535,0.007737139,-0.0053731473,0.0,0.007604246,0.0030890123,0.0007935716,-0.0007170772,0.0010695585542610036,0,0.008397818,0.0023719352,0.037636485,-0.008879882283508778,0.008679386228322983,-0.6478605270385742,-0.7616577744483948,80.76687462413771,0.007273197174072266,114,0.0007935716,-0.0007170772,0.0010695585542610036,-0.00023219074,0.00012516053,0.0002637758417991059,0.00058045646,0.0008983462,8.628347e-05,0.00024926465,4.053958892822266,111.87120056152344
1779209332.081259,5.882076263427734,hold-xy,13000,19.83672846570535,0.004436722,-0.00080049527,0.0,0.007604246,0.0030890123,0.00070121046,-0.0005491988,0.0008906825437949839,0,0.0083054565,0.0025398135,0.03758233,-0.006804660893976688,0.008190538734197617,-0.6473157405853271,-0.7621476054191589,80.6847085426981,0.019916296005249023,115,0.00070121046,-0.0005491988,0.0008906825437949839,-0.00055269303,0.0007967779,0.0009697033770626919,0.00042845332,0.00078086054,0.0006968076,0.0006743766,4.053958892822266,111.86428833007812
1779209332.1874733,5.988290548324585,hold-xy,13000,19.83672846570535,0.0052945744,-0.0018217943,0.0,0.007604246,0.0030890123,0.0006951811,-0.00054719695,0.0008847040463289971,0,0.008299427,0.0025418154,0.037582204,-0.006809852551668882,0.007633723318576813,-0.6473607420921326,-0.7621150612831116,80.6906166822025,0.022470712661743164,116,0.0006951811,-0.00054719695,0.0008847040463289971,-0.00040433463,0.0005635381,0.0006935861188413746,0.0004275337,0.00077454257,0.0004907085,0.0004901702,4.048680305480957,111.86894989013672
1779209332.2525613,6.053378582000732,hold-xy,13000,19.83672846570535,0.0060252934,-0.0029072214,0.0,0.007604246,0.0030890123,0.00069317035,-0.0005588087,0.0008903663868957926,0,0.008297416,0.0025302037,0.03755709,-0.006215577945113182,0.009106653742492199,-0.6475304365158081,-0.7619597911834717,80.71870794999195,0.010225057601928711,117,0.00069317035,-0.0005588087,0.0008903663868957926,-0.00029083443,0.00034943136,0.00045462836300121795,0.0004396974,0.0007742212,0.00029795052,0.00034338378,4.053958892822266,111.90823364257812
1779209332.3151143,6.115931510925293,hold-xy,13000,19.83672846570535,0.0050976546,-0.0022631916,0.0,0.007604246,0.0030890123,0.00065637566,-0.0005202384,0.0008375422414778047,0,0.008260622,0.002568774,0.037552577,-0.0055395872332155704,0.009592922404408455,-0.6474620699882507,-0.7620171904563904,80.70950974329561,0.010089635848999023,118,0.00065637566,-0.0005202384,0.0008375422414778047,-0.00037966797,0.00042918295,0.0005730146396332842,0.0004074489,0.00073175295,0.00036225954,0.00044397498,4.053958892822266,111.90823364257812
1779209332.3965883,6.197405576705933,hold-xy,13000,19.83672846570535,0.007538768,-0.005417693,0.0,0.007604246,0.0030890123,0.0007039206,-0.00062187365,0.0009392715902008292,0,0.008308167,0.0024671387,0.037547372,-0.005505059380084276,0.007767242845147848,-0.6478463411331177,-0.7617115378379822,80.76417098727978,0.008745908737182617,119,0.0007039206,-0.00062187365,0.0009392715902008292,-9.3540264e-05,-6.773643e-05,0.00011549028256458412,0.0005008336,0.00079460477,-8.187137e-05,8.1456026e-05,4.048680305480957,111.9041748046875
1779209332.4999537,6.300770998001099,hold-xy,13000,19.83672846570535,0.007927813,-0.004590748,0.0,0.007604246,0.0030890123,0.0007180255,-0.0005973384,0.0009340095230814854,0,0.0083222715,0.002491674,0.037559375,-0.006593674421310425,0.009055006317794323,-0.6475069522857666,-0.7619771957397461,80.71498172524946,0.020274877548217773,120,0.0007180255,-0.0005973384,0.0009340095230814854,-1.9402094e-05,3.273316e-05,3.805129606627324e-05,0.0004736617,0.00080499594,2.9173845e-05,2.4429244e-05,4.048680305480957,111.86837768554688
1779209332.581639,6.382456302642822,hold-xy,13000,19.83672846570535,0.0054830397,-0.0037414015,0.0,0.007604246,0.0030890123,0.0006308602,-0.0005487718,0.000836142998682653,0,0.008235106,0.0025402405,0.037523028,-0.005459630861878395,0.009923141449689865,-0.6476191282272339,-0.7618800401687622,80.7337988084814,0.010633468627929688,121,0.0006308602,-0.0005487718,0.000836142998682653,-0.00029991154,0.00018245014,0.00035104840564666835,0.00044002867,0.00071099214,0.00013177708,0.00032537637,4.048680305480957,111.82489013671875
1779209332.6852639,6.486081123352051,hold-xy,13000,19.83672846570535,-0.00093864556,-0.0008953423,0.0,0.007604246,0.0030890123,0.0003698934,-0.0003790555,0.000529626468249926,0,0.007974139,0.0027099568,0.037453603,-0.0014764764346182346,0.010494448244571686,-0.647818922996521,-0.7617206573486328,80.7660122710701,0.009012699127197266,122,0.0003698934,-0.0003790555,0.000529626468249926,-0.00095381774,0.0006114873,0.001132998251269059,0.00031478785,0.00042592583,0.0004505072,0.0010395808,4.048680305480957,111.78108978271484
1779209332.7685294,6.56934666633606,hold-xy,13000,19.83672846570535,0.0011899807,-0.0013428308,0.0,0.007604246,0.0030890123,0.00039108377,-0.00037430762,0.0005413434414906367,0,0.00799533,0.0027147047,0.037448313,-0.0007803108310326934,0.008517730981111526,-0.6479259729385376,-0.7616552710533142,80.77833477811997,0.01013040542602539,123,0.00039108377,-0.00037430762,0.0005413434414906367,-0.00059028616,0.00044538017,0.0007394600948319007,0.00030679707,0.00044601376,0.00034502798,0.00065403135,4.048680305480957,111.76424407958984
1779209332.9722402,6.773057460784912,hold-xy,13000,19.83672846570535,0.0062713684,-0.0048250942,0.0,0.007604246,0.0030890123,0.0005947016,-0.0005786887,0.0008297894826020888,0,0.008198948,0.0025103237,0.037552956,-0.005120510701090097,0.01019736286252737,-0.6478387117385864,-0.7616920471191406,80.76747845183742,0.014861583709716797,124,0.0005947016,-0.0005786887,0.0008297894826020888,-0.00010620724,3.6223792e-06,0.00010626899730704681,0.00047577714,0.0006798431,-1.34645925e-05,0.000105412546,4.048680305480957,111.8742904663086
1779209333.0537612,6.854578495025635,hold-xy,13000,19.83672846570535,-0.00044091372,-0.0010184974,0.0,0.007604246,0.0030890123,0.00036499463,-0.0003986198,0.000540480194934525,0,0.007969241,0.0026903925,0.03755949,-0.0023838283959776163,0.01103397086262703,-0.6481549143791199,-0.7614248394966125,80.81756860560651,0.007487058639526367,125,0.00036499463,-0.0003986198,0.000540480194934525,-0.000849548,0.0006102226,0.0010459940160399803,0.0003352663,0.00042392846,0.00046683312,0.00093603967,4.048680305480957,111.85364532470703
1779209333.1352913,6.936108589172363,hold-xy,13000,19.83672846570535,-0.0029371723,0.00048214523,0.0,0.007604246,0.0030890123,0.00024064723,-0.00029924582,0.0003840040977842741,0,0.007844893,0.0027897665,0.037522335,0.00011819917563116178,0.011458314955234528,-0.6480087637901306,-0.7615466713905334,80.79713023628797,0.00631403923034668,126,0.00024064723,-0.00029924582,0.0003840040977842741,-0.0010457456,0.00078762823,0.0013091761086156655,0.00025690714,0.00028540826,0.00061024335,0.001158251,4.048680305480957,111.84039306640625
1779209333.279042,7.079859256744385,hold-xy,13500,20.59967956054017,0.0042109187,-0.0027120826,0.0,0.007604246,0.0030890123,0.00048502628,-0.00045218947,0.0006631182363134566,0,0.008089272,0.0026368229,0.037542447,-0.0030151382088661194,0.009969578124582767,-0.6480535864830017,-0.7615235447883606,80.79986873365557,0.0053462982177734375,127,0.00048502628,-0.00045218947,0.0006631182363134566,-0.00022542622,0.00023428889,0.00032512807788409104,0.00036882478,0.00055108446,0.00019523305,0.00025998525,4.043401718139648,111.89257049560547
1779209333.340727,7.141544342041016,hold-xy,13500,20.59967956054017,-6.0740393e-05,-0.0014532469,0.0,0.007604246,0.0030890123,0.0003586961,-0.00038612238,0.0005270231231188616,0,0.007962942,0.00270289,0.037535857,-0.0025741648860275745,0.011999807320535183,-0.6478171348571777,-0.761696994304657,80.76899092924836,0.005726814270019531,128,0.0003586961,-0.00038612238,0.0005270231231188616,-0.00077600766,0.00048730813,0.0009163280551932342,0.00032358157,0.00041599083,0.00035651372,0.00084412977,4.043401718139648,111.91154479980469
1779209333.402123,7.202940225601196,hold-xy,14000,21.36263065537499,-0.005837231,0.0018271641,0.0,0.007604246,0.0030890123,0.00017323997,-0.00024293293,0.0002983764343491009,0,0.007777486,0.0028460794,0.037568316,-0.0006240873481146991,0.01337070669978857,-0.6478334069252014,-0.7616644501686096,80.77556567680611,0.005100250244140625,129,0.00017323997,-0.00024293293,0.0002983764343491009,-0.0014402489,0.0010337171,0.0017728191850412522,0.00021202058,0.0002099423,0.000789474,0.0015873307,4.043401718139648,111.91154479980469
1779209333.492589,7.293406248092651,hold-xy,14000,21.36263065537499,0.005469342,-0.0023709536,0.0,0.007604246,0.0030890123,0.00045578554,-0.00039251405,0.0006015045600587211,0,0.008060032,0.0026964983,0.0376058,-0.004672057926654816,0.013028484769165516,-0.647697389125824,-0.7617719769477844,80.75301600536946,0.018512487411499023,130,0.00045578554,-0.00039251405,0.0006015045600587211,9.1884285e-05,0.00014122517,0.00016848522546608814,0.0003141728,0.00051293586,0.00015415487,-6.7996676e-05,4.03812313079834,111.849365234375
1779209333.5548334,7.3556506633758545,hold-xy,14000,21.36263065537499,0.009163935,-0.0051807677,0.0,0.007604246,0.0030890123,0.00056452863,-0.0004955528,0.0007511758261143472,0,0.008168775,0.0025934596,0.037614062,-0.005457508377730846,0.011410333216190338,-0.6476488709449768,-0.761833906173706,80.74146374954961,0.008072137832641602,131,0.00056452863,-0.0004955528,0.0007511758261143472,0.0005131466,-0.00032642574,0.0006081719848928158,0.00039827012,0.00063690345,-0.00023961326,-0.00055898,4.03812313079834,111.89897918701172
1779209333.6596682,7.460485458374023,hold-xy,14500,22.12558175020981,-0.003009491,0.00024108612,0.0,0.007604246,0.0030890123,0.00016788207,-0.00023485743,0.0002886908497920787,0,0.007772128,0.002854155,0.03755478,-0.00038374768337234855,0.013847404159605503,-0.6478941440582275,-0.7616044282913208,80.7861284214861,0.020042896270751953,132,0.00016788207,-0.00023485743,0.0002886908497920787,-0.0009221758,0.00061368605,0.0011077088319129472,0.00020494589,0.00020332138,0.000458109,0.001008541,4.032844543457031,111.90192413330078
1779209333.7458265,7.5466437339782715,hold-xy,15000,22.888532845044633,0.005630719,-0.0028152624,0.0,0.007604246,0.0030890123,0.00042299647,-0.0003683276,0.0005608843312696172,0,0.0080272425,0.0027206847,0.037594147,-0.003375136060640216,0.012528324499726295,-0.6477905511856079,-0.7617079615592957,80.76610966716055,0.012949705123901367,133,0.00042299647,-0.0003683276,0.0005608843312696172,0.00017520745,1.9231811e-07,0.0001752075466252923,0.00029567847,0.0004766188,2.8304497e-05,-0.00017290616,4.03812313079834,111.93617248535156
1779209333.8274367,7.628253936767578,hold-xy,15000,22.888532845044633,-0.00027608848,-0.0007965446,0.0,0.007604246,0.0030890123,0.00023545418,-0.00026315008,0.00035310994906272527,0,0.0078397,0.0028258623,0.037570037,-0.0009688820573501289,0.012480881065130234,-0.647516667842865,-0.7619485259056091,80.72542442376358,0.011049985885620117,134,0.00023545418,-0.00026315008,0.00035310994906272527,-0.0005510794,0.00037797305,0.0006682455547943912,0.00022176284,0.000274787,0.00028421675,0.0006047917,4.027565956115723,111.93635559082031
1779209333.93075,7.731567144393921,hold-xy,15500,23.651483939879455,0.00077364035,-0.002189958,0.0,0.007604246,0.0030890123,0.00023489725,-0.0003027937,0.000383224140985288,0,0.007839143,0.0027862187,0.03755802,-0.0005730894627049565,0.01321804616600275,-0.6477454304695129,-0.7617419958114624,80.76191721564986,0.011963844299316406,135,0.00023489725,-0.0003027937,0.000383224140985288,-0.00038738723,0.00014843699,0.0004148522670054568,0.00026115662,0.00028046026,8.432163e-05,0.0004061924,4.027565956115723,111.8824691772461
1779209334.099664,7.900481224060059,hold-xy,15500,23.651483939879455,0.010699343,-0.0074289553,0.0,0.007604246,0.0030890123,0.00067656394,-0.00064748316,0.0009364684819045473,0,0.00828081,0.0024415292,0.037690308,-0.007814528420567513,0.011964811943471432,-0.6479173898696899,-0.7615766525268555,80.7824141135116,0.013638973236083984,136,0.00067656394,-0.00064748316,0.0009364684819045473,0.0005211085,-0.000514412,0.0007322388860601347,0.00053074746,0.0007715441,-0.00042429613,-0.0005967802,4.027565956115723,111.80352783203125
1779209334.1200376,7.920854806900024,hold-xy,15500,23.651483939879455,0.0007174378,0.00045852456,0.0,0.007604246,0.0030890123,0.0005451543,-0.0005025284,0.0007414364724253372,0,0.0081494,0.002586484,0.037629813,-0.005430532619357109,0.012541758827865124,-0.6476679444313049,-0.7618001699447632,80.74708234359821,0.0036573410034179688,137,0.0005451543,-0.0005025284,0.0007414364724253372,-0.0009339427,0.0010724968,0.0014221456203174984,0.00040833268,0.00061886385,0.0009083703,0.0010942401,4.027565956115723,111.80352783203125
1779209334.2080212,8.008838415145874,hold-xy,15500,23.651483939879455,-3.4674536e-05,0.0011922517,0.0,0.007604246,0.0030890123,0.00047217775,-0.00041411095,0.000628044364316743,0,0.008076424,0.0026749014,0.037611045,-0.004612079821527004,0.012222293764352798,-0.6476950645446777,-0.7617877125740051,80.75061019773214,0.007149219512939453,138,0.00047217775,-0.00041411095,0.000628044364316743,-0.00091287366,0.0010646866,0.0014024606062374813,0.00033283263,0.00053259946,0.00090411556,0.0010721338,4.027565956115723,111.73646545410156
1779209334.2936308,8.09444808959961,hold-xy,15500,23.651483939879455,0.0055403695,-0.0026584426,0.0,0.007604246,0.0030890123,0.0005976381,-0.00052482286,0.0007953680247628105,0,0.008201884,0.0025641895,0.03763949,-0.0059917764738202095,0.010740816593170166,-0.6476501226425171,-0.7618386149406433,80.74000474997169,0.00945425033569336,139,0.0005976381,-0.00052482286,0.0007953680247628105,-0.0001871988,0.00034658046,0.0003939053390852923,0.00042181474,0.0006743016,0.0003119409,0.0002405292,4.027565956115723,111.72671508789062
1779209334.3992293,8.20004653930664,hold-xy,16000,24.414435034714273,0.003902074,-0.001987881,0.0,0.007604246,0.0030890123,0.00052376,-0.0004650501,0.0007004256618217122,0,0.008128006,0.0026239622,0.037625507,-0.005502599291503429,0.01255593542009592,-0.6478097438812256,-0.7616788148880005,80.76843004918892,0.009490013122558594,140,0.00052376,-0.0004650501,0.0007004256618217122,-0.0003409943,0.00041247526,0.0005351756305874111,0.00037500254,0.000591582,0.00035242888,0.00040274914,4.022287368774414,111.74380493164062
1779209334.4814448,8.282262086868286,hold-xy,16000,24.414435034714273,-0.00018308731,-0.0009769015,0.0,0.007604246,0.0030890123,0.0003683949,-0.00038448605,0.000532488801779073,0,0.007972641,0.0027045263,0.037643794,-0.0035374572034925222,0.01284741796553135,-0.648008406162262,-0.7615166306495667,80.79967825545364,0.009280681610107422,141,0.0003683949,-0.00038448605,0.000532488801779073,-0.0008041749,0.0005819599,0.0009926603853029029,0.0003206383,0.00042512984,0.0004458963,0.0008868772,4.022287368774414,111.74227142333984
1779209334.5432725,8.34408974647522,hold-xy,16500,25.177386129549095,0.003210128,-0.0013173302,0.0,0.007604246,0.0030890123,0.0004288042,-0.00038470863,0.0005760848583547902,0,0.00803305,0.0027043037,0.037652172,-0.004271214362233877,0.013087984174489975,-0.6477413177490234,-0.7617359757423401,80.75990857040817,0.010027885437011719,142,0.0004288042,-0.00038470863,0.0005760848583547902,-0.00026621882,0.00040627868,0.00048573122210260913,0.00031086282,0.00048501347,0.0003582596,0.00032800133,4.022287368774414,111.69561767578125
1779209334.6261818,8.42699909210205,hold-xy,16500,25.177386129549095,6.1868224e-05,0.001735722,0.0,0.007604246,0.0030890123,0.00032920204,-0.0002483304,0.00041236145747924804,0,0.007933448,0.002840682,0.037626002,-0.0024168428499251604,0.01264995988458395,-0.6473803520202637,-0.7620582580566406,80.70498957230791,0.01893305778503418,143,0.00032920204,-0.0002483304,0.00041236145747924804,-0.00059012295,0.0008372486,0.0010243194148121888,0.00019189778,0.00036498936,0.00073093997,0.0007176051,4.0170087814331055,111.68236541748047
1779209334.7281485,8.528965711593628,hold-xy,17000,25.940337224383917,0.0022152215,-0.0015438489,0.0,0.007604246,0.0030890123,0.00035820622,-0.00034305616,0.0004959830818090874,0,0.007962452,0.0027459562,0.037578534,-0.001814895193092525,0.01217418909072876,-0.6478127837181091,-0.7617000937461853,80.76896773981285,0.017863750457763672,144,0.00035820622,-0.00034305616,0.0004959830818090874,-0.0003286373,0.00031026997,0.0004519623190637647,0.0002811515,0.00040859892,0.00025353322,0.00037415352,4.011730194091797,111.67233276367188
1779209334.7960062,8.596823453903198,hold-xy,17000,25.940337224383917,0.005153045,-0.0031785304,0.0,0.007604246,0.0030890123,0.00042946916,-0.00039685774,0.0005847562090403195,0,0.008033715,0.0026921546,0.037631284,-0.0033343140967190266,0.011716987006366253,-0.6478365659713745,-0.7616819143295288,80.77102248879466,0.011080026626586914,145,0.00042946916,-0.00039685774,0.0005847562090403195,5.637486e-05,9.4894494e-07,5.6382847456462844e-05,0.0003228421,0.00048755802,9.978085e-06,-5.5492914e-05,4.011730194091797,111.67233276367188
1779209334.8770304,8.677847623825073,hold-xy,17000,25.940337224383917,0.01302149,-0.009305152,0.0,0.007604246,0.0030890123,0.0006739991,-0.000656747,0.0009410586691935584,0,0.008278245,0.0024322653,0.03768319,-0.0075912391766905785,0.011577934958040714,-0.6479752063751221,-0.76153564453125,80.7902850657769,0.009251117706298828,146,0.0006739991,-0.000656747,0.0009410586691935584,0.0009248728,-0.00094036036,0.0013189645061120407,0.00054040836,0.00077042205,-0.00078021374,-0.0010634537,4.0170087814331055,111.6680679321289
1779209334.9812763,8.782093524932861,hold-xy,17500,26.70328831921874,0.0070364205,-0.004533907,0.0,0.007604246,0.0030890123,0.0005206298,-0.00048330962,0.0007103827098598189,0,0.008124876,0.0026057027,0.03761697,-0.005353084299713373,0.011631959117949009,-0.6477109789848328,-0.7617785334587097,80.75135457489947,0.01019906997680664,147,0.0005206298,-0.00048330962,0.0007103827098598189,0.00020199284,-0.00015455176,0.0002543370771453137,0.00039335145,0.00059153885,-0.000120078475,-0.0002242064,4.011730194091797,111.55526733398438
1779209335.0845804,8.885397672653198,hold-xy,17500,26.70328831921874,0.0018443223,-0.002061056,0.0,0.007604246,0.0030890123,0.00035238918,-0.00036754436,0.0005091826617175041,0,0.007956635,0.002721468,0.037579484,-0.0032985040452331305,0.013603633269667625,-0.6477839946746826,-0.7616954445838928,80.76803928565846,0.021437406539916992,148,0.00035238918,-0.00036754436,0.0005091826617175041,-0.00040682364,0.00026903936,0.00048773728745032664,0.0003062491,0.00040679047,0.00020028702,0.00044471648,4.006451606750488,111.4832763671875
1779209335.1521823,8.952999591827393,hold-xy,17500,26.70328831921874,0.00018785638,-0.00050268124,0.0,0.007604246,0.0030890123,0.00028288737,-0.00029065576,0.0004055934514941957,0,0.007887133,0.0027983566,0.03757571,-0.0013238012325018644,0.013066974468529224,-0.6476746201515198,-0.7618038058280945,80.75065571236144,0.008867979049682617,149,0.00028288737,-0.00029065576,0.0004055934514941957,-0.0005448513,0.00047604355,0.0007235194699890896,0.00024140788,0.00032592678,0.00038227948,0.0006142823,4.011730194091797,111.49955749511719
1779209335.3390179,9.139835119247437,hold-xy,17500,26.70328831921874,0.0012431517,-0.0011434852,0.0,0.007604246,0.0030890123,0.00028945878,-0.00029539433,0.000413574910208603,0,0.007893705,0.002793618,0.037597187,-0.0017177554545924067,0.013173519633710384,-0.6477794647216797,-0.7617120742797852,80.76661596355795,0.0195462703704834,150,0.00028945878,-0.00029539433,0.000413574910208603,-0.00037020462,0.00032516057,0.0004927279743953845,0.0002451214,0.00033310615,0.00026154576,0.00041758193,4.006451606750488,111.52594757080078
1779209335.4202988,9.221116065979004,hold-xy,17500,26.70328831921874,-0.00816892,0.0036524574,0.0,0.007604246,0.0030890123,-5.6420453e-05,-3.890111e-05,6.853148201063453e-05,0,0.0075478256,0.0030501112,0.037589073,0.0030154213309288025,0.015218012034893036,-0.6477778553962708,-0.7616713047027588,80.77369857943621,0.008472919464111328,151,-5.6420453e-05,-3.890111e-05,6.853148201063453e-05,-0.0013826836,0.0010607948,0.0017427276778773947,4.7443973e-05,-4.9453345e-05,0.00082537945,0.0015348773,4.006451606750488,111.52594757080078
1779209335.5022726,9.30308985710144,hold-xy,18000,27.466239414053558,0.017660234,-0.009465111,0.0,0.007604246,0.0030890123,0.00064466987,-0.00054890267,0.0008466955746914397,0,0.008248916,0.0025401097,0.037642475,-0.0067490385845303535,0.011424700729548931,-0.6477203369140625,-0.7617626786231995,80.75185421741395,0.01691722869873047,152,0.00064466987,-0.00054890267,0.0008466955746914397,0.0018925671,-0.0013382481,0.0023179125378626534,0.0004381625,0.00072450464,-0.0010166974,-0.0020830375,4.006451606750488,111.55606079101562
1779209335.5844197,9.385236978530884,hold-xy,18000,27.466239414053558,0.015870066,-0.010883597,0.0,0.007604246,0.0030890123,0.00067454483,-0.0006571475,0.000941729032225691,0,0.008278791,0.0024318649,0.037701473,-0.008004860021173954,0.011954890564084053,-0.6480936408042908,-0.761424720287323,80.80885153923195,0.018820524215698242,153,0.00067454483,-0.0006571475,0.000941729032225691,0.0014364877,-0.0013414584,0.0019654534719617312,0.00054096617,0.00077084964,-0.001094787,-0.001632314,4.00117301940918,111.53993225097656
1779209335.6470942,9.447911500930786,hold-xy,18000,27.466239414053558,-0.0043987967,0.0018008437,0.0,0.007604246,0.0030890123,0.0001182938,-0.00017379946,0.00021023718333052378,0,0.00772254,0.002915213,0.037536643,0.001907267258502543,0.011889249086380005,-0.6476788520812988,-0.7618182897567749,80.74891969076405,0.0001933574676513672,154,0.0001182938,-0.00017379946,0.00021023718333052378,-0.0010470031,0.00084451423,0.001345146720731163,0.00015252185,0.0001446954,0.00066521246,0.0011691501,4.00117301940918,111.50379943847656
1779209335.7317066,9.53252387046814,hold-xy,18000,27.466239414053558,0.008870941,-0.005908522,0.0,0.007604246,0.0030890123,0.00047953147,-0.00047126855,0.0006723425278393017,0,0.0080837775,0.0026177438,0.0376051,-0.004794835578650236,0.012500627897679806,-0.6477983593940735,-0.7616941928863525,80.76679643253378,0.003654956817626953,155,0.00047953147,-0.00047126855,0.0006723425278393017,0.00060252956,-0.0005085306,0.0007884447978881241,0.00038822019,0.0005489349,-0.00040526397,-0.00067631825,4.00117301940918,111.54034423828125
1779209335.8337376,9.634554862976074,hold-xy,18500,28.22919050888838,0.011588948,-0.0072169295,0.0,0.007604246,0.0030890123,0.000607945,-0.00056600827,0.0008306398251457281,0,0.008212191,0.002523004,0.037648395,-0.006397516932338476,0.011040480807423592,-0.6478060483932495,-0.7616984844207764,80.76399662194243,0.013614416122436523,156,0.000607945,-0.00056600827,0.0008306398251457281,0.0008401852,-0.00066466525,0.0010713034755817712,0.00046109426,0.0006909086,-0.00052119733,-0.0009359725,3.995894432067871,111.55020141601562
1779209335.9150207,9.715837955474854,hold-xy,18500,28.22919050888838,0.00031110155,1.1386117e-05,0.0,0.007604246,0.0030890123,0.000300752,-0.00028573885,0.0004148475055028727,0,0.007904998,0.0028032735,0.03756316,-0.0008999843848869205,0.012310421094298363,-0.6477775573730469,-0.7617295384407043,80.7642418552588,0.01318669319152832,157,0.000300752,-0.00028573885,0.0004148475055028727,-0.00053972483,0.0005637392,0.0007804516290637662,0.00023376473,0.00034271344,0.00046980672,0.00062320655,3.995894432067871,111.55020141601562
1779209336.0166466,9.817463874816895,hold-xy,18500,28.22919050888838,0.010249922,-0.005266222,0.0,0.007604246,0.0030890123,0.0006312076,-0.00052749575,0.0008226024565519017,0,0.008235454,0.0025615166,0.037624136,-0.006047361996024847,0.010694344528019428,-0.6476480960845947,-0.7618405222892761,80.73958356592074,0.012522220611572266,158,0.0006312076,-0.00052749575,0.0008226024565519017,0.00059136166,-0.0003144137,0.0006697496379111394,0.00041904577,0.00070786686,-0.00021515288,-0.00063425064,4.00117301940918,111.51268005371094
1779209336.0994081,9.900225400924683,hold-xy,18500,28.22919050888838,-0.0005663661,3.5239384e-05,0.0,0.007604246,0.0030890123,0.00031739473,-0.0002991648,0.00043616393517590833,0,0.007921641,0.0027898476,0.037580937,-0.0019015896832570434,0.012464271858334541,-0.6476637721061707,-0.7618219256401062,80.74727125116362,0.0140838623046875,159,0.00031739473,-0.0002991648,0.00043616393517590833,-0.0007454557,0.0006234989,0.0009718308030078544,0.0002442385,0.0003613676,0.0004955249,0.00083600846,3.995894432067871,111.51435852050781
1779209336.186812,9.987629175186157,hold-xy,19000,28.9921416037232,0.0015386008,-0.00048266235,0.0,0.007604246,0.0030890123,0.00035135075,-0.00029586,0.0004593261240024629,0,0.007955597,0.0027931524,0.03760109,-0.002441341057419777,0.012559037655591965,-0.6475633382797241,-0.7619041800498962,80.7322665133758,0.006527423858642578,160,0.00035135075,-0.00029586,0.0004593261240024629,-0.0004145445,0.00044688984,0.0006095553211191728,0.00023541365,0.00039441208,0.00037429482,0.000481104,3.995894432067871,111.4856185913086
1779209336.2924714,10.093288660049438,hold-xy,19000,28.9921416037232,0.011233804,-0.0058862614,0.0,0.007604246,0.0030890123,0.0006679464,-0.00054002064,0.0008589381307368695,0,0.008272192,0.0025489917,0.03763836,-0.0066755907610058784,0.011474436149001122,-0.6474798917770386,-0.7619668841362,80.71581912650547,0.015436649322509766,161,0.0006679464,-0.00054002064,0.0008589381307368695,0.0006915083,-0.00044426246,0.0008219202412443482,0.00042518578,0.0007463188,-0.00032688078,-0.0007541232,3.995894432067871,111.46122741699219
