wall_time_s,elapsed_s,mode,thrust_raw,thrust_percent,roll_cmd_deg,pitch_cmd_deg,yawrate_cmd_deg_s,target_x,target_y,target_error_x_m,target_error_y_m,target_error_m,figure8_active,mocap_x,mocap_y,mocap_z,mocap_qx,mocap_qy,mocap_qz,mocap_qw,yaw_deg,mocap_age_s,mocap_frame_count,drift_x_m,drift_y_m,horizontal_drift_m,velocity_x_m_s,velocity_y_m_s,horizontal_speed_m_s,body_error_x_m,body_error_y_m,body_velocity_x_m_s,body_velocity_y_m_s,battery_v,estimate_z
1779208699.3065217,0.0011832714080810547,figure8,0,0.0,0.0,-0.0,0.0,0.0048891515,0.0019337626,0.0,0.0,0.0,0,0.0048891515,0.0019337626,0.037476994,0.007144297007471323,0.007390931248664856,-0.6295607686042786,-0.7768832445144653,78.04180960256977,0.08249831199645996,57,0.0,0.0,0.0,0.0,0.0,0.0,0.0,0.0,0.0,0.0,4.096187591552734,112.02513885498047
1779208699.3324344,0.027096033096313477,figure8,0,0.0,0.0027007088,0.00023899772,0.0,0.0048891515,0.0019337626,9.844592e-05,-1.1860393e-05,9.915779064029675e-05,0,0.0049875975,0.0019219022,0.037486397,0.007488306146115065,0.007380232214927673,-0.6297732591629028,-0.7767078876495361,78.07314673299518,0.021920442581176758,58,9.844592e-05,-1.1860393e-05,9.915779064029675e-05,0.0003414679,-4.1138766e-05,0.0003439371047941976,-8.740754e-06,9.8771794e-05,3.0318035e-05,-0.0003425982,4.096187591552734,112.0098876953125
1779208699.3955014,0.09016299247741699,figure8,0,0.0,0.0014702546,-0.00031714383,0.0,0.0048891515,0.0019337626,7.107621e-05,-2.378854e-05,7.495146621217196e-05,0,0.0049602278,0.001909974,0.037502266,0.007619602605700493,0.006228037178516388,-0.6297910213470459,-0.7767022252082825,78.07395446400584,0.007950067520141602,59,7.107621e-05,-2.378854e-05,7.495146621217196e-05,0.00013244398,-7.524792e-05,0.0001523274685076598,8.587242e-06,7.4457916e-05,-4.6254285e-05,-0.0001451351,4.096187591552734,112.0098876953125
1779208699.4782324,0.17289400100708008,figure8,0,0.0,0.0008707646,-5.8427744e-05,0.0,0.0048891515,0.0019337626,5.851267e-05,-1.3843062e-05,6.012788600892001e-05,0,0.004947664,0.0019199195,0.037526067,0.007279505021870136,0.0073332698084414005,-0.6300016641616821,-0.77652508020401,78.10675923797761,0.00036072731018066406,60,5.851267e-05,-1.3843062e-05,6.012788600892001e-05,5.0980845e-05,-1.9639534e-05,5.4632936716521374e-05,1.4870948e-06,6.0109494e-05,-8.711359e-06,-5.3933945e-05,4.096187591552734,111.9627456665039
1779208699.582107,0.27676868438720703,figure8,0,0.0,0.00082834455,-0.0006385802,0.0,0.0048891515,0.0019337626,5.5297744e-05,-3.6165235e-05,6.607393312564246e-05,0,0.0049444493,0.0018975973,0.037532937,0.007196672726422548,0.007460364606231451,-0.629919707775116,-0.7765910625457764,78.09487734077847,0.012584447860717773,61,5.5297744e-05,-3.6165235e-05,6.607393312564246e-05,2.5163212e-05,-8.681458e-05,9.03878202161369e-05,2.3979876e-05,6.1568906e-05,-7.975628e-05,-4.253109e-05,4.096187591552734,111.92212677001953
1779208699.664078,0.35873961448669434,figure8,0,0.0,0.0011809444,-0.0009930336,0.0,0.0048891515,0.0019337626,6.7047775e-05,-5.699531e-05,8.799925877873452e-05,0,0.0049561993,0.0018767673,0.03748861,0.007497048005461693,0.006461739540100098,-0.6300393342971802,-0.7765001654624939,78.11093701158615,0.0029871463775634766,62,6.7047775e-05,-5.699531e-05,8.799925877873452e-05,5.6110235e-05,-0.00012901465,0.00014068808689946674,4.195966e-05,7.735152e-05,-0.00011468739,-8.1485836e-05,4.096187591552734,111.90914916992188
1779208699.7478213,0.44248294830322266,figure8,0,0.0,0.00035145966,0.00043871754,0.0,0.0048891515,0.0019337626,5.1847193e-05,-8.554547e-06,5.254818594247299e-05,0,0.0049409987,0.001925208,0.037515316,0.007229818031191826,0.008020065724849701,-0.6299858093261719,-0.7765315771102905,78.10561613854445,0.005450010299682617,63,5.1847193e-05,-8.554547e-06,5.254818594247299e-05,-1.6827024e-05,8.848093e-05,9.006676997253796e-05,-2.3152606e-06,5.249716e-05,8.311299e-05,3.4702385e-05,4.096187591552734,111.95506286621094
1779208699.8289237,0.523585319519043,figure8,0,0.0,0.00070301065,-0.00084136555,0.0,0.0048891515,0.0019337626,5.360227e-05,-4.6768808e-05,7.113736632757154e-05,0,0.004942754,0.0018869938,0.03749408,0.007365172263234854,0.007802317850291729,-0.629923403263092,-0.7765831351280212,78.0960236293813,0.01580953598022461,64,5.360227e-05,-4.6768808e-05,7.113736632757154e-05,-4.3361388e-06,-0.000100119025,0.00010021287819961784,3.4706376e-05,6.209663e-05,-9.886036e-05,-1.6408872e-05,4.096187591552734,111.8843002319336
1779208699.8912172,0.585878849029541,figure8,0,0.0,0.0013579349,-0.001177652,0.0,0.0048891515,0.0019337626,7.254258e-05,-6.736349e-05,9.899629027405373e-05,0,0.004961694,0.0018663991,0.037493795,0.0071953050792217255,0.007358899340033531,-0.6299298405647278,-0.7765838503837585,78.09620125457211,0.0024569034576416016,65,7.254258e-05,-6.736349e-05,9.899629027405373e-05,7.2078794e-05,-0.0001517584,0.000168005849793521,5.0951574e-05,8.4877574e-05,-0.00013362727,-0.00010183182,4.096187591552734,111.8843002319336
1779208700.0145977,0.7092592716217041,figure8,0,0.0,0.00015867362,0.0004312445,0.0,0.0048891515,0.0019337626,4.0287618e-05,2.737157e-06,4.0380491727785554e-05,0,0.004929439,0.0019364997,0.03751183,0.007335280068218708,0.007466321811079979,-0.6298770308494568,-0.776624321937561,78.08859612153208,0.008085966110229492,66,4.0287618e-05,2.737157e-06,4.0380491727785554e-05,-3.1722146e-05,7.236745e-05,7.901482602457116e-05,-1.0993541e-05,3.8855196e-05,6.426182e-05,4.597567e-05,4.096187591552734,111.9173583984375
1779208700.0966687,0.7913303375244141,figure8,0,0.0,0.0011697763,9.262122e-05,0.0,0.0048891515,0.0019337626,6.843498e-05,-1.1176337e-05,6.934159576865327e-05,0,0.0049575865,0.0019225862,0.037513003,0.007437081541866064,0.007136515341699123,-0.6300390362739563,-0.7764950394630432,78.11195143217854,0.018649816513061523,67,6.843498e-05,-1.1176337e-05,6.934159576865327e-05,9.5883406e-05,-7.715189e-06,9.619330088006706e-05,-3.1609843e-06,6.926951e-05,1.2202276e-05,-9.541623e-05,4.096187591552734,111.94359588623047
1779208700.1788757,0.8735373020172119,figure8,0,0.0,0.00142467,-0.0008417106,0.0,0.0048891515,0.0019337626,7.617241e-05,-4.8868824e-05,9.050081598194154e-05,0,0.004965324,0.0018848937,0.037499964,0.007386034820228815,0.00696139968931675,-0.6300576329231262,-0.7764820456504822,78.11441078299421,0.006844282150268555,68,7.617241e-05,-4.8868824e-05,9.050081598194154e-05,9.1809015e-05,-0.00012567981,0.0001556416064852433,3.2132793e-05,8.460426e-05,-0.00010407653,-0.000115725474,4.096187591552734,111.95925903320312
1779208700.282074,0.9767355918884277,figure8,0,0.0,0.0010274511,5.358219e-05,0.0,0.0048891515,0.0019337626,7.364014e-05,-1.9661733e-05,7.621977598362147e-05,0,0.0049627917,0.0019141008,0.03749312,0.007495142053812742,0.007653550710529089,-0.629877507686615,-0.776620626449585,78.08899601052977,0.018170833587646484,69,7.364014e-05,-1.9661733e-05,7.621977598362147e-05,5.599739e-05,7.3976116e-06,5.648391045862851e-05,4.039659e-06,7.611265e-05,1.8795756e-05,-5.326492e-05,4.096187591552734,111.92633819580078
1779208700.3658273,1.0604889392852783,figure8,0,0.0,-0.00032774135,-0.00055062445,0.0,0.0048891515,0.0019337626,2.1931715e-05,-3.1022704e-05,3.7992213436270446e-05,0,0.0049110833,0.0019027399,0.0375126,0.007132565602660179,0.008170964196324348,-0.6297884583473206,-0.7766909599304199,78.07677036010351,0.010645866394042969,70,2.1931715e-05,-3.1022704e-05,3.7992213436270446e-05,-0.00013074941,-3.2161228e-05,0.00013464676721684405,2.5822288e-05,2.7867864e-05,-5.8480306e-05,0.000121284,4.096187591552734,111.93767547607422
1779208700.468927,1.163588523864746,figure8,0,0.0,0.0013318935,-0.0009212126,0.0,0.0048891515,0.0019337626,7.656962e-05,-6.149174e-05,9.820458089647844e-05,0,0.004965721,0.0018722708,0.037481003,0.0077748834155499935,0.0061236172914505005,-0.6298655867576599,-0.7766410708427429,78.08480373693148,0.011926412582397461,71,7.656962e-05,-6.149174e-05,9.820458089647844e-05,6.946074e-05,-0.00011228694,0.00013203466140002535,4.4358003e-05,8.761568e-05,-9.552651e-05,-9.114733e-05,4.096187591552734,111.93948364257812
1779208700.551224,1.2458856105804443,figure8,0,0.0,0.0003303258,-0.00011829351,0.0,0.0048891515,0.0019337626,5.0980132e-05,-3.1785108e-05,6.0077176260267735e-05,0,0.0049401317,0.0019019775,0.037486337,0.0072359684854745865,0.007827015593647957,-0.6300623416900635,-0.7764713764190674,78.11656241530898,0.00968170166015625,72,5.0980132e-05,-3.1785108e-05,6.0077176260267735e-05,-4.218281e-05,2.6814327e-05,4.998397454121854e-05,2.060601e-05,5.6432786e-05,1.7553317e-05,4.6800415e-05,4.096187591552734,111.99000549316406
1779208700.6335092,1.3281707763671875,figure8,0,0.0,0.0005402266,0.00093337573,0.0,0.0048891515,0.0019337626,6.380631e-05,4.871632e-06,6.3992012706838e-05,0,0.004952958,0.0019386342,0.03750979,0.007478699553757906,0.007037696428596973,-0.6299414038658142,-0.7765747904777527,78.09738612348879,0.008570194244384766,73,6.380631e-05,4.871632e-06,6.3992012706838e-05,1.6611193e-05,0.00015063406,0.00015154719761098398,-1.7926865e-05,6.142968e-05,0.00015082142,1.4814053e-05,4.096187591552734,112.015625
1779208700.73645,1.4311115741729736,figure8,0,0.0,0.00032043055,0.0004147086,0.0,0.0048891515,0.0019337626,5.247956e-05,-4.149275e-06,5.264333508105577e-05,0,0.004941631,0.0019296133,0.037482716,0.007823951542377472,0.006949489936232567,-0.6297054290771484,-0.7767634987831116,78.06243690784005,0.018999099731445312,74,5.247956e-05,-4.149275e-06,5.264333508105577e-05,-2.5102832e-05,7.6190605e-05,8.021945430280016e-05,-6.7956285e-06,5.220288e-05,6.935046e-05,4.0319643e-05,4.096187591552734,111.97095489501953
1779208700.799141,1.493802547454834,figure8,0,0.0,0.0012444204,-0.00024324135,0.0,0.0048891515,0.0019337626,7.6494645e-05,-2.7824426e-05,8.139797185781298e-05,0,0.004965646,0.0019059381,0.03750203,0.007462464272975922,0.00677492655813694,-0.6298565864562988,-0.7766460180282593,78.08445251360394,0.008219242095947266,75,7.6494645e-05,-2.7824426e-05,8.139797185781298e-05,8.048769e-05,-4.3338216e-05,9.141372596231254e-05,1.1431066e-05,8.0591315e-05,-2.5786136e-05,-8.770145e-05,4.096187591552734,111.97095489501953
1779208700.8810706,1.5757322311401367,figure8,0,0.0,0.0011979986,1.5291265e-05,0.0,0.0048891515,0.0019337626,8.063018e-05,-2.1479442e-05,8.344215196524402e-05,0,0.0049697817,0.0019122831,0.03748925,0.007948646321892738,0.005670675542205572,-0.6298214793205261,-0.7766785025596619,78.07766236002293,0.01909661293029785,76,8.063018e-05,-2.1479442e-05,8.344215196524402e-05,7.380262e-05,-3.5466965e-06,7.388779507063157e-05,4.3590608e-06,8.332822e-05,1.1776375e-05,-7.294329e-05,4.096187591552734,111.92505645751953
1779208700.962538,1.6571996212005615,figure8,0,0.0,0.0005570742,-0.0004258765,0.0,0.0048891515,0.0019337626,5.9227925e-05,-3.2205367e-05,6.74175994428719e-05,0,0.0049483795,0.0019015572,0.037505966,0.007249745540320873,0.008055469952523708,-0.6299886703491211,-0.7765287160873413,78.10610391122303,0.018927335739135742,77,5.9227925e-05,-3.2205367e-05,6.74175994428719e-05,-2.69876e-05,-4.189853e-05,4.983791101159223e-05,1.9307075e-05,6.459388e-05,-4.656115e-05,1.7772916e-05,4.090909004211426,111.94261169433594
1779208701.0294838,1.7241454124450684,figure8,1000,1.525902189669642,6.658645e-05,0.0008340614,0.0,0.0048891515,0.0019337626,5.0353352e-05,1.1103577e-05,5.1563062775884874e-05,0,0.004939505,0.0019448661,0.037487846,0.007686818018555641,0.007122804876416922,-0.6298478245735168,-0.7766478061676025,78.083721930652,0.008346319198608398,78,5.0353352e-05,1.1103577e-05,5.1563062775884874e-05,-5.323263e-05,0.0001382606,0.00014815433187300798,-2.1261369e-05,4.6975565e-05,0.00012428955,8.0633836e-05,4.096187591552734,111.92420959472656
1779208701.1519048,1.8465664386749268,figure8,1000,1.525902189669642,-0.00030837537,0.000343666,0.0,0.0048891515,0.0019337626,2.5759917e-05,2.3518223e-06,2.586705207423011e-05,0,0.0049149115,0.0019361144,0.037490405,0.007485306356102228,0.007385181728750467,-0.6298096179962158,-0.7766783833503723,78.07851866627007,0.008621692657470703,79,2.5759917e-05,2.3518223e-06,2.586705207423011e-05,-9.766639e-05,7.528737e-05,0.00012331630583892346,-7.6223496e-06,2.4718498e-05,5.3488497e-05,0.000111112065,4.090909004211426,111.93376922607422
1779208701.2138157,1.9084773063659668,figure8,1000,1.525902189669642,0.0020004231,-0.00088242383,0.0,0.0048891515,0.0019337626,7.962296e-05,-4.2940374e-05,9.046375549439726e-05,0,0.0049687745,0.0018908222,0.03747561,0.007486353162676096,0.0067428238689899445,-0.6298525929450989,-0.7766492962837219,78.0838134211445,0.009357690811157227,80,7.962296e-05,-4.2940374e-05,9.046375549439726e-05,0.00019577652,-0.00016941062,0.0002588984402889278,2.5574442e-05,8.677349e-05,-0.00012533588,-0.00022653768,4.090909004211426,111.93376922607422
1779208701.2995534,1.9942150115966797,figure8,1000,1.525902189669642,0.000325362,-5.2311654e-05,0.0,0.0048891515,0.0019337626,3.4657773e-05,-8.314149e-06,3.56410747530671e-05,0,0.0049238093,0.0019254484,0.037491996,0.0074237617664039135,0.007986542768776417,-0.6298433542251587,-0.7766456604003906,78.08454705663024,0.0019669532775878906,81,3.4657773e-05,-8.314149e-06,3.56410747530671e-05,-7.805371e-06,-7.0439783e-06,1.0513869128625712e-05,9.79283e-07,3.5627618e-05,-8.503765e-06,6.182834e-06,4.096187591552734,111.9469223022461
1779208701.4032638,2.0979254245758057,figure8,2000,3.051804379339284,0.0008542201,0.0007363019,0.0,0.0048891515,0.0019337626,6.0233753e-05,1.6627018e-05,6.248650170420365e-05,0,0.0049493853,0.0019503896,0.037475586,0.007501682732254267,0.007279869168996811,-0.6298825144767761,-0.776620090007782,78.08909638307522,0.012735843658447266,82,6.0233753e-05,1.6627018e-05,6.248650170420365e-05,7.7091325e-05,7.557521e-05,0.00010795686327757213,-2.8700702e-05,5.5505247e-05,8.985897e-05,-5.983353e-05,4.096187591552734,111.91700744628906
1779208701.4842787,2.1789402961730957,figure8,2000,3.051804379339284,0.0013548345,0.00027592547,0.0,0.0048891515,0.0019337626,7.890677e-05,5.327165e-07,7.890856972984526e-05,0,0.0049680583,0.0019342953,0.03745812,0.007698031608015299,0.0065549639984965324,-0.6300190687179565,-0.7765138745307922,78.10808966898166,0.0072290897369384766,83,7.890677e-05,5.327165e-07,7.890856972984526e-05,0.00011870965,-2.9017901e-06,0.00011874511246828863,-1.6781289e-05,7.710351e-05,2.1622514e-05,-0.000116759875,4.090909004211426,111.94691467285156
1779208701.5860784,2.2807400226593018,figure8,2000,3.051804379339284,0.0010453442,-0.0004371932,0.0,0.0048891515,0.0019337626,6.821193e-05,-2.458226e-05,7.250623605917233e-05,0,0.0049573635,0.0019091803,0.037467618,0.007590348832309246,0.006789094768464565,-0.6298332214355469,-0.7766636610031128,78.08103061130902,0.011855125427246094,84,6.821193e-05,-2.458226e-05,7.250623605917233e-05,5.007904e-05,-7.9567595e-05,9.401549187692817e-05,9.9645995e-06,7.181826e-05,-6.750944e-05,-6.5432316e-05,4.096187591552734,111.98765563964844
1779208701.6880877,2.382749319076538,figure8,2000,3.051804379339284,0.00034850577,-0.0007877927,0.0,0.0048891515,0.0019337626,4.143128e-05,-3.7141377e-05,5.564200738236315e-05,0,0.004930583,0.0018966212,0.0374787,0.007548496127128601,0.006883099675178528,-0.6298308968544006,-0.7766651511192322,78.0808359559,0.016196489334106445,85,4.143128e-05,-3.7141377e-05,5.564200738236315e-05,-4.7204976e-05,-9.427431e-05,0.00010543223489782246,2.7783743e-05,4.8208887e-05,-0.00010199107,2.6716625e-05,4.096187591552734,111.97557067871094
1779208701.873166,2.5678277015686035,figure8,3000,4.577706569008926,0.00094086176,-0.0005855042,0.0,0.0048891515,0.0019337626,7.177377e-05,-4.0758983e-05,8.253949972950001e-05,0,0.0049609253,0.0018930036,0.037479386,0.007819297723472118,0.006025166716426611,-0.6299197673797607,-0.7765974998474121,78.09265708375513,0.017224550247192383,86,7.177377e-05,-4.0758983e-05,8.253949972950001e-05,1.6414448e-05,-7.188868e-05,7.373884145472257e-05,2.5072903e-05,7.863917e-05,-6.6955035e-05,-3.0894014e-05,4.090909004211426,111.94786834716797
1779208701.9790673,2.6737289428710938,figure8,3000,4.577706569008926,0.0006956735,-0.00043171074,0.0,0.0048891515,0.0019337626,6.3844025e-05,-3.6744517e-05,7.366287416099335e-05,0,0.0049529956,0.001897018,0.037491582,0.007412109524011612,0.007677508518099785,-0.6297634243965149,-0.7767136693000793,78.07220396490283,0.009261608123779297,87,6.3844025e-05,-3.6744517e-05,7.366287416099335e-05,-9.402532e-06,-3.9745093e-05,4.0842135197064935e-05,2.2755947e-05,7.0059876e-05,-4.083025e-05,9.850492e-07,4.096187591552734,111.88861846923828
1779208702.0408578,2.7355194091796875,figure8,3000,4.577706569008926,0.00077571673,0.0008384894,0.0,0.0048891515,0.0019337626,7.248623e-05,-5.8712903e-06,7.272362684619279e-05,0,0.004961638,0.0019278913,0.037493024,0.007453524973243475,0.0073556131683290005,-0.6298386454582214,-0.776655375957489,78.08274928302096,0.017081260681152344,88,7.248623e-05,-5.8712903e-06,7.272362684619279e-05,4.1456457e-05,0.00014378913,0.00014964609369557948,-9.223573e-06,7.213634e-05,0.00014925073,-1.0870659e-05,4.096187591552734,111.8447036743164
1779208702.1240158,2.8186774253845215,figure8,3000,4.577706569008926,0.00082024524,-0.00035860843,0.0,0.0048891515,0.0019337626,6.75153e-05,-3.9801467e-05,7.83739262036036e-05,0,0.004956667,0.0018939611,0.03748969,0.007615263108164072,0.006659878883510828,-0.6299371123313904,-0.7765802145004272,78.09615628923385,0.01885056495666504,89,6.75153e-05,-3.9801467e-05,7.83739262036036e-05,1.0696582e-05,-2.441476e-05,2.665515574215227e-05,2.5019173e-05,7.427323e-05,-2.1683341e-05,-1.5502581e-05,4.096187591552734,111.85155487060547
1779208702.1902347,2.8848962783813477,figure8,4000,6.103608758678568,0.0011068287,-0.0012265395,0.0,0.0048891515,0.0019337626,7.134536e-05,-7.0609734e-05,0.00010037876106710565,0,0.004960497,0.0018631528,0.03747984,0.007681096438318491,0.006176818162202835,-0.6299533247947693,-0.7765704393386841,78.0978260039204,0.012510538101196289,90,7.134536e-05,-7.0609734e-05,0.00010037876106710565,2.332329e-05,-0.00014446938,0.0001463399335078739,5.4377346e-05,8.4374165e-05,-0.00013655322,-5.261742e-05,4.096187591552734,111.85155487060547
1779208702.2716253,2.9662868976593018,figure8,4000,6.103608758678568,-0.0002823892,0.0009785073,0.0,0.0048891515,0.0019337626,4.0152576e-05,9.293901e-06,4.121414711703138e-05,0,0.004929304,0.0019430565,0.037491105,0.00774069270119071,0.0073187281377613544,-0.629925549030304,-0.7765824794769287,78.09551722936381,0.009993314743041992,91,4.0152576e-05,9.293901e-06,4.121414711703138e-05,-9.519887e-05,0.00018455499,0.00020766165855762815,-1.7376718e-05,3.7371854e-05,0.00016094804,0.00013122155,4.090909004211426,111.84761810302734
1779208702.334967,3.0296285152435303,figure8,4000,6.103608758678568,0.0004882516,-0.0010077322,0.0,0.0048891515,0.0019337626,4.666578e-05,-4.9746595e-05,6.820864237455228e-05,0,0.0049358173,0.001884016,0.037487663,0.007311843801289797,0.00751017639413476,-0.6298736333847046,-0.7766268849372864,78.08816909707511,0.001642465591430664,92,4.666578e-05,-4.9746595e-05,6.820864237455228e-05,-3.9384442e-05,-0.00011786887,0.00012427471238266193,3.904326e-05,5.5928904e-05,-0.00012345992,1.4207484e-05,4.090909004211426,111.90641021728516
1779208702.4159288,3.1105904579162598,figure8,4000,6.103608758678568,0.0020986164,0.0027273349,0.0,0.0048891515,0.0019337626,0.0001210724,5.2351737e-05,0.0001319061427713439,0,0.005010224,0.0019861143,0.0373863,0.009226728230714798,0.004253267776221037,-0.6294577717781067,-0.7769683003425598,78.02222576437833,0.010414361953735352,93,0.0001210724,5.2351737e-05,0.0001319061427713439,0.00028164234,0.0003417816,0.0004428736292545893,-7.633837e-05,0.00010757176,0.00039279024,-0.00020457976,4.090909004211426,111.90641021728516
1779208702.5395865,3.234248161315918,figure8,5000,7.629510948348211,0.00085120526,0.00013845973,0.0,0.0048891515,0.0019337626,6.155064e-05,-2.613198e-05,6.686824319037295e-05,0,0.004950702,0.0019076306,0.037456598,0.0077729057520627975,0.006726433522999287,-0.629715085029602,-0.7767581939697266,78.06350740207675,0.013390064239501953,94,6.155064e-05,-2.613198e-05,6.686824319037295e-05,4.9186172e-05,4.4146625e-05,6.60923900363845e-05,1.2836583e-05,6.562457e-05,5.336511e-05,-3.899191e-05,4.090909004211426,111.869873046875
1779208702.6019456,3.296607255935669,figure8,5000,7.629510948348211,0.00080298586,0.0008024047,0.0,0.0048891515,0.0019337626,6.6805165e-05,-2.7684728e-06,6.686250489782923e-05,0,0.0049559567,0.0019309941,0.0374482,0.0074493736028671265,0.007049103733152151,-0.6300350427627563,-0.7764990925788879,78.11122189531172,0.004654645919799805,95,6.6805165e-05,-2.7684728e-06,6.686250489782923e-05,5.660301e-05,0.00012949045,0.0001413211861151865,-1.1053614e-05,6.594249e-05,0.00013837373,-2.8712182e-05,4.090909004211426,111.869873046875
1779208702.7041757,3.3988373279571533,figure8,5000,7.629510948348211,0.001238052,-0.00013995662,0.0,0.0048891515,0.0019337626,7.902132e-05,-3.437081e-05,8.61726279930237e-05,0,0.004968173,0.0018993918,0.037449073,0.008025751449167728,0.005961870774626732,-0.6298301219940186,-0.7766685485839844,78.07933893699429,0.012488365173339844,96,7.902132e-05,-3.437081e-05,8.61726279930237e-05,7.8446144e-05,-9.791729e-06,7.905488880408161e-05,1.730718e-05,8.441672e-05,6.623035e-06,-7.877697e-05,4.090909004211426,111.88939666748047
1779208702.7854927,3.480154275894165,figure8,6000,9.155413138017853,0.0011091098,-0.0009588774,0.0,0.0048891515,0.0019337626,7.267902e-05,-6.258348e-05,9.591105981269363e-05,0,0.0049618306,0.0018711791,0.037479904,0.007515020668506622,0.007294805254787207,-0.629898726940155,-0.7766066789627075,78.09151378439822,0.010335683822631836,97,7.267902e-05,-6.258348e-05,9.591105981269363e-05,3.2117277e-05,-0.00010825398,0.00011291786508773162,4.6239333e-05,8.40289e-05,-9.929681e-05,-5.3764175e-05,4.090909004211426,111.9153060913086
1779208702.8869991,3.581660747528076,figure8,6000,9.155413138017853,0.00023931067,0.0003173896,0.0,0.0048891515,0.0019337626,5.192915e-05,-1.3902551e-05,5.375795418844211e-05,0,0.0049410807,0.00191986,0.03748551,0.007448485121130943,0.006881862413138151,-0.6299999356269836,-0.77652907371521,78.10577306865257,0.018124818801879883,98,5.192915e-05,-1.3902551e-05,5.375795418844211e-05,-4.3940625e-05,8.0055484e-05,9.132173203221185e-05,2.9011708e-06,5.367961e-05,6.9280264e-05,5.949709e-05,4.085630416870117,111.90270233154297
1779208702.9888377,3.683499336242676,figure8,6000,9.155413138017853,0.0005480265,0.00082839414,0.0,0.0048891515,0.0019337626,6.5783504e-05,8.660834e-06,6.635118472277812e-05,0,0.004954935,0.0019424234,0.03744543,0.007803069893270731,0.006898568477481604,-0.629932165145874,-0.776580274105072,78.09580396005288,0.017629384994506836,99,6.5783504e-05,8.660834e-06,6.635118472277812e-05,9.85666e-06,0.00012218513,0.00012258204935425328,-2.2044122e-05,6.258223e-05,0.000121590594,1.5559159e-05,4.085630416870117,111.83930206298828
1779208703.0741763,3.7688379287719727,figure8,6000,9.155413138017853,0.0003415613,-0.0005049391,0.0,0.0048891515,0.0019337626,4.8113056e-05,-3.2567652e-05,5.809920900724413e-05,0,0.0049372646,0.0019011949,0.03747747,0.007647703401744366,0.006938631646335125,-0.6298536658287048,-0.7766451835632324,78.0842849225704,0.010188102722167969,100,4.8113056e-05,-3.2567652e-05,5.809920900724413e-05,-5.0237028e-05,-4.7781075e-05,6.93310181454389e-05,2.1931872e-05,5.380066e-05,-5.7124074e-05,3.9289058e-05,4.085630416870117,111.79065704345703
1779208703.1767805,3.8714420795440674,figure8,7000,10.681315327687495,0.0006919679,-0.00013271967,0.0,0.0048891515,0.0019337626,6.12624e-05,-2.4163397e-05,6.585553312044766e-05,0,0.004950414,0.0019095992,0.03748177,0.007896428927779198,0.0062252311035990715,-0.6297890543937683,-0.7767010927200317,78.07366000489223,0.020108461380004883,101,6.12624e-05,-2.4163397e-05,6.585553312044766e-05,7.3960327e-06,-6.2437575e-06,9.679142994630817e-06,1.0981687e-05,6.4933454e-05,-4.58056e-06,-8.52668e-06,4.085630416870117,111.7876968383789
1779208703.2621946,3.9568562507629395,figure8,7000,10.681315327687495,0.00072829414,1.839907e-05,0.0,0.0048891515,0.0019337626,6.406801e-05,-1.9432511e-05,6.695021911113192e-05,0,0.0049532196,0.0019143301,0.03745828,0.007567230146378279,0.007416387088596821,-0.6300236582756042,-0.7765036821365356,78.1101538788044,0.02117466926574707,102,6.406801e-05,-1.9432511e-05,6.695021911113192e-05,1.515592e-05,1.245569e-05,1.9617495436172636e-05,5.8156156e-06,6.669716e-05,1.5311045e-05,-1.22645015e-05,4.085630416870117,111.81888580322266
1779208703.3262017,4.02086329460144,figure8,7000,10.681315327687495,0.0009835459,0.00030412636,0.0,0.0048891515,0.0019337626,7.5917225e-05,-1.0660617e-05,7.666207627386875e-05,0,0.004965069,0.001923102,0.037482653,0.007850654423236847,0.005984229035675526,-0.6299061179161072,-0.7766085863113403,78.09058520430898,0.0017044544219970703,103,7.5917225e-05,-1.0660617e-05,7.666207627386875e-05,5.319278e-05,4.024336e-05,6.670082334727855e-05,-5.235508e-06,7.648309e-05,5.0354254e-05,-4.374299e-05,4.085630416870117,111.8113784790039
1779208703.4091694,4.103831052780151,figure8,7000,10.681315327687495,0.000709382,-0.00045825943,0.0,0.0048891515,0.0019337626,6.474368e-05,-3.0986383e-05,7.177673884868725e-05,0,0.004953895,0.0019027762,0.03746697,0.00747873168438673,0.0074721891433000565,-0.6299039125442505,-0.7766011357307434,78.09257775884376,0.013061285018920898,104,6.474368e-05,-3.0986383e-05,7.177673884868725e-05,-9.574433e-06,-5.6980476e-05,5.777927318516675e-05,1.6961e-05,6.974399e-05,-5.7729885e-05,-2.3884231e-06,4.085630416870117,111.8113784790039
1779208703.491008,4.185669660568237,figure8,7000,10.681315327687495,0.0011711214,-8.9785135e-05,0.0,0.0048891515,0.0019337626,8.435501e-05,-2.4118228e-05,8.77351519865717e-05,0,0.0049735066,0.0019096443,0.03751028,0.007116245571523905,0.007433517370373011,-0.629912257194519,-0.7765981554985046,78.09373016693038,0.0022079944610595703,105,8.435501e-05,-2.4118228e-05,8.77351519865717e-05,5.677052e-05,-1.7657354e-05,5.945312530862088e-05,6.195971e-06,8.751609e-05,-5.5650844e-06,-5.9192094e-05,4.080351829528809,111.80331420898438
1779208703.572682,4.267343521118164,figure8,8000,12.207217517357137,0.0048933625,-0.0041227364,0.0,0.0048891515,0.0019337626,0.00018666731,-0.00019166037,0.00026754136896704663,0,0.005075819,0.0017421022,0.037634395,0.002336538629606366,0.009929855354130268,-0.6298661231994629,-0.7766367197036743,78.0910985874173,0.0018973350524902344,106,0.00018666731,-0.00019166037,0.00026754136896704663,0.00041412338,-0.0006254349,0.0007501113423090729,0.0001490153,0.00022219996,-0.0005265167,-0.0005342726,4.085630416870117,111.78926849365234
1779208703.6580288,4.3526904582977295,figure8,8000,12.207217517357137,0.027166646,-0.014741712,0.0,0.0048891515,0.0019337626,0.0009054779,-0.0007595231,0.0011818483757211804,0,0.0057946295,0.0011742394,0.037859727,-0.009119120426476002,0.010619960725307465,-0.6293670535087585,-0.7769821286201477,78.01533095587214,0.004363059997558594,107,0.0009054779,-0.0007595231,0.0011818483757211804,0.0028917207,-0.0024932623,0.0038181677767026804,0.0005549455,0.0010434564,-0.0018384514,-0.0033464162,4.085630416870117,111.77288055419922
1779208703.7665515,4.461213111877441,figure8,8000,12.207217517357137,0.0151746785,-0.0072494405,0.0,0.0048891515,0.0019337626,0.00067215925,-0.0005157159,0.0008472077315869592,0,0.005561311,0.0014180467,0.0378153,-0.005869721993803978,0.011909338645637035,-0.6296694278717041,-0.7767497301101685,78.06402703343981,0.012758731842041016,108,0.00067215925,-0.0005157159,0.0008472077315869592,0.0013251362,-0.0010147896,0.0016690666960228198,0.0003655508,0.0007642863,-0.0007187865,-0.001506363,4.080351829528809,111.77831268310547
1779208703.8502626,4.544924259185791,figure8,9000,13.733119707026779,0.017260032,-0.009315817,0.0,0.0048891515,0.0019337626,0.00080820126,-0.00066753547,0.0010482331974679049,0,0.005697353,0.0012662271,0.03784551,-0.00800393521785736,0.01210904773324728,-0.6290985941886902,-0.777190089225769,77.9793871806035,0.004608869552612305,109,0.00080820126,-0.00066753547,0.0010482331974679049,0.0013718818,-0.0012061654,0.0018267169126046715,0.0004845794,0.000929503,-0.0008940045,-0.0015930005,4.080351829528809,111.80378723144531
1779208703.9519973,4.646658897399902,figure8,9000,13.733119707026779,0.016090214,-0.008783684,0.0,0.0048891515,0.0019337626,0.0008473513,-0.00070681307,0.0011034440965311523,0,0.005736503,0.0012269495,0.037864737,-0.008518044836819172,0.01082183513790369,-0.6293790340423584,-0.7769764065742493,78.01775428488891,0.014724969863891602,110,0.0008473513,-0.00070681307,0.0011034440965311523,0.0010885119,-0.0009729282,0.00145994775427353,0.0005154956,0.00097562966,-0.0007257456,-0.0012667837,4.0750732421875,111.7757568359375
1779208704.033173,4.727834701538086,figure8,10000,15.259021896696423,0.015109753,-0.009157206,0.0,0.0048891515,0.0019337626,0.00087010907,-0.00076843123,0.0011608515659020612,0,0.0057592606,0.0011653313,0.03783063,-0.0091414675116539,0.011385413818061352,-0.6294341087341309,-0.7769166827201843,78.02677308039608,0.0037512779235839844,111,0.00087010907,-0.00076843123,0.0011608515659020612,0.0008360481,-0.0008816526,0.001215025805154631,0.00057120563,0.0010105942,-0.0006890299,-0.0010007625,4.0750732421875,111.7225570678711
1779208704.1174371,4.812098741531372,figure8,10000,15.259021896696423,0.01196908,-0.0057167993,0.0,0.0048891515,0.0019337626,0.00083403056,-0.0006808203,0.0010766258671521844,0,0.005723182,0.0012529423,0.037816938,-0.0086879413574934,0.010447242297232151,-0.6292856931686401,-0.7770553231239319,78.0031761476783,0.015577077865600586,112,0.00083403056,-0.0006808203,0.0010766258671521844,0.000435816,-0.00025431978,0.0005045930540623792,0.0004925911,0.0009573282,-0.0001581776,-0.00047915967,4.0750732421875,111.7225570678711
1779208704.2043664,4.899028062820435,figure8,10000,15.259021896696423,0.012850427,-0.0073178336,0.0,0.0048891515,0.0019337626,0.0008813911,-0.0007656289,0.001167492133452832,0,0.0057705427,0.0011681337,0.03782902,-0.009359450079500675,0.011433400213718414,-0.6294406056404114,-0.7769082188606262,78.02773674797088,0.0029594898223876953,113,0.0008813911,-0.0007656289,0.001167492133452832,0.00044779957,-0.00043360755,0.0006233297242282439,0.00056614086,0.0010210398,-0.00033128506,-0.0005280058,4.0750732421875,111.74340057373047
1779208704.2857206,4.980382204055786,figure8,10000,15.259021896696423,0.010907403,-0.00580106,0.0,0.0048891515,0.0019337626,0.0008490947,-0.0007222395,0.001114715963521225,0,0.0057382463,0.0012115231,0.037854116,-0.008914940990507603,0.01092571672052145,-0.6292935609817505,-0.7770397663116455,78.00518750040351,0.0028371810913085938,114,0.0008490947,-0.0007222395,0.001114715963521225,0.00019454287,-0.00014376358,0.00024189851691769985,0.00053000887,0.000980654,-0.0001001942,-0.00022017269,4.0750732421875,111.74714660644531
1779208704.3672926,5.0619542598724365,figure8,11000,16.784924086366065,0.010246546,-0.0055274875,0.0,0.0048891515,0.0019337626,0.0008394909,-0.0007161682,0.0011034681535607028,0,0.0057286425,0.0012175944,0.037830595,-0.009001255966722965,0.011771788820624352,-0.6292515397071838,-0.7770603895187378,78.00073777021163,0.01320195198059082,115,0.0008394909,-0.0007161682,0.0011034681535607028,9.571871e-05,-7.505583e-05,0.00012163654229703386,0.00052599073,0.00097003893,-5.351605e-05,-0.00010923132,4.0750732421875,111.74898529052734
1779208704.4285815,5.123243093490601,figure8,11000,16.784924086366065,0.010982192,-0.0066031045,0.0,0.0048891515,0.0019337626,0.0008602203,-0.00075878645,0.0011470552490425478,0,0.005749372,0.0011749761,0.037839316,-0.009359273128211498,0.011321740224957466,-0.6292990446090698,-0.7770244479179382,78.00661731043417,0.0027022361755371094,116,0.0008602203,-0.00075878645,0.0011470552490425478,0.00015362991,-0.00023063818,0.0002771211281835001,0.00056347065,0.0009991179,-0.00019367962,-0.00019820273,4.064516067504883,111.7702865600586
1779208704.5130315,5.207693099975586,figure8,11000,16.784924086366065,0.011608571,-0.0066323043,0.0,0.0048891515,0.0019337626,0.0008900543,-0.0007766073,0.0011812347385594672,0,0.005779206,0.0011571553,0.037845917,-0.009559951722621918,0.011968640610575676,-0.629408597946167,-0.7769235372543335,78.02408432154688,0.004502773284912109,117,0.0008900543,-0.0007766073,0.0011812347385594672,0.00021583197,-0.00022613264,0.00031260103594962275,0.00057501765,0.0010318286,-0.00017642559,-0.000258057,4.064516067504883,111.7702865600586
1779208704.5984583,5.29311990737915,figure8,11000,16.784924086366065,0.010737271,-0.006174811,0.0,0.0048891515,0.0019337626,0.00087554054,-0.0007667884,0.0011638452207352987,0,0.005764692,0.0011669742,0.037852872,-0.009366700425744057,0.011178352870047092,-0.6295308470726013,-0.7768387198448181,78.04051277014095,0.013848543167114258,118,0.00087554054,-0.0007667884,0.0011638452207352987,9.385236e-05,-0.00011957518,0.00015200818782710378,0.0005687153,0.0010154303,-9.7531636e-05,-0.000116593605,4.069794654846191,111.80621337890625
1779208704.6801836,5.374845266342163,figure8,11000,16.784924086366065,0.011154964,-0.005422069,0.0,0.0048891515,0.0019337626,0.0009022341,-0.0007491007,0.001172679952800789,0,0.0057913857,0.0011846619,0.03782249,-0.009090736508369446,0.010945169255137444,-0.6292806267738342,-0.777047872543335,78.00324191316267,0.003207683563232422,119,0.0009022341,-0.0007491007,0.001172679952800789,0.00015239578,-2.6254093e-05,0.00015464071578802209,0.0005452048,0.0010382341,5.99574e-06,-0.00015452444,4.064516067504883,111.81089782714844
1779208704.7837636,5.4784252643585205,figure8,11000,16.784924086366065,0.010390332,-0.0056606545,0.0,0.0048891515,0.0019337626,0.0008804514,-0.0007533913,0.0011587895459201408,0,0.005769603,0.0011803713,0.037818003,-0.009007003158330917,0.010909426026046276,-0.6293722987174988,-0.7769750952720642,78.01672810565657,0.013243675231933594,120,0.0008804514,-0.0007533913,0.0011587895459201408,3.6818892e-05,-3.213803e-05,4.887211508721357e-05,0.0005541689,0.0010176885,-2.3793122e-05,-4.2689237e-05,4.069794654846191,111.8088607788086
1779208704.8725746,5.5672361850738525,figure8,12000,18.310826276035705,0.010344084,-0.0060590124,0.0,0.0048891515,0.0019337626,0.00087777013,-0.00076992135,0.001167586974762106,0,0.0057669217,0.0011638412,0.03783108,-0.009257161989808083,0.011466571129858494,-0.6295554637908936,-0.7768157720565796,78.04479768668178,0.0061872005462646484,121,0.00087777013,-0.00076992135,0.001167586974762106,1.7382641e-05,-7.422446e-05,7.62327124742022e-05,0.00057139434,0.001018218,-6.901376e-05,-3.2380973e-05,4.069794654846191,111.75982666015625
1779208705.1384325,5.833094120025635,figure8,13000,19.83672846570535,0.010467583,-0.0062001375,0.0,0.0048891515,0.0019337626,0.0008853334,-0.00078746,0.0011848664596522435,0,0.005774485,0.0011463026,0.037888467,-0.009881438687443733,0.011431771330535412,-0.6295874714851379,-0.7767826318740845,78.04916165203224,0.00607752799987793,122,0.0008853334,-0.00078746,0.0011848664596522435,2.0698892e-05,-7.173998e-05,7.466638367442129e-05,0.0005870643,0.0010292055,-6.58989e-05,-3.5105622e-05,4.053958892822266,111.74336242675781
1779208705.1588876,5.853549242019653,figure8,13000,19.83672846570535,0.010976281,-0.0042984304,0.0,0.0048891515,0.0019337626,0.00089118304,-0.00077700964,0.001182349825364115,0,0.0057803346,0.0011567529,0.037851404,-0.009556951001286507,0.011497500352561474,-0.6294679045677185,-0.7768826484680176,78.03180912978232,0.016354084014892578,123,0.00089118304,-0.00077700964,0.001182349825364115,0.00018689969,0.00025779312,0.00031841605701874126,0.0005753163,0.0010329387,0.00029094657,-0.00012937884,4.053958892822266,111.74336242675781
1779208705.2459714,5.940633058547974,figure8,13000,19.83672846570535,0.010571453,-0.0054402854,0.0,0.0048891515,0.0019337626,0.00087763416,-0.0008019523,0.0011888521011759027,0,0.0057667857,0.0011318102,0.03787698,-0.009989523328840733,0.01221257634460926,-0.6296665072441101,-0.7767053246498108,78.06248296541689,0.008002519607543945,124,0.00087763416,-0.0008019523,0.0011888521011759027,8.823903e-05,0.00010204814,0.0001349071902884587,0.000603075,0.001024534,0.00011809302,-6.5222615e-05,4.053958892822266,111.71731567382812
1779208705.3501296,6.044791221618652,figure8,14000,21.36263065537499,0.010670876,-0.0036744103,0.0,0.0048891515,0.0019337626,0.0009001051,-0.00073140557,0.001159803149695321,0,0.0057892567,0.001202357,0.037891917,-0.009982000105082989,0.012902203015983105,-0.6293169260025024,-0.7769776582717896,78.01252065814866,0.019845008850097656,125,0.0009001051,-0.00073140557,0.001159803149695321,0.0001347916,0.00030069082,0.00032952048223911125,0.0005285058,0.001032388,0.00032212958,-6.9399335e-05,4.053958892822266,111.68169403076172
1779208705.4333076,6.127969264984131,figure8,15000,22.888532845044633,0.010718426,-0.0047882413,0.0,0.0048891515,0.0019337626,0.0009007058,-0.0007544297,0.0011749192104468752,0,0.0057898574,0.0011793328,0.03785403,-0.009302661754190922,0.010689604096114635,-0.6293235421180725,-0.7770141959190369,78.00896962663262,0.02054429054260254,126,0.0009007058,-0.0007544297,0.0011749192104468752,9.653905e-05,0.00012673781,0.00015931810898166439,0.00055083877,0.0010377917,0.00014402923,-6.810171e-05,4.048680305480957,111.6284408569336
1779208705.506833,6.2014946937561035,figure8,15000,22.888532845044633,0.010328719,-0.0054946397,0.0,0.0048891515,0.0019337626,0.00088701444,-0.00076943333,0.0011742326327906034,0,0.005776166,0.0011643292,0.037824143,-0.009443107061088085,0.011134333908557892,-0.6293362379074097,-0.7769960165023804,78.01167664232709,0.010547161102294922,127,0.00088701444,-0.00076943333,0.0011742326327906034,1.8400056e-05,3.482585e-05,3.938784085045497e-05,0.0005684081,0.0010274894,3.7888214e-05,-1.0764992e-05,4.048680305480957,111.6284408569336
1779208705.5892572,6.283918857574463,figure8,15000,22.888532845044633,0.011204488,-0.0059623956,0.0,0.0048891515,0.0019337626,0.00091287075,-0.0007885711,0.0012063073041236093,0,0.0058020223,0.0011451915,0.03782549,-0.009445530362427235,0.011562779545783997,-0.629444420337677,-0.7769020199775696,78.02853420768972,0.019923686981201172,128,0.00091287075,-0.0007885711,0.0012063073041236093,0.00011906955,-5.4218894e-05,0.00013083288772590935,0.0005820687,0.0010565857,-2.8341745e-05,-0.00012772623,4.043401718139648,111.60958099365234
1779208705.6711493,6.365810871124268,figure8,16000,24.414435034714273,0.010203595,-0.0053743897,0.0,0.0048891515,0.0019337626,0.0008890019,-0.00076394784,0.0011721521559871924,0,0.0057781534,0.0011698147,0.037843447,-0.00910066720098257,0.009963707998394966,-0.6294295787811279,-0.7769403457641602,78.02331917102423,0.020543575286865234,129,0.0008890019,-0.00076394784,0.0011721521559871924,-4.75852e-06,5.2938598e-05,5.315203258136434e-05,0.0005628384,0.0010281798,5.0798782e-05,1.5640415e-05,4.043401718139648,111.50548553466797
1779208705.7319326,6.426594257354736,figure8,16000,24.414435034714273,0.010301368,-0.0050011226,0.0,0.0048891515,0.0019337626,0.0008941549,-0.0007507319,0.0011675235857880617,0,0.0057833064,0.0011830307,0.03785204,-0.0091316569596529,0.011125528253614902,-0.6293542385101318,-0.7769852876663208,78.01445215966154,0.013133764266967773,130,0.0008941549,-0.0007507319,0.0011675235857880617,1.9338488e-05,9.519742e-05,9.71417841461193e-05,0.0005486813,0.001030563,9.713805e-05,8.522584e-07,4.032844543457031,111.4106674194336
1779208705.8149924,6.5096540451049805,figure8,17000,25.940337224383917,0.0104837,-0.0058643557,0.0,0.0048891515,0.0019337626,0.00089505455,-0.00077765225,0.001185692101604399,0,0.005784206,0.0011561103,0.037869904,-0.009556389413774014,0.01134820282459259,-0.6291922330856323,-0.7771080732345581,77.990827743701,0.011003255844116211,131,0.00089505455,-0.00077765225,0.001185692101604399,1.6705111e-05,-2.8162547e-05,3.27443091453105e-05,0.00057440036,0.0010372704,-2.4070387e-05,-2.2199241e-05,4.022287368774414,111.4106674194336
1779208705.9189348,6.613596439361572,figure8,17000,25.940337224383917,0.010817989,-0.0062772753,0.0,0.0048891515,0.0019337626,0.0009054723,-0.0007969949,0.001206267391265477,0,0.005794624,0.0011367677,0.037854347,-0.00982626061886549,0.01175867859274149,-0.6295245289802551,-0.7768294811248779,78.04060121145261,0.022601604461669922,132,0.0009054723,-0.0007969949,0.001206267391265477,4.5538018e-05,-8.2552615e-05,9.427961272350156e-05,0.0005920653,0.0010509709,-7.1324466e-05,-6.165603e-05,4.022287368774414,111.20258331298828
1779208706.0030694,6.697731018066406,figure8,18000,27.466239414053558,0.009589823,-0.005139607,0.0,0.0048891515,0.0019337626,0.0008707526,-0.0007489396,0.001148529780311501,0,0.005759904,0.001184823,0.037854627,-0.009491125121712685,0.011370721273124218,-0.6294971704483032,-0.7768617272377014,78.0358901320857,0.012189626693725586,133,0.0008707526,-0.0007489396,0.001148529780311501,-7.82904e-05,9.469461e-05,0.00012286763463633602,0.00055216474,0.0010070922,7.64081e-05,9.621984e-05,4.022287368774414,111.20258331298828
1779208706.1049802,6.799641847610474,figure8,19000,28.9921416037232,0.010568627,-0.006015887,0.0,0.0048891515,0.0019337626,0.0008960818,-0.00078436057,0.0011908753376129288,0,0.0057852333,0.001149402,0.037860602,-0.009541461244225502,0.011684637516736984,-0.629441499710083,-0.7769014239311218,78.02832266354005,0.02007889747619629,134,0.0008960818,-0.00078436057,0.0011908753376129288,2.601599e-05,-4.6733578e-05,5.348699732761885e-05,0.00058142835,0.0010392907,-4.0320687e-05,-3.514401e-05,4.0170087814331055,111.12197875976562
1779208706.1868143,6.881475925445557,figure8,19000,28.9921416037232,0.010105073,-0.0048860265,0.0,0.0048891515,0.0019337626,0.00088901864,-0.0007407393,0.0011571727710444136,0,0.00577817,0.0011930233,0.03786199,-0.009242167696356773,0.011686384677886963,-0.6292955279350281,-0.7770232558250427,78.00693013478289,0.007332801818847656,135,0.00088901864,-0.0007407393,0.0011571727710444136,-4.1924995e-06,0.00010564939,0.00010573254563538031,0.00053983874,0.0010235345,0.00010247218,2.6054233e-05,4.006451606750488,111.03274536132812
1779208706.2697632,6.9644248485565186,figure8,20000,30.518043793392845,0.011045996,-0.0056327926,0.0,0.0048891515,0.0019337626,0.0009158221,-0.0007677523,0.0011950622294112157,0,0.0058049737,0.0011660103,0.03788053,-0.009620301425457,0.012066544964909554,-0.6293498873710632,-0.7769689559936523,78.01561530486451,0.008575677871704102,136,0.0009158221,-0.0007677523,0.0011950622294112157,9.54795e-05,-2.5229077e-05,9.87564742247556e-05,0.0005608526,0.001055281,-4.85334e-06,-9.863715e-05,4.006451606750488,110.9722671508789
1779208706.373942,7.068603515625,figure8,20000,30.518043793392845,0.009630636,-0.005955266,0.0,0.0048891515,0.0019337626,0.00086478936,-0.000770021,0.0011579261658287768,0,0.005753941,0.0011637416,0.037880193,-0.009548960253596306,0.012017278000712395,-0.6294116973876953,-0.7769203782081604,78.02465479261195,0.01667046546936035,137,0.00086478936,-0.000770021,0.0011579261658287768,-9.250248e-05,-2.4743858e-05,9.575472733618478e-05,0.0005738272,0.0010057412,-4.3398766e-05,8.535523e-05,4.00117301940918,110.90885925292969
1779208706.4560502,7.15071177482605,figure8,20000,30.518043793392845,0.0063222004,-0.0022368915,0.0,0.0048891515,0.0019337626,0.00076457625,-0.0006051434,0.0009750771040731946,0,0.005653728,0.0013286192,0.03787432,-0.007316438481211662,0.012601305730640888,-0.629291296005249,-0.7770329117774963,78.00926774417076,0.004973649978637695,138,0.00076457625,-0.0006051434,0.0009750771040731946,-0.00038524542,0.000509978,0.0006391334658916479,0.00043309655,0.0008736148,0.00041881483,0.00048278956,3.995894432067871,110.83053588867188
1779208706.5373602,7.232021808624268,figure8,20000,30.518043793392845,0.0053125466,-0.0019688187,0.0,0.0048891515,0.0019337626,0.0007161512,-0.0005653228,0.0009123937928378308,0,0.0056053028,0.0013684398,0.03782958,-0.006322585977613926,0.012699107639491558,-0.6295310854911804,-0.7768458127975464,78.04530909771508,0.015323877334594727,139,0.0007161512,-0.0005653228,0.0009123937928378308,-0.0004744006,0.0005253358,0.0007078372571592763,0.00040471973,0.00081771903,0.00041567572,0.0005729287,4.00117301940918,110.79743957519531
1779208706.6190357,7.313697338104248,figure8,20000,30.518043793392845,0.010311326,-0.0048613017,0.0,0.0048891515,0.0019337626,0.0008528675,-0.0006834257,0.0010929106105684499,0,0.005742019,0.0012503369,0.037890885,-0.008676394820213318,0.012310909107327461,-0.6291547417640686,-0.777134120464325,77.9878265333387,0.004017829895019531,140,0.0008528675,-0.0006834257,0.0010929106105684499,0.000109027285,-1.3317505e-05,0.00010983763066668336,0.0004909626,0.0009764268,9.664807e-06,-0.00010941159,4.00117301940918,110.82238006591797
1779208706.700882,7.395543575286865,figure8,20000,30.518043793392845,0.0032586195,-0.0010876614,0.0,0.0048891515,0.0019337626,0.00066006696,-0.00051679113,0.0008383086783233513,0,0.0055492185,0.0014169714,0.037791558,-0.005312349647283554,0.012582831084728241,-0.6294107437133789,-0.7769527435302734,78.0276866769767,0.013926267623901367,141,0.00066006696,-0.00051679113,0.0008383086783233513,-0.00072771107,0.0006855888,0.0009997976725416955,0.0003686262,0.0007529118,0.00051972014,0.0008540997,4.00117301940918,110.82238006591797
1779208706.7821662,7.47682785987854,figure8,20000,30.518043793392845,0.005953133,-0.0032161528,0.0,0.0048891515,0.0019337626,0.00069892174,-0.000573423,0.0009040495193703164,0,0.0055880733,0.0013603396,0.03782239,-0.005636268761008978,0.011790585704147816,-0.6296057105064392,-0.7768049836158752,78.05444589403878,0.013845205307006836,142,0.00069892174,-0.000573423,0.0009040495193703164,-0.00036613736,0.0002711063,0.0004555822527663933,0.00041634106,0.0008024747,0.00018945156,0.0004143227,4.00117301940918,110.79029083251953
1779208706.8432631,7.537924766540527,figure8,20000,30.518043793392845,0.0060475646,-0.0028640437,0.0,0.0048891515,0.0019337626,0.00068779243,-0.00055208127,0.0008819592762149283,0,0.005576944,0.0013816813,0.037839755,-0.0058367145247757435,0.012743953615427017,-0.6297287940979004,-0.7766885757446289,78.07479417668357,0.013387918472290039,143,0.00068779243,-0.00055208127,0.0008819592762149283,-0.00031053767,0.00029378873,0.00042748738783631444,0.0003980446,0.0007870277,0.0002232804,0.00036454262,4.00117301940918,110.74034118652344
1779208706.9457269,7.640388488769531,figure8,20000,30.518043793392845,0.0100911055,-0.0063275257,0.0,0.0048891515,0.0019337626,0.00080000097,-0.0007056908,0.0010667713153156963,0,0.0056891525,0.0012280717,0.03791276,-0.008328844793140888,0.012865835800766945,-0.6294413208961487,-0.7768968343734741,78.03158068169962,0.01362466812133789,144,0.00080000097,-0.0007056908,0.0010667713153156963,0.000111916015,-0.0002451376,0.0002694766003291173,0.0005244523,0.0009289515,-0.00021660051,-0.00016031798,3.995894432067871,110.71227264404297
1779208707.0289326,7.7235941886901855,figure8,20000,30.518043793392845,0.0045774346,-0.0017452284,0.0,0.0048891515,0.0019337626,0.00064911647,-0.0005199767,0.000831701846830404,0,0.005538268,0.0014137859,0.03781622,-0.005074508022516966,0.012206447310745716,-0.6296697854995728,-0.7767504453659058,78.06508713801716,0.014985084533691406,145,0.00064911647,-0.0005199767,0.000831701846830404,-0.00047471875,0.00050912995,0.0006961114974843524,0.00037449892,0.000742616,0.00039995214,0.00056974514,3.995894432067871,110.77518463134766
1779208707.1307235,7.825385093688965,figure8,20000,30.518043793392845,0.00510475,-0.0017861936,0.0,0.0048891515,0.0019337626,0.000640891,-0.00049512903,0.0008098728550220139,0,0.0055300426,0.0014386335,0.037806813,-0.004675842821598053,0.013074439950287342,-0.6297608017921448,-0.7766649723052979,78.08082317472467,0.015318155288696289,146,0.000640891,-0.00049512903,0.0008098728550220139,-0.00035662486,0.0004298629,0.0005585368552327137,0.0003520897,0.00072933314,0.0003469407,0.0004377163,3.995894432067871,110.81291198730469
1779208707.2128975,7.907559156417847,figure8,21000,32.043945983062486,-0.008700525,0.0051211114,0.0,0.0048891515,0.0019337626,0.00019683549,-0.00013442547,0.00023835775225288555,0,0.005085987,0.0017993371,0.037602067,0.004142706748098135,0.009565141052007675,-0.62999427318573,-0.776529848575592,78.10955470347743,0.0160524845123291,147,0.00019683549,-0.00013442547,0.00023835775225288555,-0.0018854074,0.0016296298,0.002492078269835025,9.098496e-05,0.00022030922,0.0012061922,0.0021807235,3.995894432067871,110.81291198730469
1779208707.3149583,8.009619951248169,figure8,21000,32.043945983062486,0.0015274934,-0.00050754345,0.0,0.0048891515,0.0019337626,0.0004408951,-0.0003440173,0.0005592283750516587,0,0.0053300466,0.0015897453,0.03776073,-0.001809955108910799,0.013054998591542244,-0.6300232410430908,-0.7764644026756287,78.12056634626873,0.01586151123046875,148,0.0004408951,-0.0003440173,0.0005592283750516587,-0.0006037302,0.0005258121,0.0008006051155996869,0.00024588988,0.00050226937,0.00039027107,0.00069904,3.9906158447265625,110.84016418457031
1779208707.3987617,8.09342336654663,figure8,21000,32.043945983062486,0.008305243,-0.0036459852,0.0,0.0048891515,0.0019337626,0.0006330139,-0.00048348098,0.0007965302470165061,0,0.0055221654,0.0014502816,0.03783047,-0.005035195033997297,0.013247799128293991,-0.6296591758728027,-0.7767422199249268,78.06613044011729,0.008316993713378906,149,0.0006330139,-0.00048348098,0.0007965302470165061,0.00020833517,-8.995077e-05,0.00022692440166803372,0.00034213523,0.000719308,-4.4926575e-05,-0.00022243267,3.9906158447265625,110.79692840576172
1779208707.5009718,8.19563341140747,figure8,22000,33.56984817273213,-0.004105531,0.001899462,0.0,0.0048891515,0.0019337626,0.00022589369,-0.00018422282,0.00029148928627020196,0,0.0051150452,0.0017495397,0.037636746,0.0036922325380146503,0.009543072432279587,-0.6299841403961182,-0.7765405774116516,78.10794587227059,0.018197059631347656,150,0.00022589369,-0.00018422282,0.00029148928627020196,-0.0011769867,0.00090938876,0.0014873754092490086,0.00013371938,0.00025900797,0.0006473312,0.0013391222,3.985337257385254,110.75411224365234
1779208707.5826347,8.277296304702759,figure8,22000,33.56984817273213,-0.0034526568,0.0012614932,0.0,0.0048891515,0.0019337626,0.00017799204,-0.00016124756,0.00024017065714639917,0,0.0050671436,0.001772515,0.037599437,0.005322711076587439,0.00857672281563282,-0.630172848701477,-0.7763892412185669,78.13410258164575,0.0077362060546875,151,0.00017799204,-0.00016124756,0.00024017065714639917,-0.0009798819,0.0007113908,0.0012108861606560536,0.00012120293,0.00020734462,0.00049470447,0.0011052206,3.9800586700439453,110.75224304199219
1779208707.6848078,8.379469394683838,figure8,22000,33.56984817273213,0.013975132,-0.006404083,0.0,0.0048891515,0.0019337626,0.00071574235,-0.00054658414,0.0009005783318911354,0,0.005604894,0.0013871784,0.03784595,-0.005940085276961327,0.011932971887290478,-0.6297235488891602,-0.7767049670219421,78.07203962430384,0.01635432243347168,152,0.00071574235,-0.00054658414,0.0009005783318911354,0.001038471,-0.000737674,0.001273807258651282,0.0003868516,0.0008132571,-0.0005071134,-0.0011685123,3.9800586700439453,110.7052230834961
1779208707.7661088,8.46077036857605,figure8,22000,33.56984817273213,-0.00089349365,0.00071871374,0.0,0.0048891515,0.0019337626,0.00028107455,-0.00020941882,0.0003505126939675864,0,0.005170226,0.0017243437,0.03761838,0.0032280441373586655,0.00933597981929779,-0.6301378011703491,-0.7764204144477844,78.13013024835963,0.006745338439941406,153,0.00028107455,-0.00020941882,0.0003505126939675864,-0.0007074604,0.0005962632,0.0009252189231361444,0.00014712678,0.0003181397,0.0004379963,0.0008149781,3.9747800827026367,110.64409637451172
1779208707.8278341,8.522495746612549,figure8,22000,33.56984817273213,-0.0056073964,0.0047406806,0.0,0.0048891515,0.0019337626,0.00014026975,-4.0871906e-05,0.00014610310053493297,0,0.0050294213,0.0018928907,0.037570387,0.006372510921210051,0.007794739678502083,-0.6300856471061707,-0.7764604091644287,78.11989875397069,0.007036447525024414,154,0.00014026975,-4.0871906e-05,0.00014610310053493297,-0.0011828099,0.001240444,0.0017139838524043043,1.11199115e-05,0.00014567931,0.00097037596,0.001412838,3.9800586700439453,110.60648345947266
1779208707.908805,8.603466510772705,figure8,23000,35.09575036240177,0.011807709,-0.005303966,0.0,0.0048891515,0.0019337626,0.0006045266,-0.00044701132,0.0007518454192648263,0,0.005493678,0.0014867513,0.037863567,-0.004470176063477993,0.013608022592961788,-0.6301599740982056,-0.7763331532478333,78.14122534716651,0.006656646728515625,155,0.0006045266,-0.00044701132,0.0007518454192648263,0.0008840932,-0.00062942714,0.001085264663785561,0.00031324057,0.0006834852,-0.0004343121,-0.0009945715,3.9800586700439453,110.60648345947266
1779208708.1168528,8.811514377593994,figure8,23000,35.09575036240177,-0.00043206452,0.00060926477,0.0,0.0048891515,0.0019337626,6.470876e-05,-2.6189256e-05,6.980759693414157e-05,0,0.0049538603,0.0019075733,0.03753529,0.007910512387752533,0.007435297127813101,-0.6308130621910095,-0.7758588790893555,78.22672516593013,0.01428079605102539,156,6.470876e-05,-2.6189256e-05,6.980759693414157e-05,-0.0001891497,0.00018929964,0.00026760411872475616,1.2435165e-05,6.869109e-05,0.00014672328,0.00022379508,3.969501495361328,110.6094741821289
1779208708.1777616,8.87242317199707,figure8,23000,35.09575036240177,0.006840489,-0.002747391,0.0,0.0048891515,0.0019337626,0.000262653,-0.00017046835,0.00031312306091668435,0,0.0051518045,0.0017632942,0.037663177,0.002109305467456579,0.009709801524877548,-0.6309003233909607,-0.775800347328186,78.24327527358211,0.0040323734283447266,157,0.000262653,-0.00017046835,0.00031312306091668435,0.0007021314,-0.0004757733,0.0008481442964966279,0.000113374896,0.000291877,-0.00032272836,-0.0007843438,3.969501495361328,110.6094741821289
1779208708.2792912,8.973952770233154,figure8,23000,35.09575036240177,0.011040003,-0.0040518558,0.0,0.0048891515,0.0019337626,0.00046289386,-0.00028688204,0.0005445842816453172,0,0.0053520454,0.0016468805,0.03775327,-0.0021264590322971344,0.012691529467701912,-0.6308163404464722,-0.7758254408836365,78.23661943005976,0.001834869384765625,158,0.00046289386,-0.00028688204,0.0005445842816453172,0.0010706296,-0.0006697335,0.001262850212978434,0.00018648656,0.00051165884,-0.00043739803,-0.001184683,3.969501495361328,110.5946044921875
1779208708.4264245,9.121086120605469,figure8,24000,36.62165255207141,0.007059234,-0.0024887933,0.0,0.0048891515,0.0019337626,0.00036965078,-0.00022329367,0.0004318585012970869,0,0.0052588023,0.0017104689,0.037654534,0.0010250735795125365,0.01129241194576025,-0.6311770677566528,-0.7755559086799622,78.2873967620771,0.014054298400878906,159,0.00036965078,-0.00022329367,0.0004318585012970869,0.0005421016,-0.00032741576,0.0006333050250752871,0.00014360418,0.0004072832,-0.00021055028,-0.0005972804,3.958944320678711,110.58402252197266
1779208708.4732475,9.167909145355225,figure8,24000,36.62165255207141,0.012907986,-0.0025549908,0.0,0.0048891515,0.0019337626,0.0005137841,-0.0002619191,0.000576693811157082,0,0.0054029357,0.0016718435,0.037733875,-0.0017287471564486623,0.011994916945695877,-0.6310044527053833,-0.7756845355033875,78.26280289784734,0.018344640731811523,160,0.0005137841,-0.0002619191,0.000576693811157082,0.0013961012,-0.0005016317,0.0014834867639999558,0.00015192712,0.00055632176,-0.00020714395,-0.0014689534,3.958944320678711,110.58402252197266
1779208708.554947,9.249608516693115,figure8,24000,36.62165255207141,0.010113146,-0.0016246312,0.0,0.0048891515,0.0019337626,0.00049634697,-0.00023408863,0.00054877845927716,0,0.0053854985,0.001699674,0.03776584,-0.002176913432776928,0.011653388850390911,-0.6309102177619934,-0.7757652401924133,78.24792662857153,0.006486654281616211,161,0.00049634697,-0.00023408863,0.00054877845927716,0.00092135696,-0.0002619013,0.0009578574645256448,0.00012808715,0.0005336211,-6.8751964e-05,-0.0009553869,3.958944320678711,110.49706268310547
1779208708.7413213,9.435982942581177,figure8,24000,36.62165255207141,0.012029666,-0.0006289696,0.0,0.0048891515,0.0019337626,0.0006864122,-0.00022407132,0.0007220593166636205,0,0.0055755638,0.0017096912,0.037868645,-0.004606456495821476,0.012883257120847702,-0.6305860877037048,-0.7759987711906433,78.20219915495214,0.00988006591796875,162,0.0006864122,-0.00022407132,0.0007220593166636205,0.00095656456,-0.00016690738,0.0009710168807006407,7.899507e-05,0.0007177252,3.219623e-05,-0.000970483,3.958944320678711,110.36800384521484
1779208708.8289514,9.523612976074219,figure8,25000,38.147554741741054,0.017771266,-0.004864688,0.0,0.0048891515,0.0019337626,0.0009122356,-0.00042740186,0.0010073957187915943,0,0.005801387,0.0015063607,0.03778945,-0.007817689329385757,0.014641443267464638,-0.63052898645401,-0.7759882211685181,78.19706186981146,0.011321067810058594,163,0.0009122356,-0.00042740186,0.0010073957187915943,0.0014556234,-0.00082457217,0.0016729491749408812,0.0002317709,0.0009803716,-0.00050939585,-0.0015935102,3.9483871459960938,110.3586196899414
1779208708.931415,9.626076698303223,figure8,25000,38.147554741741054,0.010014811,0.00028105406,0.0,0.0048891515,0.0019337626,0.0007406878,-0.0002154524,0.000771387202404585,0,0.0056298394,0.0017183102,0.037850566,-0.004895597230643034,0.013636265881359577,-0.6304051876068115,-0.7761311531066895,78.17733484470898,0.01637411117553711,164,0.0007406878,-0.0002154524,0.000771387202404585,0.0004906131,7.554976e-05,0.000496395984296507,5.9127342e-05,0.0007691178,0.0001744655,-0.00046472656,3.9483871459960938,110.36116027832031
1779208708.9927268,9.68738842010498,figure8,25000,38.147554741741054,0.013911795,-0.0038803872,0.0,0.0048891515,0.0019337626,0.000849796,-0.00035583577,0.0009212884156725718,0,0.0057389475,0.0015779268,0.03784216,-0.006297234911471605,0.011298790574073792,-0.630460798740387,-0.7761132717132568,78.17930820853636,0.014902353286743164,165,0.000849796,-0.00035583577,0.0009212884156725718,0.00086478365,-0.00061791285,0.0010628579923274604,0.00017420942,0.0009046676,-0.00042765855,-0.0009730238,3.9483871459960938,110.36116027832031
1779208709.0740383,9.768699884414673,figure8,25000,38.147554741741054,-0.0015879245,-0.0008264533,0.0,0.0048891515,0.0019337626,0.00038287835,-0.00017142599,0.00041950292697579857,0,0.00527203,0.0017623366,0.037664037,0.001965603791177273,0.010625802911818027,-0.6317198872566223,-0.7751214504241943,78.36631005376466,0.014560937881469727,166,0.00038287835,-0.00017142599,0.00041950292697579857,-0.0011101488,0.0002449991,0.0011368619385898476,9.0695445e-05,0.00040958152,1.6100224e-05,0.0011367479,3.9483871459960938,110.343017578125
1779208709.1355948,9.830256462097168,figure8,26000,39.6734569314107,-0.0010926232,0.0001492775,0.0,0.0048891515,0.0019337626,0.00035085576,-0.00013159146,0.0003747213324431952,0,0.0052400073,0.0018021711,0.03768135,0.0019506237003952265,0.01011640951037407,-0.631748616695404,-0.7751048803329468,78.36944456074167,0.0036826133728027344,167,0.00035085576,-0.00013159146,0.0003747213324431952,-0.00090973056,0.00033648004,0.0009699631433985373,5.8156977e-05,0.00037018082,0.00014616945,0.0009588863,3.9483871459960938,110.36013793945312
1779208709.2388325,9.933494091033936,figure8,26000,39.6734569314107,-0.002670076,0.0006126299,0.0,0.0048891515,0.0019337626,0.00023742067,-8.0167316e-05,0.0002505900486002151,0,0.005126572,0.0018535953,0.037612557,0.004542232491075993,0.007490056566894054,-0.6317627429962158,-0.7751123309135437,78.36694960097292,0.005750179290771484,168,0.00023742067,-8.0167316e-05,0.0002505900486002151,-0.0009731809,0.00038802423,0.0010476850276164935,3.0646403e-05,0.00024870902,0.00018381879,0.0010314332,3.9378299713134766,110.34738159179688
