wall_time_s,elapsed_s,mode,thrust_raw,thrust_percent,roll_cmd_deg,pitch_cmd_deg,yawrate_cmd_deg_s,target_x,target_y,target_error_x_m,target_error_y_m,target_error_m,figure8_active,mocap_x,mocap_y,mocap_z,mocap_qx,mocap_qy,mocap_qz,mocap_qw,yaw_deg,mocap_age_s,mocap_frame_count,drift_x_m,drift_y_m,horizontal_drift_m,velocity_x_m_s,velocity_y_m_s,horizontal_speed_m_s,body_error_x_m,body_error_y_m,body_velocity_x_m_s,body_velocity_y_m_s,battery_v,estimate_z
1779208779.1846352,0.0009963512420654297,figure8,0,0.0,0.0,-0.0,0.0,0.00614015,0.0080757085,0.0,0.0,0.0,0,0.00614015,0.0080757085,0.038090445,-0.004557434935122728,0.031297918409109116,-0.6337258815765381,-0.7729108929634094,78.74883733998922,0.0065593719482421875,49,0.0,0.0,0.0,0.0,0.0,0.0,0.0,0.0,0.0,0.0,4.059237480163574,111.6639404296875
1779208779.269183,0.08554410934448242,figure8,0,0.0,-0.0017664712,-0.00073062605,0.0,0.00614015,0.0080757085,-6.651692e-05,-1.3186596e-05,6.781140762811462e-05,0,0.006073633,0.008062522,0.03810662,-0.004499267321079969,0.031277135014534,-0.633685827255249,-0.7729448676109314,78.74280886241112,0.008644342422485352,50,-6.651692e-05,-1.3186596e-05,6.781140762811462e-05,-0.00024198888,-4.79729e-05,0.000246698231590899,2.5917892e-05,-6.266299e-05,-9.428942e-05,0.00022796825,4.059237480163574,111.66120910644531
1779208779.353379,0.1697402000427246,figure8,0,0.0,0.0008725733,0.0008767031,0.0,0.00614015,0.0080757085,2.4363399e-05,2.2213906e-05,3.2970180422756086e-05,0,0.0061645135,0.008097922,0.03807553,-0.004927304107695818,0.03257719427347183,-0.6335620284080505,-0.7729900479316711,78.7325474411867,0.009227752685546875,51,2.4363399e-05,2.2213906e-05,3.2970180422756086e-05,0.00015668388,9.343501e-05,0.00018242790029146674,-2.6546091e-05,1.955346e-05,0.00012224844,-0.00013540774,4.059237480163574,111.59964752197266
1779208779.414807,0.23116827011108398,figure8,0,0.0,-0.00028367958,-0.0009712886,0.0,0.00614015,0.0080757085,-1.2781471e-05,-2.0423904e-05,2.409360638834597e-05,0,0.0061273687,0.008055285,0.038098484,-0.004101614002138376,0.030041450634598732,-0.6336787939071655,-0.7730019092559814,78.73435875852806,0.007949352264404297,52,-1.2781471e-05,-2.0423904e-05,2.409360638834597e-05,-6.80296e-05,-0.00013858313,0.00015438040244784824,2.2527338e-05,-8.545223e-06,-0.00014920304,3.9645467e-05,4.059237480163574,111.59964752197266
1779208779.495921,0.31228208541870117,figure8,0,0.0,-0.0011560051,-0.000997498,0.0,0.00614015,0.0080757085,-4.658848e-05,-2.2634864e-05,5.179597975611443e-05,0,0.0060935616,0.008053074,0.038096085,-0.004659413360059261,0.03131789341568947,-0.6335706114768982,-0.7730367183685303,78.7258545135346,0.007890462875366211,53,-4.658848e-05,-2.2634864e-05,5.179597975611443e-05,-0.00017256547,-0.000105179504,0.00020209297396458172,3.1306296e-05,-4.1264266e-05,-0.00013688703,0.0001486725,4.059237480163574,111.58728790283203
1779208779.577844,0.39420509338378906,figure8,0,0.0,0.00022795596,0.00083593867,0.0,0.00614015,0.0080757085,5.066395e-06,2.5929883e-05,2.6420204230919578e-05,0,0.0061452165,0.008101638,0.038053192,-0.004682178143411875,0.03236648812890053,-0.6335177421569824,-0.7730367183685303,78.72478755303335,0.007413148880004883,54,5.066395e-06,2.5929883e-05,2.6420204230919578e-05,6.726732e-05,0.000103187056,0.00012317654249578358,-2.642001e-05,-1.0124995e-07,0.00011434771,-4.579369e-05,4.053958892822266,111.55738067626953
1779208779.6812766,0.4976377487182617,figure8,0,0.0,-2.0520398e-05,0.00019431786,0.0,0.00614015,0.0080757085,-5.124137e-06,9.747222e-06,1.1012043818719797e-05,0,0.006135026,0.008085456,0.03806191,-0.004737174138426781,0.0325729064643383,-0.633415937423706,-0.77311110496521,78.71100795291908,0.018916845321655273,55,-5.124137e-06,9.747222e-06,1.1012043818719797e-05,1.3831446e-05,1.9420615e-05,2.384259131540353e-05,-8.555546e-06,-6.933091e-06,2.1752483e-05,-9.762103e-06,4.059237480163574,111.55909729003906
1779208779.7842014,0.600562572479248,figure8,0,0.0,0.0005467864,0.00046645594,0.0,0.00614015,0.0080757085,2.0610169e-05,1.7310493e-05,2.6915277834525008e-05,0,0.0061607603,0.008093019,0.038096216,-0.00500991428270936,0.03249182552099228,-0.6335850954055786,-0.7729741930961609,78.7353361376549,0.01831340789794922,56,2.0610169e-05,1.7310493e-05,2.6915277834525008e-05,8.425384e-05,3.5510973e-05,9.143161142216684e-05,-2.100303e-05,1.6831666e-05,5.1285126e-05,-7.5693955e-05,4.053958892822266,111.61661529541016
1779208779.866059,0.6824202537536621,figure8,0,0.0,-9.369725e-05,3.3355744e-05,0.0,0.00614015,0.0080757085,-1.1920929e-07,8.600764e-06,8.601590025575825e-06,0,0.006140031,0.008084309,0.038074665,-0.004733756650239229,0.03266191855072975,-0.633531391620636,-0.7730127573013306,78.72872392873418,0.018143177032470703,57,-1.1920929e-07,8.600764e-06,8.601590025575825e-06,-1.6835693e-05,-6.996337e-06,1.8231546362403466e-05,-8.411579e-06,-1.7979681e-06,-1.0152009e-05,1.5143514e-05,4.053958892822266,111.61226654052734
1779208779.9480548,0.764415979385376,figure8,0,0.0,0.00046012632,0.00051715726,0.0,0.00614015,0.0080757085,2.3337081e-05,2.2218563e-05,3.2222413058281654e-05,0,0.006163487,0.008097927,0.03806236,-0.004857811611145735,0.03248477354645729,-0.6334600448608398,-0.7730779647827148,78.71686775826196,0.007051706314086914,58,2.3337081e-05,2.2218563e-05,3.2222413058281654e-05,6.3809595e-05,3.89898e-05,7.47788017416281e-05,-2.6355203e-05,1.8538802e-05,5.0721042e-05,-5.494766e-05,4.059237480163574,111.60391998291016
1779208780.050983,0.8673441410064697,figure8,0,0.0,-0.0007740243,-0.0010420638,0.0,0.00614015,0.0080757085,-3.0513853e-05,-2.4368055e-05,3.9049933668663066e-05,0,0.0061096363,0.0080513405,0.038074393,-0.004466418642550707,0.03121170401573181,-0.6332927942276001,-0.7732697129249573,78.68413496790379,0.018359661102294922,59,-3.0513853e-05,-2.4368055e-05,3.9049933668663066e-05,-0.00013166208,-0.00012524975,0.0001817206718845632,2.9881707e-05,-2.5139232e-05,-0.00014864936,0.0001045264,4.053958892822266,111.58686065673828
1779208780.1331344,0.9494955539703369,figure8,0,0.0,1.0630639e-05,-0.0007092658,0.0,0.00614015,0.0080757085,-6.068498e-06,-2.4967827e-05,2.5694727982608655e-05,0,0.0061340816,0.008050741,0.038072903,-0.00432538753375411,0.03082125261425972,-0.6337422728538513,-0.7729179263114929,78.74843523516783,0.0073359012603759766,60,-6.068498e-06,-2.4967827e-05,2.5694727982608655e-05,-1.3455719e-05,-8.9605936e-05,9.061059301937181e-05,2.5672012e-05,-1.080211e-06,-9.0509144e-05,-4.2865495e-06,4.059237480163574,111.5394058227539
1779208780.3002992,1.1166603565216064,figure8,0,0.0,0.00050047366,0.0003035607,0.0,0.00614015,0.0080757085,2.8092414e-05,1.4654361e-05,3.1684918289397996e-05,0,0.0061682425,0.008090363,0.038063552,-0.0049715242348611355,0.03318929299712181,-0.6334750056266785,-0.7730349898338318,78.72369624099726,0.012519598007202148,61,2.8092414e-05,1.4654361e-05,3.1684918289397996e-05,5.3849326e-05,1.0658827e-05,5.489408594830095e-05,-1.9864674e-05,2.4684587e-05,2.0982792e-05,-5.0725565e-05,4.059237480163574,111.54743194580078
1779208780.3206413,1.1370024681091309,figure8,0,0.0,-0.00068191683,-0.0017809632,0.0,0.00614015,0.0080757085,2.8591603e-06,-1.584366e-05,1.6099575493315664e-05,0,0.0061430093,0.008059865,0.038065966,-0.00461296271532774,0.03154453635215759,-0.6334729790687561,-0.7731077671051025,78.71286092388283,0.002198457717895508,62,2.8591603e-06,-1.584366e-05,1.6099575493315664e-05,-0.00020918003,-0.00029092227,0.0003583183576650738,1.497761e-05,5.9048766e-06,-0.0003262374,0.00014819312,4.059237480163574,111.53643035888672
1779208780.4029634,1.2193245887756348,figure8,0,0.0,-0.0012484681,-0.0015058015,0.0,0.00614015,0.0080757085,-2.6186928e-05,-1.7848797e-05,3.169124228422921e-05,0,0.006113963,0.00805786,0.03808867,-0.00436136731877923,0.030529217794537544,-0.6336694955825806,-0.7729889750480652,78.73579000446654,0.001461029052734375,63,-2.6186928e-05,-1.7848797e-05,3.169124228422921e-05,-0.0002513366,-0.00021088787,0.0003280911236848905,2.262016e-05,-2.2196016e-05,-0.00025591996,0.00020530159,4.059237480163574,111.53643035888672
1779208780.4851558,1.3015170097351074,figure8,0,0.0,-0.00060372055,0.00026357648,0.0,0.00614015,0.0080757085,-6.7632645e-06,2.3938715e-05,2.4875768159016672e-05,0,0.006133387,0.008099647,0.038047142,-0.004789189901202917,0.03269923850893974,-0.633330225944519,-0.7731757164001465,78.6990943434408,0.012058019638061523,64,-6.7632645e-06,2.3938715e-05,2.4875768159016672e-05,-9.454636e-05,2.7477014e-05,9.845811879858626e-05,-2.214924e-05,-1.1323205e-05,8.416817e-06,9.80977e-05,4.059237480163574,111.5505142211914
1779208780.5669901,1.3833513259887695,figure8,0,0.0,0.0005549124,4.4096443e-05,0.0,0.00614015,0.0080757085,2.9388815e-05,8.7004155e-06,3.0649627553434176e-05,0,0.006169539,0.008084409,0.03804433,-0.004469507373869419,0.03166775405406952,-0.6334152221679688,-0.7731508612632751,78.70520197295546,0.001953125,65,2.9388815e-05,8.7004155e-06,3.0649627553434176e-05,5.1782714e-05,-3.0489058e-05,6.0091864174543846e-05,-1.4287918e-05,2.7115586e-05,-1.9756546e-05,-5.6751305e-05,4.053958892822266,111.59366607666016
1779208780.649004,1.4653651714324951,figure8,0,0.0,0.00041659462,0.0007654588,0.0,0.00614015,0.0080757085,3.2084063e-05,3.1023286e-05,4.462994049463611e-05,0,0.006172234,0.008106732,0.03807404,-0.004952424671500921,0.03260090947151184,-0.6334607005119324,-0.7730719447135925,78.71765586237125,0.012056827545166016,66,3.2084063e-05,3.1023286e-05,4.462994049463611e-05,4.7492133e-05,7.178585e-05,8.607386931026596e-05,-3.6700814e-05,2.539452e-05,7.969014e-05,-3.252988e-05,4.053958892822266,111.59610748291016
1779208780.7100434,1.526404619216919,figure8,0,0.0,-0.0017698178,-0.0008687618,0.0,0.00614015,0.0080757085,-4.5008957e-05,-3.3704564e-06,4.5134977716818455e-05,0,0.006095141,0.008072338,0.03808098,-0.004079822916537523,0.030157361179590225,-0.6336041688919067,-0.7730586528778076,78.72401838479644,0.001786947250366211,67,-4.5008957e-05,-3.3704564e-06,4.5134977716818455e-05,-0.00029108764,-9.444519e-05,0.0003060259887426534,1.2106224e-05,-4.3481097e-05,-0.00014953992,0.00026700136,4.053958892822266,111.59610748291016
1779208780.7924755,1.6088366508483887,figure8,1000,1.525902189669642,-0.0005847266,-0.00022122967,0.0,0.00614015,0.0080757085,-1.4998019e-05,5.846843e-06,1.609739535497089e-05,0,0.006125152,0.008081555,0.03804872,-0.004611501470208168,0.03235781565308571,-0.6334536075592041,-0.773090124130249,78.71527730497203,0.002678394317626953,68,-1.4998019e-05,5.846843e-06,1.609739535497089e-05,-9.334661e-05,-3.2199805e-05,9.874419716732237e-05,-2.7989229e-06,-1.5852198e-05,-4.984378e-05,8.5240914e-05,4.053958892822266,111.58633422851562
1779208780.8741474,1.6905086040496826,figure8,1000,1.525902189669642,-0.0002584259,-0.00105582,0.0,0.00614015,0.0080757085,-1.4379621e-05,-2.7358532e-05,3.0907325309458286e-05,0,0.0061257705,0.00804835,0.038071197,-0.00425378791987896,0.03070146217942238,-0.6337905526161194,-0.7728834748268127,78.75490064238377,0.001180410385131836,69,-1.4379621e-05,-2.7358532e-05,3.0907325309458286e-05,-6.311202e-05,-0.00014231406,0.00015568050325548644,2.9637418e-05,-8.76847e-06,-0.00015188917,3.4148234e-05,4.053958892822266,111.58993530273438
1779208780.9770558,1.793416976928711,figure8,1000,1.525902189669642,0.0005345301,0.000115895135,0.0,0.00614015,0.0080757085,2.2539869e-05,4.2654574e-06,2.293991781786268e-05,0,0.00616269,0.008079974,0.03805312,-0.004361868370324373,0.03139906004071236,-0.6335461139678955,-0.7730552554130554,78.72297363081044,0.0019822120666503906,70,2.2539869e-05,4.2654574e-06,2.293991781786268e-05,6.429499e-05,-6.705188e-06,6.46436795192774e-05,-8.590842e-06,2.1270573e-05,5.997342e-06,-6.4364875e-05,4.059237480163574,111.60017395019531
1779208781.080015,1.896376132965088,figure8,1000,1.525902189669642,0.000741479,0.00041070936,0.0,0.00614015,0.0080757085,3.606826e-05,1.3303012e-05,3.844332812678468e-05,0,0.0061762184,0.008089012,0.038040213,-0.004627383779734373,0.03221132606267929,-0.6334838271141052,-0.7730712890625,78.71878226867234,0.013443708419799805,71,3.606826e-05,1.3303012e-05,3.844332812678468e-05,8.9363006e-05,2.4938454e-05,9.277754946610187e-05,-2.0101823e-05,3.276898e-05,4.1938223e-05,-8.275783e-05,4.053958892822266,111.55777740478516
1779208781.181647,1.9980082511901855,figure8,1000,1.525902189669642,-0.0014437574,-0.0010783614,0.0,0.00614015,0.0080757085,-5.6909397e-05,-2.6989728e-05,6.298511610567607e-05,0,0.0060832407,0.008048719,0.038013972,-0.004050079733133316,0.03099110908806324,-0.6338165402412415,-0.7728517055511475,78.76073201200556,0.013269901275634766,72,-5.6909397e-05,-2.6989728e-05,6.298511610567607e-05,-0.00021143093,-0.00010127705,0.00023443566858972575,3.7564132e-05,-5.05575e-05,-0.00014054403,0.0001876365,4.053958892822266,111.540771484375
1779208781.2648256,2.0811867713928223,figure8,1000,1.525902189669642,0.0017022248,0.0011719781,0.0,0.00614015,0.0080757085,5.634129e-05,2.3862347e-05,6.118621465062389e-05,0,0.0061964914,0.008099571,0.03801556,-0.0044758254662156105,0.03226391598582268,-0.6334171295166016,-0.773124635219574,78.7093587161548,0.01459360122680664,73,5.634129e-05,2.3862347e-05,6.118621465062389e-05,0.000267065,0.00011548023,0.00029096289251351494,-3.4431367e-05,5.0578983e-05,0.00016553288,-0.000239287,4.053958892822266,111.56803131103516
1779208781.3460674,2.162428617477417,figure8,1000,1.525902189669642,0.0003866513,0.000114861105,0.0,0.00614015,0.0080757085,1.4770776e-05,8.987263e-07,1.4798092432300125e-05,0,0.006154921,0.008076607,0.03806414,-0.0045160255394876,0.03147534653544426,-0.6336051225662231,-0.7730028629302979,78.73209119974629,0.004242658615112305,74,1.4770776e-05,8.987263e-07,1.4798092432300125e-05,5.078681e-05,5.6218705e-06,5.109702038090526e-05,-3.767566e-06,1.4310451e-05,1.5437088e-05,-4.8709364e-05,4.053958892822266,111.58626556396484
1779208781.44786,2.26422119140625,figure8,1000,1.525902189669642,-7.1906834e-05,0.0008342474,0.0,0.00614015,0.0080757085,5.8133155e-06,3.1839125e-05,3.236548333606468e-05,0,0.0061459634,0.008107548,0.038034927,-0.004358475096523762,0.03184175491333008,-0.6334258317947388,-0.7731356620788574,78.70798822654857,0.012107610702514648,75,5.8133155e-06,3.1839125e-05,3.236548333606468e-05,6.941096e-06,0.00010275736,0.00010299152698257087,-3.2361084e-05,-5.3361964e-07,0.00010212731,1.3314128e-05,4.053958892822266,111.56920623779297
1779208781.529785,2.3461461067199707,figure8,1000,1.525902189669642,-0.0002359765,-3.4328583e-05,0.0,0.00614015,0.0080757085,-6.068498e-06,7.1786344e-06,9.39997120414315e-06,0,0.0061340816,0.008082887,0.038049262,-0.004839124158024788,0.032944537699222565,-0.6330353021621704,-0.7734065055847168,78.65696392691127,0.005682229995727539,76,-6.068498e-06,7.1786344e-06,9.39997120414315e-06,-3.5486813e-05,-1.1806384e-05,3.7399259305353684e-05,-5.8448477e-06,-7.3618758e-06,-1.8555413e-05,3.2471547e-05,4.053958892822266,111.59423828125
1779208781.6146486,2.4310097694396973,figure8,1000,1.525902189669642,0.000216739,0.000120286495,0.0,0.00614015,0.0080757085,7.599592e-06,8.640811e-06,1.1507276409736017e-05,0,0.0061477497,0.008084349,0.03805099,-0.004454567562788725,0.03176788613200188,-0.6334002614021301,-0.7731591463088989,78.70364245919716,0.01843404769897461,77,7.599592e-06,8.640811e-06,1.1507276409736017e-05,3.202128e-05,-2.1815158e-06,3.20955014068104e-05,-9.962051e-06,5.7597713e-06,4.133197e-06,-3.182826e-05,4.053958892822266,111.59282684326172
1779208781.7161963,2.532557487487793,figure8,1000,1.525902189669642,-8.077637e-05,-0.00028120846,0.0,0.00614015,0.0080757085,-5.4240227e-06,-5.0505623e-06,7.4113562103438785e-06,0,0.006134726,0.008070658,0.03805163,-0.004335206933319569,0.031450338661670685,-0.6335878968238831,-0.7730190753936768,78.72951916674818,0.018241405487060547,78,-5.4240227e-06,-5.0505623e-06,7.4113562103438785e-06,-1.5987609e-05,-4.1898573e-05,4.484522224308858e-05,6.0132406e-06,-4.3323366e-06,-4.421521e-05,7.490601e-06,4.053958892822266,111.56759643554688
1779208781.7799206,2.5962817668914795,figure8,1000,1.525902189669642,-0.001484944,-0.0011005219,0.0,0.00614015,0.0080757085,-5.060248e-05,-2.2187829e-05,5.525315206428941e-05,0,0.0060895476,0.008053521,0.03806371,-0.004308127798140049,0.030926678329706192,-0.6336631178855896,-0.772978663444519,78.73737046287775,0.02087545394897461,79,-5.060248e-05,-2.2187829e-05,5.525315206428941e-05,-0.0002330523,-0.00011348616,0.00025921512477589196,3.1643536e-05,-4.5294568e-05,-0.0001568173,0.00020639965,4.053958892822266,111.56759643554688
1779208781.840975,2.6573362350463867,figure8,1000,1.525902189669642,-0.00028789535,1.6114886e-05,0.0,0.00614015,0.0080757085,-1.6991049e-05,9.778887e-08,1.699133042639585e-05,0,0.006123159,0.008075806,0.038048215,-0.004254457540810108,0.031216580420732498,-0.6334728598594666,-0.7731232047080994,78.71103051352819,0.010560274124145508,80,-1.6991049e-05,9.778887e-08,1.699133042639585e-05,-2.1852029e-05,1.4236568e-05,2.608047296608785e-05,3.230226e-06,-1.6681455e-05,9.683429e-06,2.4216159e-05,4.053958892822266,111.5001449584961
1779208781.9428997,2.759260892868042,figure8,2000,3.051804379339284,0.00030587392,0.00023723845,0.0,0.00614015,0.0080757085,6.996095e-06,5.0337985e-06,8.618844145536616e-06,0,0.006147146,0.008080742,0.038039465,-0.0040801046416163445,0.03064666874706745,-0.6335135102272034,-0.7731137275695801,78.71360436881208,0.010530710220336914,81,6.996095e-06,5.0337985e-06,8.618844145536616e-06,5.5285687e-05,2.4489791e-05,6.0466991614267796e-05,-6.3056796e-06,5.8756177e-06,3.4836332e-05,-4.9423546e-05,4.053958892822266,111.49211883544922
1779208782.024774,2.841135263442993,figure8,2000,3.051804379339284,0.0002638056,0.00047643812,0.0,0.00614015,0.0080757085,1.0211021e-05,1.520291e-05,1.831374913804447e-05,0,0.006150361,0.008090911,0.038049992,-0.004649102687835693,0.03259197622537613,-0.633514404296875,-0.773030161857605,78.72580959010263,0.006674528121948242,82,1.0211021e-05,1.520291e-05,1.831374913804447e-05,4.9950086e-05,5.272799e-05,7.263093166852152e-05,-1.6905837e-05,7.041741e-06,6.147595e-05,-3.8677634e-05,4.053958892822266,111.47701263427734
1779208782.12743,2.943791151046753,figure8,2000,3.051804379339284,0.00059184595,0.00093491666,0.0,0.00614015,0.0080757085,2.9297546e-05,3.340654e-05,4.4433581145640955e-05,0,0.0061694477,0.008109115,0.038023375,-0.004467823542654514,0.031987279653549194,-0.6333343982696533,-0.77320396900177,78.69528897665768,0.012552976608276367,83,2.9297546e-05,3.340654e-05,4.4433581145640955e-05,9.4131305e-05,9.333896e-05,0.0001325626797133907,-3.850151e-05,2.2180555e-05,0.00010998031,-7.400809e-05,4.053958892822266,111.51895141601562
1779208782.209016,3.0253772735595703,figure8,3000,4.577706569008926,-0.00035911053,0.00016927395,0.0,0.00614015,0.0080757085,-6.4391643e-06,1.729466e-05,1.8454487299782977e-05,0,0.006133711,0.008093003,0.0380367,-0.004315292462706566,0.031700801104307175,-0.6334576606750488,-0.7731156349182129,78.71183073877009,0.0023648738861083984,84,-6.4391643e-06,1.729466e-05,1.8454487299782977e-05,-5.0927527e-05,1.2669272e-05,5.2479744624468954e-05,-1.5699672e-05,-9.699919e-06,2.4554456e-06,5.2422267e-05,4.053958892822266,111.51895141601562
1779208782.3131642,3.1295254230499268,figure8,3000,4.577706569008926,0.00027557265,-8.959389e-05,0.0,0.00614015,0.0080757085,1.24480575e-05,3.600493e-06,1.295830543554504e-05,0,0.006152598,0.008079309,0.038051013,-0.004084996413439512,0.030680514872074127,-0.6334390640258789,-0.7731733322143555,78.70277287869301,0.014063835144042969,85,1.24480575e-05,3.600493e-06,1.295830543554504e-05,2.5640256e-05,-3.5569436e-05,4.3847547327217086e-05,-5.9692884e-06,1.1501534e-05,-2.9857354e-05,-3.211146e-05,4.053958892822266,111.52991485595703
1779208782.394498,3.2108592987060547,figure8,3000,4.577706569008926,0.0003642073,0.0006220616,0.0,0.00614015,0.0080757085,2.2560358e-05,2.7552247e-05,3.5610336597581316e-05,0,0.0061627105,0.008103261,0.03802974,-0.004343037959188223,0.031474482268095016,-0.6334123611450195,-0.7731618881225586,78.70363688207203,0.002714395523071289,86,2.2560358e-05,2.7552247e-05,3.5610336597581316e-05,5.0679966e-05,5.2629126e-05,7.306355858393636e-05,-3.1437692e-05,1.6726257e-05,6.1536935e-05,-3.938895e-05,4.053958892822266,111.50495147705078
1779208782.49693,3.313291072845459,figure8,4000,6.103608758678568,-0.0010206017,-0.0007870012,0.0,0.00614015,0.0080757085,-3.644824e-05,-1.1516735e-05,3.822446148276189e-05,0,0.006103702,0.008064192,0.038036905,-0.004212527070194483,0.031270213425159454,-0.6334100961685181,-0.7731727361679077,78.70209843885893,0.013698101043701172,87,-3.644824e-05,-1.1516735e-05,3.822446148276189e-05,-0.00015810473,-9.132738e-05,0.00018258640351081072,1.8434144e-05,-3.3485696e-05,-0.00012053196,0.00013714896,4.053958892822266,111.49598693847656
1779208782.599876,3.4162371158599854,figure8,4000,6.103608758678568,0.0006024941,0.0005270319,0.0,0.00614015,0.0080757085,2.861768e-05,2.21394e-05,3.618182674372131e-05,0,0.006168768,0.008097848,0.038050808,-0.004622107371687889,0.032460808753967285,-0.6334404945373535,-0.7730964422225952,78.71400267705695,0.01510310173034668,88,2.861768e-05,2.21394e-05,3.618182674372131e-05,8.156204e-05,3.550689e-05,8.895563409955092e-05,-2.7311944e-05,2.3731463e-05,5.0782495e-05,-7.30359e-05,4.053958892822266,111.52967071533203
1779208782.681086,3.4974472522735596,figure8,4000,6.103608758678568,0.0004071735,0.0006066082,0.0,0.00614015,0.0080757085,2.6725233e-05,2.8135255e-05,3.880503280950395e-05,0,0.0061668754,0.008103844,0.038036764,-0.004208903759717941,0.03127678483724594,-0.633357048034668,-0.7732159495353699,78.69427763014029,0.01409292221069336,89,2.6725233e-05,2.8135255e-05,3.880503280950395e-05,5.0188388e-05,4.67321e-05,6.857669802449978e-05,-3.282862e-05,2.0690883e-05,5.5664404e-05,-4.0052935e-05,4.053958892822266,111.53939056396484
1779208782.7644887,3.5808498859405518,figure8,5000,7.629510948348211,0.00030512494,-0.00039463193,0.0,0.00614015,0.0080757085,1.8356368e-05,-5.6279823e-06,1.91997508248202e-05,0,0.0061585065,0.008070081,0.03800559,-0.0038709931541234255,0.030678419396281242,-0.6334264278411865,-0.7731848359107971,78.70104901704255,0.006086826324462891,90,1.8356368e-05,-5.6279823e-06,1.91997508248202e-05,7.665571e-06,-7.8097204e-05,7.847250577487157e-05,1.9223721e-06,1.910327e-05,-7.508164e-05,-2.2818444e-05,4.053958892822266,111.50350952148438
1779208782.8470743,3.663435459136963,figure8,5000,7.629510948348211,-0.0011666343,-0.00061434647,0.0,0.00614015,0.0080757085,-3.3410266e-05,-7.209368e-06,3.4179245945265814e-05,0,0.00610674,0.008068499,0.038030133,-0.003891672706231475,0.030215062201023102,-0.6336910724639893,-0.7729861736297607,78.73740266017754,0.007523298263549805,91,-3.3410266e-05,-7.209368e-06,3.4179245945265814e-05,-0.0001860101,-6.0514263e-05,0.00019560607125947038,1.3595756e-05,-3.135883e-05,-9.567778e-05,0.00017060919,4.048680305480957,111.4676284790039
1779208782.9290233,3.745384454727173,figure8,5000,7.629510948348211,0.00091263885,0.00036493962,0.0,0.00614015,0.0080757085,3.133528e-05,8.150935e-06,3.2378040828592664e-05,0,0.0061714854,0.008083859,0.038019683,-0.004471107851713896,0.03176994249224663,-0.6334015130996704,-0.7731580138206482,78.70382922474226,0.015002250671386719,92,3.133528e-05,8.150935e-06,3.2378040828592664e-05,0.00013061814,1.951847e-05,0.0001320684191848918,-1.41310065e-05,2.9131636e-05,4.472591e-05,-0.0001242645,4.048680305480957,111.44408416748047
1779208783.012453,3.8288142681121826,figure8,6000,9.155413138017853,7.364385e-05,0.00016710219,0.0,0.00614015,0.0080757085,8.502975e-06,8.136965e-06,1.1769060547639109e-05,0,0.006148653,0.0080838455,0.038027782,-0.004411257803440094,0.03188791871070862,-0.633311927318573,-0.7732268571853638,78.69135738119168,0.020098209381103516,93,8.502975e-06,8.136965e-06,1.1769060547639109e-05,3.9904116e-06,1.3609428e-05,1.4182380275645992e-05,-9.64637e-06,6.74228e-06,1.4127698e-05,-1.2442101e-06,4.048680305480957,111.44408416748047
1779208783.0732965,3.889657735824585,figure8,6000,9.155413138017853,-0.0009579202,-0.00079691666,0.0,0.00614015,0.0080757085,-3.0644238e-05,-1.5564263e-05,3.437027043642825e-05,0,0.006109506,0.008060144,0.03805039,-0.004085486754775047,0.030712967738509178,-0.6335321068763733,-0.7730957865715027,78.71677155522462,0.007801532745361328,94,-3.0644238e-05,-1.5564263e-05,3.437027043642825e-05,-0.00015777742,-8.768908e-05,0.0001805078619548504,2.125926e-05,-2.7006656e-05,-0.00011686481,0.00013757074,4.048680305480957,111.44213104248047
1779208783.2771468,4.093508005142212,figure8,7000,10.681315327687495,-0.00012289462,-0.00021041172,0.0,0.00614015,0.0080757085,9.52743e-06,5.895272e-07,9.545651324040216e-06,0,0.0061496776,0.008076298,0.038071733,-0.004552795551717281,0.03147531673312187,-0.6334823369979858,-0.7731032371520996,78.71385205636476,0.007561445236206055,95,9.52743e-06,5.895272e-07,9.545651324040216e-06,-5.139437e-05,-3.7637292e-05,6.370201619587531e-05,-2.4427313e-06,9.227812e-06,-4.6967805e-05,4.3034546e-05,4.043401718139648,111.51897430419922
1779208783.361249,4.177610158920288,figure8,8000,12.207217517357137,0.00748696,-0.0013518152,0.0,0.00614015,0.0080757085,0.00024097785,-8.5707754e-05,0.0002557658018372727,0,0.006381128,0.007990001,0.03810078,-0.009617805480957031,0.035084318369627,-0.6330937743186951,-0.7732198238372803,78.67602228682495,0.020020008087158203,96,0.00024097785,-8.5707754e-05,0.0002557658018372727,0.0009331983,-0.00038770688,0.0010105323591700485,3.6721678e-05,0.0002531159,-0.00019691967,-0.0009911602,4.043401718139648,111.56840515136719
1779208783.443224,4.25958514213562,figure8,8000,12.207217517357137,0.02568665,-0.015602762,0.0,0.00614015,0.0080757085,0.00090466626,-0.0008196216,0.001220737723143343,0,0.0070448164,0.007256087,0.038210582,-0.018462710082530975,0.026692386716604233,-0.6329878568649292,-0.7734812498092651,78.60093129089677,0.0002372264862060547,97,0.00090466626,-0.0008196216,0.001220737723143343,0.0026099102,-0.0024351035,0.003569504234299945,0.0006246546,0.0010488123,-0.0018712434,-0.0030397053,4.043401718139648,111.55396270751953
1779208783.5452347,4.361595869064331,figure8,9000,13.733119707026779,0.020638298,-0.013038527,0.0,0.00614015,0.0080757085,0.000884396,-0.0008251625,0.0012095658547842706,0,0.007024546,0.007250546,0.038230076,-0.018543202430009842,0.026881052181124687,-0.6328975558280945,-0.773546576499939,78.58842613212904,0.009572029113769531,98,0.000884396,-0.0008251625,0.0012095658547842706,0.0017613205,-0.0017225088,0.0024635921797450354,0.0006338676,0.0010301755,-0.0013399703,-0.0020673089,4.03812313079834,111.58979797363281
1779208783.646933,4.463294267654419,figure8,9000,13.733119707026779,0.021054363,-0.013327283,0.0,0.00614015,0.0080757085,0.000998754,-0.000938721,0.001370659266799837,0,0.007138904,0.0071369875,0.038240712,-0.02018490433692932,0.025955326855182648,-0.6326904296875,-0.7737064361572266,78.55149103096336,0.017942190170288086,99,0.000998754,-0.000938721,0.001370659266799837,0.0016005237,-0.0015707854,0.0022425527347202097,0.00072180387,0.0011652064,-0.0012218489,-0.0018804597,4.03812313079834,111.60498809814453
1779208783.7284567,4.544817924499512,figure8,10000,15.259021896696423,0.018217936,-0.011185693,0.0,0.00614015,0.0080757085,0.0010004444,-0.0009271917,0.0013640284262705063,0,0.0071405945,0.007148517,0.038263362,-0.02058849297463894,0.026829058304429054,-0.6326310634613037,-0.7737146019935608,78.54664851832003,0.008051156997680664,100,0.0010004444,-0.0009271917,0.0013640284262705063,0.0011259139,-0.0010617136,0.001547552205418785,0.0007100699,0.0011646347,-0.0008169986,-0.0013143178,4.032844543457031,111.59041595458984
1779208783.8308315,4.647192716598511,figure8,10000,15.259021896696423,0.016469484,-0.010333497,0.0,0.00614015,0.0080757085,0.0010064654,-0.00094355503,0.001379590025906373,0,0.0071466155,0.0071321535,0.03825505,-0.020344723016023636,0.025822149589657784,-0.6327975988388062,-0.7736191153526306,78.56657744115424,0.008840799331665039,101,0.0010064654,-0.00094355503,0.001379590025906373,0.0008059209,-0.0007915235,0.001129609665788497,0.0007253201,0.0011735329,-0.0006160593,-0.000946831,4.032844543457031,111.64360046386719
1779208783.9117684,4.728129625320435,figure8,10000,15.259021896696423,0.015203979,-0.009625578,0.0,0.00614015,0.0080757085,0.0010103974,-0.00095209247,0.0013883021940856947,0,0.0071505476,0.007123616,0.038248025,-0.020734386518597603,0.02695433609187603,-0.6328227519989014,-0.7735495567321777,78.57556537647865,0.007232666015625,102,0.0010103974,-0.00095209247,0.0013883021940856947,0.0005784352,-0.00058509473,0.0008227533958740166,0.0007330936,0.0011789643,-0.0004589284,-0.0006828674,4.032844543457031,111.64360046386719
1779208783.9931703,4.8095314502716064,figure8,10000,15.259021896696423,0.01414506,-0.00850119,0.0,0.00614015,0.0080757085,0.0010119956,-0.00093812356,0.0013799314751433795,0,0.0071521457,0.007137585,0.03826095,-0.02076686918735504,0.026739997789263725,-0.6327211856842041,-0.7736393213272095,78.55938526517014,0.016650915145874023,103,0.0010119956,-0.00093812356,0.0013799314751433795,0.0004115651,-0.00035134924,0.0005411396421778094,0.0007187523,0.0011779668,-0.00026273337,-0.00047307851,4.032844543457031,111.6456069946289
1779208784.074957,4.891318082809448,figure8,11000,16.784924086366065,0.012911085,-0.008593719,0.0,0.00614015,0.0080757085,0.0009900313,-0.00095167663,0.0013732627031268789,0,0.0071301814,0.007124032,0.038254745,-0.020691819489002228,0.02669420652091503,-0.6323757171630859,-0.773925244808197,78.50800805993727,0.016210079193115234,104,0.0009900313,-0.00095167663,0.0013732627031268789,0.0002079606,-0.00029539168,0.00036125318505945807,0.0007353531,0.0011597872,-0.00024803766,-0.0002626427,4.032844543457031,111.6084213256836
1779208784.1369812,4.953342437744141,figure8,11000,16.784924086366065,0.012409975,-0.0074179037,0.0,0.00614015,0.0080757085,0.0009921752,-0.00092526386,0.0013566594538946708,0,0.0071323253,0.0071504447,0.03826757,-0.020889610052108765,0.026733655482530594,-0.6328345537185669,-0.7735433578491211,78.57604127668382,0.007175922393798828,105,0.0009921752,-0.00092526386,0.0013566594538946708,0.00015462372,-9.5262796e-05,0.00018161358228383376,0.00071041554,0.0011557831,-6.2749605e-05,-0.00017042882,4.032844543457031,111.5714340209961
1779208784.2209482,5.037309408187866,figure8,11000,16.784924086366065,0.013221566,-0.007440394,0.0,0.00614015,0.0080757085,0.0010280516,-0.0009368835,0.0013909136385208472,0,0.0071682017,0.007138825,0.038280766,-0.020618384703993797,0.026313018053770065,-0.6326987147331238,-0.7736761569976807,78.5540604035644,0.009658098220825195,106,0.0010280516,-0.0009368835,0.0013909136385208472,0.00024032165,-0.00010946364,0.000264077233466582,0.0007142412,0.0011935242,-5.9596456e-05,-0.00025726453,4.027565956115723,111.62184143066406
1779208784.327762,5.144123077392578,figure8,11000,16.784924086366065,0.012576704,-0.007029664,0.0,0.00614015,0.0080757085,0.0010205675,-0.00092254113,0.0013757325529047252,0,0.0071607176,0.0071531674,0.03826376,-0.020703032612800598,0.026576953008770943,-0.6326618790626526,-0.7736949920654297,78.54983170861324,0.01960921287536621,107,0.0010205675,-0.00092254113,0.0013757325529047252,0.00014504557,-3.220376e-05,0.00014857758851978146,0.0007015819,0.0011833946,-2.769022e-06,-0.00014855179,4.027565956115723,111.61873626708984
1779208784.409506,5.22586727142334,figure8,11000,16.784924086366065,0.013032359,-0.0072471676,0.0,0.00614015,0.0080757085,0.0010441169,-0.00093609607,0.0014023038227715477,0,0.007184267,0.0071396125,0.038264837,-0.020941033959388733,0.027237776666879654,-0.6325152516365051,-0.7737855315208435,78.53121040831583,0.008962154388427734,108,0.0010441169,-0.00093609607,0.0014023038227715477,0.0001779983,-6.655633e-05,0.00019003457355374774,0.0007097991,0.001209397,-2.9835275e-05,-0.00018767791,4.027565956115723,111.61873626708984
1779208784.4922552,5.308616399765015,figure8,12000,18.310826276035705,0.011436346,-0.007443599,0.0,0.00614015,0.0080757085,0.0009973533,-0.0009350339,0.0013671145023182948,0,0.0071375035,0.0071406746,0.038278904,-0.020763317123055458,0.026503911241889,-0.6327470541000366,-0.7736262083053589,78.56203602039174,0.010470390319824219,109,0.0009973533,-0.0009350339,0.0013671145023182948,-4.8086033e-05,-4.2667118e-05,6.428646244682239e-05,0.00071868213,0.0011629695,-5.1355535e-05,3.866986e-05,4.027565956115723,111.61529541015625
1779208784.6003706,5.416731834411621,figure8,12000,18.310826276035705,0.011975891,-0.0072777728,0.0,0.00614015,0.0080757085,0.001017089,-0.0009354069,0.001381830727480824,0,0.007157239,0.0071403016,0.038291,-0.021162113174796104,0.027385419234633446,-0.6326903700828552,-0.7736310958862305,78.55771435099614,0.017034053802490234,110,0.001017089,-0.0009354069,0.001381830727480824,2.4642035e-05,-3.0968866e-05,3.9576513523744376e-05,0.00071504485,0.0011824411,-2.5464855e-05,-3.0295902e-05,4.022287368774414,111.59772491455078
1779208784.6828067,5.4991679191589355,figure8,12000,18.310826276035705,0.011597847,-0.00765631,0.0,0.00614015,0.0080757085,0.0010024328,-0.0009477162,0.0013795062162065166,0,0.007142583,0.0071279923,0.038281363,-0.020979121327400208,0.027103716507554054,-0.632518470287323,-0.7737866044044495,78.53096160866178,0.017032623291015625,111,0.0010024328,-0.0009477162,0.0013795062162065166,-3.6086334e-05,-6.647319e-05,7.563669135940754e-05,0.0007294704,0.0011708589,-7.232122e-05,2.2148353e-05,4.027565956115723,111.6070785522461
1779208784.7851985,5.601559638977051,figure8,12000,18.310826276035705,0.012554699,-0.0069486937,0.0,0.00614015,0.0080757085,0.0010444745,-0.000931093,0.0013992359652424398,0,0.0071846247,0.0071446155,0.03826728,-0.020779943093657494,0.02617623470723629,-0.6326282620429993,-0.7737340927124023,78.54277858031186,0.015329599380493164,112,0.0010444745,-0.000931093,0.0013992359652424398,9.590351e-05,1.3765966e-06,9.591338878456544e-05,0.0007050689,0.0012086104,2.0399078e-05,-9.371902e-05,4.022287368774414,111.59481048583984
1779208784.8668091,5.683170318603516,figure8,13000,19.83672846570535,0.012450395,-0.006898539,0.0,0.00614015,0.0080757085,0.0010463959,-0.00092840753,0.001398887037564359,0,0.007186546,0.007147301,0.03827266,-0.02112310379743576,0.02743939496576786,-0.6325549483299255,-0.7737410068511963,78.53795249803582,0.0057430267333984375,113,0.0010463959,-0.00092840753,0.001398887037564359,7.345277e-05,9.797663e-06,7.410333228725647e-05,0.0007019533,0.0012100191,2.4198709e-05,-7.0040885e-05,4.022287368774414,111.58679962158203
1779208784.9482677,5.764628887176514,figure8,14000,21.36263065537499,0.011605542,-0.0067758597,0.0,0.00614015,0.0080757085,0.0010214131,-0.00091769453,0.001373116164202362,0,0.0071615633,0.007158014,0.038297683,-0.020908622071146965,0.02699930965900421,-0.6324166059494019,-0.7738754153251648,78.51539752910686,0.0033936500549316406,114,0.0010214131,-0.00091769453,0.001373116164202362,-3.8011563e-05,4.5206772e-05,5.906378959783829e-05,0.0006959527,0.0011836799,3.6733378e-05,4.625138e-05,4.0170087814331055,111.5913314819336
1779208785.0560203,5.8723814487457275,figure8,15000,22.888532845044633,0.011562806,-0.0072748535,0.0,0.00614015,0.0080757085,0.0010137223,-0.0009340113,0.0013784084735897028,0,0.0071538724,0.007141697,0.038311064,-0.021210089325904846,0.02750457264482975,-0.6327035427093506,-0.7736148238182068,78.56023742048515,0.00991678237915039,115,0.0010137223,-0.0009340113,0.0013784084735897028,-4.9400463e-05,-1.6711077e-05,5.2150417523960406e-05,0.0007143968,0.001178833,-2.617706e-05,4.510463e-05,4.011730194091797,111.5669937133789
1779208785.1421964,5.958557605743408,figure8,15000,22.888532845044633,0.012152873,-0.007281734,0.0,0.00614015,0.0080757085,0.0010325974,-0.0009398274,0.001396256715675929,0,0.0071727475,0.007135881,0.03829499,-0.02092166617512703,0.02709854207932949,-0.6325395703315735,-0.7737711071968079,78.53412181119484,0.004694938659667969,116,0.0010325974,-0.0009398274,0.001396256715675929,2.737436e-05,-3.0788247e-05,4.119795964119967e-05,0.0007158073,0.0011988131,-2.4732219e-05,-3.294828e-05,4.00117301940918,111.4530258178711
1779208785.223372,6.039733171463013,figure8,16000,24.414435034714273,0.0110710645,-0.0072040246,0.0,0.00614015,0.0080757085,0.0010001501,-0.0009318525,0.0013669855178012628,0,0.0071403002,0.007143856,0.038298655,-0.0209345743060112,0.02680801972746849,-0.6326047778129578,-0.773727536201477,78.54229873718918,0.014075517654418945,117,0.0010001501,-0.0009318525,0.0013669855178012628,-0.00011642101,1.1771928e-05,0.00011701465848642023,0.0007146079,0.0011653261,-1.1589055e-05,0.000116439354,3.995894432067871,111.34243774414062
1779208785.304877,6.1212382316589355,figure8,16000,24.414435034714273,0.01148227,-0.0069840667,0.0,0.00614015,0.0080757085,0.0010097548,-0.0009265002,0.001370404109829872,0,0.007149905,0.0071492083,0.03829546,-0.020917516201734543,0.026313994079828262,-0.6326267123222351,-0.7737269997596741,78.54309419192651,0.013792753219604492,118,0.0010097548,-0.0009265002,0.001370404109829872,-4.626429e-05,2.7872773e-05,5.401181330361033e-05,0.00070747064,0.0011736664,1.8127877e-05,5.087884e-05,3.995894432067871,111.34243774414062
1779208785.3859527,6.2023138999938965,figure8,17000,25.940337224383917,0.011572312,-0.0071859625,0.0,0.00614015,0.0080757085,0.0010088328,-0.00093279406,0.0013739899505765907,0,0.007148983,0.0071429145,0.038312547,-0.02101994678378105,0.027495229616761208,-0.6323797702789307,-0.7738850116729736,78.51237489039796,0.013709068298339844,119,0.0010088328,-0.00093279406,0.0013739899505765907,-3.579315e-05,-3.7539503e-06,3.5989466398919266e-05,0.0007131927,0.0011743954,-1.0807181e-05,3.4328506e-05,3.995894432067871,111.23941040039062
1779208785.4687202,6.285081386566162,figure8,18000,27.466239414053558,0.011556875,-0.007098878,0.0,0.00614015,0.0080757085,0.0010069711,-0.0009295009,0.0013703878498433268,0,0.0071471212,0.0071462076,0.038287047,-0.0208562221378088,0.026108289137482643,-0.6325474977493286,-0.7738003730773926,78.53039490781809,0.003221273422241211,120,0.0010069711,-0.0009295009,0.0013703878498433268,-3.1044292e-05,7.96624e-06,3.2050102894701866e-05,0.00071070483,0.0011716917,1.6340596e-06,3.2008422e-05,3.985337257385254,111.18431854248047
1779208785.5701034,6.386464595794678,figure8,18000,27.466239414053558,0.010564365,-0.007763204,0.0,0.00614015,0.0080757085,0.0009630285,-0.00094625587,0.0013501200171030007,0,0.0071031787,0.0071294527,0.038338624,-0.021362990140914917,0.027343396097421646,-0.6327167749404907,-0.773605465888977,78.56120827246403,0.01133584976196289,121,0.0009630285,-0.00094625587,0.0013501200171030007,-0.00016307304,-4.8316222e-05,0.00017008020107511643,0.00073647173,0.0011315624,-7.969733e-05,0.00015025183,3.9800586700439453,111.1234359741211
1779208785.6514313,6.467792510986328,figure8,18000,27.466239414053558,0.009965873,-0.0059009483,0.0,0.00614015,0.0080757085,0.0009461967,-0.0008795168,0.0012918351601730077,0,0.007086347,0.0071961917,0.038283754,-0.019884463399648666,0.02717939205467701,-0.6323192119598389,-0.7739756107330322,78.50290746262931,0.008915424346923828,122,0.0009461967,-0.0008795168,0.0012918351601730077,-0.0001744453,0.00020524861,0.000269366203312704,0.00067327486,0.0011025148,0.00016636013,0.00021185481,3.9800586700439453,111.05374145507812
1779208785.7345524,6.550913572311401,figure8,18000,27.466239414053558,0.012870481,-0.0074097705,0.0,0.00614015,0.0080757085,0.0010329345,-0.00094588567,0.0014005903842976306,0,0.0071730847,0.007129823,0.038287193,-0.020779283717274666,0.02691490948200226,-0.6323765516281128,-0.7739145159721375,78.50915971161405,0.0002579689025878906,123,0.0010329345,-0.00094588567,0.0014005903842976306,0.00016141149,-7.3268384e-05,0.000177262299549131,0.0007211546,0.0012006621,-3.9644845e-05,-0.00017277214,3.9800586700439453,110.97918701171875
1779208785.8379517,6.6543128490448,figure8,18000,27.466239414053558,0.010207973,-0.0063237026,0.0,0.00614015,0.0080757085,0.0009509735,-0.00088913506,0.001301887745753574,0,0.0070911236,0.0071865735,0.038280275,-0.02001122012734413,0.02751537412405014,-0.632466733455658,-0.7738399505615234,78.52639293012443,0.011121273040771484,124,0.0009509735,-0.00088913506,0.001301887745753574,-0.00015272824,0.00013269662,0.00020232229279968264,0.00068220263,0.0011088332,9.966469e-05,0.00017607173,3.9800586700439453,110.90652465820312
1779208785.9395387,6.755899906158447,figure8,18000,27.466239414053558,0.005886103,-0.0041554896,0.0,0.00614015,0.0080757085,0.00079712085,-0.00076730736,0.0011064186581608766,0,0.006937271,0.007308401,0.03823893,-0.01770821213722229,0.02719547413289547,-0.6328935623168945,-0.773558497428894,78.59025567767621,0.019986391067504883,125,0.00079712085,-0.00076730736,0.0011064186581608766,-0.0006046969,0.00048705877,0.0007764564362255128,0.0005944538,0.0009331596,0.0003578097,0.00068909855,3.9800586700439453,110.9077377319336
1779208786.0013964,6.817757606506348,figure8,18000,27.466239414053558,-1.5184749e-05,-0.0007941872,0.0,0.00614015,0.0080757085,0.0005846331,-0.000584221,0.0008265046812517377,0,0.006724783,0.0074914875,0.03826732,-0.014510019682347775,0.031140778213739395,-0.6327036023139954,-0.7736315727233887,78.58748817866764,0.0001583099365234375,126,0.0005846331,-0.000584221,0.0008265046812517377,-0.0012036725,0.001013346,0.0015734349545794032,0.00045698762,0.0006886744,0.00075513776,0.0013803857,3.9800586700439453,110.9077377319336
1779208786.0830286,6.899389743804932,figure8,19000,28.9921416037232,0.0035768398,-0.0024466163,0.0,0.00614015,0.0080757085,0.000633467,-0.00061254576,0.0008811882305705661,0,0.006773617,0.0074631628,0.038269594,-0.015167325735092163,0.0314454585313797,-0.6331053972244263,-0.7732779383659363,78.64830134054274,0.0007143020629882812,127,0.000633467,-0.00061254576,0.0008811882305705661,-0.0006618743,0.0006045341,0.0008964034139867785,0.0004758769,0.00074164267,0.0004624306,0.0007679174,3.9800586700439453,110.91008758544922
1779208786.1659029,6.982264041900635,figure8,19000,28.9921416037232,0.000109530985,-0.0012201322,0.0,0.00614015,0.0080757085,0.0004860144,-0.0005133813,0.0007069444166049001,0,0.0066261645,0.007562327,0.03829626,-0.01402354147285223,0.0328797921538353,-0.6329094767570496,-0.7734001874923706,78.62944124772046,0.0009591579437255859,128,0.0004860144,-0.0005133813,0.0007069444166049001,-0.0009986633,0.00078320695,0.0012691498644759687,0.00040748552,0.0005776902,0.0005709446,0.0011334742,3.969501495361328,110.92560577392578
1779208786.247474,7.063835144042969,figure8,19000,28.9921416037232,-0.0010483447,0.0014721772,0.0,0.00614015,0.0080757085,0.0004122071,-0.00037147664,0.0005548960023227524,0,0.006552357,0.007704232,0.038252655,-0.012592372484505177,0.032105952501297,-0.6329836249351501,-0.7733966708183289,78.636881149303,0.0013928413391113281,129,0.0004122071,-0.00037147664,0.0005548960023227524,-0.00097196177,0.0010729276,0.0014477165629056057,0.00028297937,0.00047731775,0.0008603942,0.0011643044,3.969501495361328,110.87039947509766
1779208786.3295698,7.145931005477905,figure8,20000,30.518043793392845,0.00350476,-0.00254184,0.0,0.00614015,0.0080757085,0.0004904177,-0.000485457,0.0006900565620015752,0,0.006630568,0.0075902515,0.03827395,-0.012746763415634632,0.03314599394798279,-0.6326804161071777,-0.773598313331604,78.59847902106164,0.0014958381652832031,130,0.0004904177,-0.000485457,0.0006900565620015752,-0.00039421194,0.00033401162,0.0005166883218946899,0.00037892954,0.00057670654,0.00024949107,0.00045246107,3.958944320678711,110.84194946289062
1779208786.4320748,7.248435974121094,figure8,21000,32.043945983062486,0.0053532114,-0.0038810465,0.0,0.00614015,0.0080757085,0.0005271286,-0.0005302001,0.0007476474398169612,0,0.0066672787,0.0075455084,0.038253836,-0.014112930744886398,0.03266115486621857,-0.6331599950790405,-0.7732027173042297,78.6651027964537,0.011368274688720703,131,0.0005271286,-0.0005302001,0.0007476474398169612,-0.0001570564,8.890311e-05,0.0001804729234371505,0.00041625497,0.0006210543,5.630067e-05,0.00017146635,3.9483871459960938,110.79546356201172
1779208786.5138612,7.3302223682403564,figure8,22000,33.56984817273213,-0.00501952,0.005130838,0.0,0.00614015,0.0080757085,0.00019944087,-0.00011254288,0.00022900340333724325,0,0.006339591,0.007963166,0.038161114,-0.00936021376401186,0.03386823460459709,-0.6331629753112793,-0.7732206583023071,78.67812601896966,0.0014383792877197266,132,0.00019944087,-0.00011254288,0.00022900340333724325,-0.0011817918,0.0014283708,0.0018538810578390648,7.119845e-05,0.00021765419,0.0011685645,0.0014392124,3.9536657333374023,110.77449035644531
1779208786.6155202,7.431881427764893,figure8,22000,33.56984817273213,-0.0046287323,0.0035686898,0.0,0.00614015,0.0080757085,0.00013066083,-9.1018155e-05,0.00015923742569629859,0,0.006270811,0.00798469,0.038193665,-0.009024368599057198,0.03551735356450081,-0.6333250999450684,-0.7730177044868469,78.7139826823065,0.0010645389556884766,133,0.00013066083,-9.1018155e-05,0.00015923742569629859,-0.0010294832,0.0010631471,0.0014799045093532104,6.368687e-05,0.00014594704,0.00084111164,0.0012176406,3.943108558654785,110.70426940917969
1779208786.6990812,7.515442371368408,figure8,22000,33.56984817273213,-0.004523068,0.0025844027,0.0,0.00614015,0.0080757085,7.8160316e-05,-7.1300194e-05,0.00010579580569478632,0,0.0062183104,0.008004408,0.038124442,-0.006038248538970947,0.03273250535130501,-0.633094072341919,-0.773358941078186,78.66325454277046,0.013370752334594727,134,7.8160316e-05,-7.1300194e-05,0.00010579580569478632,-0.00094167836,0.00082722044,0.0012534160624157738,5.4544675e-05,9.065115e-05,0.0006259699,0.001085916,3.943108558654785,110.70426940917969
1779208786.7820907,7.598451852798462,figure8,22000,33.56984817273213,0.004985084,-0.0013211644,0.0,0.00614015,0.0080757085,0.00035011955,-0.00024112128,0.0004251154697928073,0,0.0064902697,0.007834587,0.038223542,-0.011435801163315773,0.033784836530685425,-0.6329292058944702,-0.773387610912323,78.64090384594964,0.004126071929931641,135,0.00035011955,-0.00024112128,0.0004251154697928073,0.0002252055,2.6815513e-05,0.00022679636262144803,0.00016743953,0.00039075204,7.064616e-05,-0.00021551266,3.943108558654785,110.6343002319336
1779208786.967217,7.783578157424927,figure8,22000,33.56984817273213,0.0133748,-0.008445546,0.0,0.00614015,0.0080757085,0.0007359162,-0.0007076082,0.0010209221640752801,0,0.0068760663,0.0073681003,0.0382695,-0.015667768195271492,0.030198266729712486,-0.6321611404418945,-0.7740896940231323,78.50029789292233,0.01256251335144043,136,0.0007359162,-0.0007076082,0.0010209221640752801,0.00081268424,-0.00077327277,0.0011217871580432854,0.00054668915,0.000862214,-0.00059573085,-0.00095053203,3.943108558654785,110.63621520996094
1779208786.987734,7.804095268249512,figure8,22000,33.56984817273213,-0.047723778,0.034209486,0.0,0.00614015,0.0080757085,0.0001862701,-0.00013168808,0.00022811905346979846,0,0.00632642,0.00794402,0.03822144,-0.009031765162944794,0.03517921268939972,-0.6331417560577393,-0.773183286190033,78.68437381164505,0.014672517776489258,137,0.0001862701,-0.00013168808,0.00022811905346979846,-0.008389283,0.008845085,0.01219079965045164,9.25795e-05,0.00020848823,0.007027056,0.009961732,3.943108558654785,110.63621520996094
1779208787.0722241,7.888585329055786,figure8,22000,33.56984817273213,-0.022187827,0.016449189,0.0,0.00614015,0.0080757085,0.00050409697,-0.0004540654,0.000678446113908866,0,0.006644247,0.007621643,0.038260795,-0.013016531243920326,0.031411901116371155,-0.6327592134475708,-0.7736018300056458,78.59884534273962,0.01729273796081543,138,0.00050409697,-0.0004540654,0.000678446113908866,-0.004707868,0.0050102556,0.006875077238380523,0.00034545697,0.000583908,0.0039807516,0.0056053814,3.943108558654785,110.58267211914062
1779208787.1753104,7.991671562194824,figure8,22000,33.56984817273213,-0.012917513,0.010817086,0.0,0.00614015,0.0080757085,0.00054229796,-0.00044670142,0.0007025875146381249,0,0.006682448,0.007629007,0.03823902,-0.012076053768396378,0.03315930813550949,-0.6320010423660278,-0.7741636633872986,78.4985314364435,0.016813278198242188,139,0.00054229796,-0.00044670142,0.0007025875146381249,-0.0031848506,0.0035285102,0.004753278496733245,0.00032960103,0.0006204776,0.0028226194,0.003824458,3.943108558654785,110.50759887695312
1779208787.257098,8.073459148406982,figure8,22000,33.56984817273213,-0.008912863,0.009417952,0.0,0.00614015,0.0080757085,0.0004996341,-0.0003281138,0.0005977397945287628,0,0.006639784,0.0077475947,0.038198486,-0.011227474547922611,0.03554409742355347,-0.6316447854042053,-0.7743613123893738,78.46287463363967,0.006985664367675781,140,0.0004996341,-0.0003281138,0.0005977397945287628,-0.002369101,0.0028582802,0.003712466093329689,0.00022155614,0.0005551628,0.0023267027,0.0028928982,3.9378299713134766,110.42522430419922
1779208787.3386483,8.155009508132935,figure8,22000,33.56984817273213,-0.008054949,0.007976673,0.0,0.00614015,0.0080757085,0.00040316768,-0.00024091825,0.00046966561470288866,0,0.006543318,0.00783479,0.03816679,-0.009436974301934242,0.03480906784534454,-0.6314268708229065,-0.7745962738990784,78.42723858317424,0.01728367805480957,141,0.00040316768,-0.00024091825,0.00046966561470288866,-0.0020645314,0.0023679233,0.0031415522967904053,0.0001551402,0.0004433027,0.0019056149,0.0024975953,3.9378299713134766,110.44438171386719
1779208787.4287882,8.245149374008179,figure8,22000,33.56984817273213,0.011797891,-0.0070868544,0.0,0.00614015,0.0080757085,0.00089030433,-0.0007972671,0.0011951052751759752,0,0.0070304545,0.0072784415,0.03821971,-0.015356657095253468,0.02867111563682556,-0.6310469508171082,-0.7750625610351562,78.32687616011057,0.020876169204711914,142,0.00089030433,-0.0007972671,0.0011951052751759752,0.00024339464,-0.00027093105,0.00036420404565284703,0.00060064445,0.0010332003,-0.00021608207,-0.0002931776,3.943108558654785,110.50985717773438
1779208787.4901602,8.30652141571045,figure8,23000,35.09575036240177,0.0031730891,0.0011577383,0.0,0.00614015,0.0080757085,0.0006816834,-0.0004911274,0.0008401776009067944,0,0.0068218336,0.007584581,0.03819059,-0.01156818587332964,0.034093812108039856,-0.6305491924285889,-0.7753139138221741,78.29031017021445,0.009922504425048828,143,0.0006816834,-0.0004911274,0.0008401776009067944,-0.00069496315,0.001080186,0.0012844359230978588,0.00034255665,0.0007671723,0.00091666094,0.0008997268,3.943108558654785,110.50985717773438
1779208787.5522642,8.368625402450562,figure8,24000,36.62165255207141,-0.0014586234,0.0053938804,0.0,0.00614015,0.0080757085,0.00052927807,-0.00027445704,0.0005962063098152269,0,0.006669428,0.0078012515,0.038128257,-0.007974590174853802,0.03522937372326851,-0.6305093765258789,-0.7753406763076782,78.2958341109422,0.00046372413635253906,144,0.00052927807,-0.00027445704,0.0005962063098152269,-0.0011253763,0.0016644392,0.0020091862838228602,0.00016138199,0.00057394925,0.0014015401,0.0014396232,3.932551383972168,110.4789047241211
1779208787.654355,8.47071623802185,figure8,24000,36.62165255207141,0.013026808,-0.0042728847,0.0,0.00614015,0.0080757085,0.0009343084,-0.000658317,0.0011429406717960884,0,0.0070744585,0.0074173915,0.03813578,-0.011285996995866299,0.034031882882118225,-0.6289640069007874,-0.7766072154045105,78.05585578244221,0.00845193862915039,145,0.0009343084,-0.000658317,0.0011429406717960884,0.00050347694,-5.8641657e-05,0.0005068805345518803,0.00045070171,0.0010503244,4.6826543e-05,-0.0005047129,3.921994209289551,110.46615600585938
1779208787.756991,8.573352098464966,figure8,25000,38.147554741741054,0.008239348,-0.00034170575,0.0,0.00614015,0.0080757085,0.0008158665,-0.00047748908,0.0009453221798247993,0,0.0069560166,0.0075982194,0.03812788,-0.00904027558863163,0.035115789622068405,-0.6291373372077942,-0.7764478921890259,78.09117816908179,0.019002676010131836,146,0.0008158665,-0.00047748908,0.0009453221798247993,-3.3432676e-05,0.00054806203,0.0005490808087258662,0.0002988542,0.000896839,0.00052936724,0.00014580836,3.921994209289551,110.41552734375
1779208787.8391943,8.655555486679077,figure8,25000,38.147554741741054,0.012356229,-0.004055517,0.0,0.00614015,0.0080757085,0.0009376062,-0.0006170394,0.0011224272692839752,0,0.0070777563,0.007458669,0.03815276,-0.01082600001245737,0.03274237737059593,-0.6288366913795471,-0.7767722010612488,78.029011360931,0.009317159652709961,147,0.0009376062,-0.0006170394,0.0011224272692839752,0.00037405433,-7.196213e-05,0.00038091363831576036,0.0004091456,0.0010451999,7.1878458e-06,-0.00038084583,3.9114370346069336,110.37092590332031
1779208787.9407544,8.757115602493286,figure8,25000,38.147554741741054,0.0022161407,0.0010788715,0.0,0.00614015,0.0080757085,0.00062237866,-0.00035018567,0.0007141324600787516,0,0.006762529,0.007725523,0.038096033,-0.00529065728187561,0.03390903398394585,-0.6293301582336426,-0.7763799428939819,78.11488209447548,0.018923282623291016,148,0.00062237866,-0.00035018567,0.0007141324600787516,-0.00076659216,0.0008202371,0.0011226986845465125,0.00021449967,0.00068115717,0.00064477365,0.0009190862,3.9114370346069336,110.27114868164062
1779208788.0238838,8.840245008468628,figure8,25000,38.147554741741054,0.003620318,0.0015024026,0.0,0.00614015,0.0080757085,0.0006343359,-0.00029793056,0.0007008171278802983,0,0.006774486,0.007777778,0.038101222,-0.006298236083239317,0.03430424630641937,-0.6296112537384033,-0.7761271595954895,78.15819816724627,0.008291006088256836,149,0.0006343359,-0.00029793056,0.0007008171278802983,-0.00049835606,0.0007413615,0.0008932948251685935,0.00016141779,0.0006819743,0.0006233161,0.00063988497,3.9114370346069336,110.21937561035156
1779208788.1082554,8.924616575241089,figure8,25000,38.147554741741054,0.015518362,-0.006463142,0.0,0.00614015,0.0080757085,0.0009869523,-0.0006467253,0.0011799697510072845,0,0.0071271025,0.007428983,0.03815359,-0.011844513937830925,0.032279033213853836,-0.6291263103485107,-0.7765422463417053,78.0678037718867,0.000217437744140625,150,0.0009869523,-0.0006467253,0.0011799697510072845,0.0007954503,-0.0006129446,0.0010042122626006975,0.00042869514,0.0010993403,-0.00043523812,-0.00090499176,3.9114370346069336,110.21937561035156
1779208788.312401,9.128762245178223,figure8,25000,38.147554741741054,0.008448067,-0.0011480034,0.0,0.00614015,0.0080757085,0.00073101744,-0.00032809982,0.0008012714981123283,0,0.0068711676,0.0077476087,0.0381283,-0.00693145114928484,0.033882685005664825,-0.6295487284660339,-0.7761909365653992,78.14548161629999,0.01820087432861328,151,0.00073101744,-0.00032809982,0.0008012714981123283,0.00014437668,8.4403e-05,0.00016723782922160963,0.00017093125,0.00078282726,0.000112261805,-0.00012395877,3.9114370346069336,110.25798034667969
1779208788.3760762,9.192437410354614,figure8,25000,38.147554741741054,0.007790241,-0.0012294633,0.0,0.00614015,0.0080757085,0.0007165149,-0.00032225205,0.0007856461977518697,0,0.006856665,0.0077534565,0.03809186,-0.006764743942767382,0.034588366746902466,-0.6293779611587524,-0.7762997150421143,78.1252634041522,0.00934600830078125,152,0.0007165149,-0.00032225205,0.0007856461977518697,4.1077947e-05,8.326977e-05,9.285069820208868e-05,0.00016791657,0.000767492,8.99405e-05,-2.3064224e-05,3.9114370346069336,110.24861907958984
1779208788.4600725,9.27643370628357,figure8,25000,38.147554741741054,0.019272566,-0.010805931,0.0,0.00614015,0.0080757085,0.0010610614,-0.0007521636,0.0013006157653982764,0,0.0072012115,0.007323545,0.038185753,-0.013580834493041039,0.030988238751888275,-0.6292545199394226,-0.7764625549316406,78.077013969024,0.005296945571899414,153,0.0010610614,-0.0007521636,0.0013006157653982764,0.0012027399,-0.0014065637,0.0018506768238983004,0.0005167247,0.0011935647,-0.0011277366,-0.0014673837,3.9114370346069336,110.23023986816406
1779208788.5416484,9.358009576797485,figure8,25000,38.147554741741054,0.020695983,-0.010694894,0.0,0.00614015,0.0080757085,0.0011659721,-0.0008270298,0.0014294996656948622,0,0.007306122,0.0072486787,0.038215477,-0.014553968794643879,0.030014293268322945,-0.6292675733566284,-0.7764725685119629,78.07219512536835,0.01433420181274414,154,0.0011659721,-0.0008270298,0.0014294996656948622,0.0012758,-0.001294221,0.001817326066270727,0.0005681913,0.0013117271,-0.0010025962,-0.0015157423,3.9114370346069336,110.25235748291016
1779208788.6034608,9.419821977615356,figure8,25000,38.147554741741054,0.022589691,-0.012609872,0.0,0.00614015,0.0080757085,0.0012758821,-0.0009625992,0.0015982716612071848,0,0.0074160323,0.0071131093,0.038238395,-0.01700359769165516,0.027915675193071365,-0.6298297643661499,-0.7760451436042786,78.14113861094367,0.004218578338623047,155,0.0012758821,-0.0009625992,0.0015982716612071848,0.0013514768,-0.0014713923,0.0019978700772962242,0.00067985844,0.0014464663,-0.0011622575,-0.0016250053,3.9114370346069336,110.25235748291016
1779208788.6848857,9.501246929168701,figure8,26000,39.6734569314107,0.02590976,-0.015446603,0.0,0.00614015,0.0080757085,0.001441082,-0.0011652568,0.0018532514018509173,0,0.007581232,0.0069104517,0.038228117,-0.017956240102648735,0.028074434027075768,-0.6290746927261353,-0.7766302227973938,78.02946386767461,0.003087282180786133,156,0.001441082,-0.0011652568,0.0018532514018509173,0.0015463512,-0.0017664095,0.002347638100681222,0.00084102474,0.0016514291,-0.0014072711,-0.0018790936,3.9114370346069336,110.14594268798828
1779208788.766024,9.582385301589966,figure8,26000,39.6734569314107,0.0052836565,0.002357785,0.0,0.00614015,0.0080757085,0.0009431727,-0.0004955712,0.001065441493354171,0,0.007083323,0.0075801373,0.0381484,-0.009995308704674244,0.03419266268610954,-0.6294034123420715,-0.7762617468833923,78.12316028216165,0.0029401779174804688,157,0.0009431727,-0.0004955712,0.001065441493354171,-0.0007551861,0.0012351199,0.0014476971662655787,0.00029084904,0.0010249744,0.001053255,0.0009932176,3.895601272583008,110.09364318847656
1779208788.9110494,9.727410554885864,figure8,26000,39.6734569314107,0.016424272,-0.0073772217,0.0,0.00614015,0.0080757085,0.0013090912,-0.000965924,0.001626877052654991,0,0.0074492414,0.0071097845,0.038224842,-0.0159411933273077,0.02851862460374832,-0.6294668316841125,-0.7763402462005615,78.09181111073741,0.014119148254394531,158,0.0013090912,-0.000965924,0.001626877052654991,0.0002915312,-0.00018965418,0.0003477918304920234,0.00067501364,0.0014802316,-0.000125417,-0.00032439132,3.9008798599243164,110.15567779541016
1779208788.9723136,9.78867483139038,figure8,26000,39.6734569314107,0.008374229,-0.002785178,0.0,0.00614015,0.0080757085,0.0011004917,-0.0007774611,0.0013474152118126287,0,0.007240642,0.0072982474,0.038173545,-0.012877577915787697,0.029930129647254944,-0.6292414665222168,-0.7765266299247742,78.06948334524003,0.0043942928314208984,159,0.0011004917,-0.0007774611,0.0013474152118126287,-0.0006774694,0.00066368614,0.0009483902694552022,0.0005331677,0.001237441,0.0005092998,0.0008000362,3.9008798599243164,110.13729858398438
1779208789.054749,9.871110200881958,figure8,27000,41.19935912108034,0.020734986,-0.012025693,0.0,0.00614015,0.0080757085,0.0014255522,-0.0011536963,0.0018339068456704323,0,0.0075657023,0.006922012,0.03831577,-0.018754713237285614,0.030066316947340965,-0.6291714906692505,-0.7764583230018616,78.05395545238747,0.004359722137451172,160,0.0014255522,-0.0011536963,0.0018339068456704323,0.0007082404,-0.0009040466,0.0011484357410280793,0.000833635,0.0016334831,-0.0007378686,-0.000880031,3.9008798599243164,110.12165832519531
1779208789.1587746,9.975135803222656,figure8,27000,41.19935912108034,0.011219303,-0.004410594,0.0,0.00614015,0.0080757085,0.0011529215,-0.0008227299,0.0014163730022375553,0,0.0072930716,0.0072529786,0.038217615,-0.014808536507189274,0.029480190947651863,-0.62990802526474,-0.7759687900543213,78.16350665677646,0.004380941390991211,161,0.0011529215,-0.0008227299,0.0014163730022375553,-0.00029063335,0.00032183807,0.0004336444327104791,0.0005687495,0.0012971647,0.00025538023,0.00035046885,3.890322685241699,110.08161163330078
