wall_time_s,elapsed_s,mode,thrust_raw,thrust_percent,roll_cmd_deg,pitch_cmd_deg,yawrate_cmd_deg_s,target_x,target_y,target_error_x_m,target_error_y_m,target_error_m,figure8_active,mocap_x,mocap_y,mocap_z,mocap_qx,mocap_qy,mocap_qz,mocap_qw,yaw_deg,mocap_age_s,mocap_frame_count,drift_x_m,drift_y_m,horizontal_drift_m,velocity_x_m_s,velocity_y_m_s,horizontal_speed_m_s,body_error_x_m,body_error_y_m,body_velocity_x_m_s,body_velocity_y_m_s,battery_v,estimate_z
1779210029.5547736,0.0009350776672363281,hold-xy,0,0.0,0.0,-0.0,0.0,0.0054123756,0.0026023868,0.0,0.0,0.0,0,0.0054123756,0.0026023868,0.037523285,0.002071453258395195,0.015629027038812637,-0.6548091173171997,-0.75562983751297,81.8368374141353,0.0532379150390625,55,0.0,0.0,0.0,0.0,0.0,0.0,0.0,0.0,0.0,0.0,4.048680305480957,114.18017578125
1779210029.597953,0.04411458969116211,hold-xy,0,0.0,-0.0003421494,-0.00041200966,0.0,0.0054123756,0.0026023868,-1.4197081e-05,-1.2860168e-05,1.9155704975651185e-05,0,0.0053981785,0.0025895266,0.03753707,0.0015897643752396107,0.016778526827692986,-0.6550607681274414,-0.7553882002830505,81.87889020379251,0.012888908386230469,56,-1.4197081e-05,-1.2860168e-05,1.9155704975651185e-05,-5.0990067e-05,-4.6188423e-05,6.879939870158178e-05,1.4736767e-05,-1.2238004e-05,-5.2928393e-05,4.395387e-05,4.048680305480957,114.14974212646484
1779210029.6612303,0.1073918342590332,hold-xy,0,0.0,0.00062246644,-0.00065453013,0.0,0.0054123756,0.0026023868,1.2874138e-05,-2.7197879e-05,3.0090995893870234e-05,0,0.0054252497,0.0025751889,0.037457824,0.0025656402576714754,0.014736348763108253,-0.654495358467102,-0.755918025970459,81.78645555866794,0.005212068557739258,57,1.2874138e-05,-2.7197879e-05,3.0090995893870234e-05,7.876641e-05,-9.295298e-05,0.0001218376129456481,2.5079658e-05,1.6627648e-05,-8.074671e-05,-9.123799e-05,4.048680305480957,114.14974212646484
1779210029.7651982,0.21135973930358887,hold-xy,0,0.0,0.0007891413,0.00029378725,0.0,0.0054123756,0.0026023868,2.8847251e-05,2.3832545e-06,2.89455315090859e-05,0,0.005441223,0.00260477,0.037428908,0.0035474090836942196,0.014217766001820564,-0.6544587016105652,-0.7559557557106018,81.77946700340748,0.01663041114807129,58,2.8847251e-05,2.3832545e-06,2.89455315090859e-05,0.00010691344,3.0820353e-05,0.00011126714524951085,-6.483451e-06,2.8210081e-05,4.5790548e-05,-0.0001014081,4.048680305480957,114.14793395996094
1779210029.8473797,0.29354119300842285,hold-xy,0,0.0,0.0028255745,0.0030559683,0.0,0.0054123756,0.0026023868,0.00012654345,9.6908305e-05,0.00015938777967581454,0,0.005538919,0.002699295,0.03745925,0.003255034564062953,0.01424979418516159,-0.6543617248535156,-0.7560404539108276,81.76481364100991,0.00690770149230957,59,0.00012654345,9.6908305e-05,0.00015938777967581454,0.0003937462,0.00033012952,0.0005138302886160042,-0.0001140347,0.00011135777,0.00038312428,-0.00034239938,4.048680305480957,114.14793395996094
1779210029.9485202,0.3946816921234131,hold-xy,0,0.0,0.0012170412,0.0020431106,0.0,0.0054123756,0.0026023868,8.007325e-05,8.557644e-05,0.00011719663905888312,0,0.005492449,0.0026879632,0.037410334,0.0036887722089886665,0.013425529934465885,-0.6538467407226562,-0.7564988732337952,81.6843925155952,0.005406379699707031,60,8.007325e-05,8.557644e-05,0.00011719663905888312,0.0001397999,0.00019797005,0.00024235541749560924,-9.625738e-05,6.6854845e-05,0.00021610735,-0.00010969855,4.048680305480957,114.18915557861328
1779210030.0301795,0.47634100914001465,hold-xy,0,0.0,0.0015050923,0.0015677211,0.0,0.0054123756,0.0026023868,9.5091294e-05,7.800339e-05,0.00012299139342828117,0,0.005507467,0.0026803901,0.037414864,0.004134161863476038,0.012131905183196068,-0.6539770364761353,-0.7564058303833008,81.70060226773663,0.005271434783935547,61,9.5091294e-05,7.800339e-05,0.00012299139342828117,0.00015294219,0.000110803056,0.00018886139669868195,-9.091251e-05,8.283596e-05,0.0001317192,-0.00013534652,4.048680305480957,114.18861389160156
1779210030.1361322,0.5822937488555908,hold-xy,0,0.0,0.0026723272,0.0017905496,0.0,0.0054123756,0.0026023868,0.00015099486,8.664699e-05,0.0001740894850087108,0,0.0055633704,0.0026890337,0.037379265,0.004082499537616968,0.01281703356653452,-0.6540635228157043,-0.756320059299469,81.71555972160574,0.013398408889770508,62,0.00015099486,8.664699e-05,0.0001740894850087108,0.0002784977,0.00010406928,0.0002973068807233305,-0.00010749929,0.00013693448,0.00014311135,-0.00026059648,4.048680305480957,114.16522216796875
1779210030.2195637,0.6657252311706543,hold-xy,0,0.0,-0.0012369942,-0.0011701944,0.0,0.0054123756,0.0026023868,1.771748e-05,1.0828488e-05,2.0764519502118386e-05,0,0.005430093,0.0026132152,0.037385542,0.004035231191664934,0.012585105374455452,-0.653155505657196,-0.7571084499359131,81.5774179161534,0.01833820343017578,63,1.771748e-05,1.0828488e-05,2.0764519502118386e-05,-0.00031444588,-0.00021693445,0.00038201670993712325,-1.330683e-05,1.5940312e-05,-0.00026065254,0.00027927945,4.048680305480957,114.13622283935547
1779210030.3012552,0.7474167346954346,hold-xy,0,0.0,0.0024559887,0.0023372492,0.0,0.0054123756,0.0026023868,0.00015219487,0.00010593189,0.0001854315059988494,0,0.0055645704,0.0027083186,0.037403367,0.004390448331832886,0.012396677397191525,-0.6540700197219849,-0.7563197016716003,81.71543355595492,0.014037370681762695,64,0.00015219487,0.00010593189,0.0001854315059988494,0.00024903688,0.00017993154,0.00030723723956046893,-0.00012675616,0.00013534297,0.00021393753,-0.0002205118,4.048680305480957,114.11327362060547
1779210030.3833592,0.8295207023620605,hold-xy,0,0.0,0.0024183309,0.0019014732,0.0,0.0054123756,0.0026023868,0.00016140379,0.00010067434,0.00019022751177454766,0,0.0055737793,0.002703061,0.037377626,0.00441737612709403,0.012453332543373108,-0.6540181040763855,-0.7563634514808655,81.70772558270137,0.02008342742919922,65,0.00016140379,0.00010067434,0.00019022751177454766,0.00021064913,0.0001052144,0.00023546364352581024,-0.00012289992,0.00014519681,0.00013449481,-0.00019327253,4.048680305480957,114.15746307373047
1779210030.4456828,0.8918442726135254,hold-xy,0,0.0,0.0032681627,0.0036168958,0.0,0.0054123756,0.0026023868,0.00020737667,0.00015742565,0.0002603611256027831,0,0.005619752,0.0027598124,0.037387986,0.004708923399448395,0.012257000431418419,-0.6540624499320984,-0.7563265562057495,81.71395390337057,0.009376764297485352,66,0.00020737667,0.00015742565,0.0002603611256027831,0.00033630582,0.00030677806,0.00045520806706156027,-0.0001856684,0.00018252441,0.00035204235,-0.0002885837,4.048680305480957,114.15746307373047
1779210030.527384,0.9735455513000488,hold-xy,0,0.0,0.00084962253,0.00032106764,0.0,0.0054123756,0.0026023868,0.0001240084,7.0877606e-05,0.00014283458141714291,0,0.005536384,0.0026732644,0.037385993,0.004440906923264265,0.012090626172721386,-0.6536263823509216,-0.7567077875137329,81.64742877031264,0.009339332580566406,67,0.0001240084,7.0877606e-05,0.00014283458141714291,-7.056678e-05,-0.000102906735,0.0001247776651355542,-8.813977e-05,0.000112397065,-0.000112066016,5.486962e-05,4.048680305480957,114.09026336669922
1779210030.610664,1.0568253993988037,hold-xy,0,0.0,0.0012029371,0.0005791773,0.0,0.0054123756,0.0026023868,0.000133113,7.251394e-05,0.00015158279741297158,0,0.0055454886,0.0026749007,0.037390556,0.004246914759278297,0.012367898598313332,-0.6538614630699158,-0.7565012574195862,81.68374241984176,0.020707368850708008,68,0.000133113,7.251394e-05,0.00015158279741297158,-1.1414348e-05,-6.5208296e-05,6.619976663310114e-05,-9.1004506e-05,0.0001212251,-6.6173554e-05,1.8627925e-06,4.048680305480957,114.10728454589844
1779210030.6767416,1.1229031085968018,hold-xy,0,0.0,0.0019967966,0.0015245893,0.0,0.0054123756,0.0026023868,0.00016404502,9.729201e-05,0.0001907262576665256,0,0.0055764206,0.0026996788,0.037404805,0.004257929977029562,0.013181301765143871,-0.6541109085083008,-0.7562718391418457,81.72379742506273,0.00879979133605957,69,0.00016404502,9.729201e-05,0.0001907262576665256,0.000111001704,4.9672446e-05,0.00012160892335849166,-0.00011989227,0.00014833188,6.51333e-05,-0.00010269558,4.048680305480957,114.10113525390625
1779210030.7797453,1.2259068489074707,hold-xy,0,0.0,0.0011917212,0.0006799908,0.0,0.0054123756,0.0026023868,0.00013522431,7.251627e-05,0.00015344127328693408,0,0.0055476,0.002674903,0.037389018,0.0042411768808960915,0.012742153368890285,-0.6539313793182373,-0.7564346790313721,81.695356852715,0.018494129180908203,70,0.00013522431,7.251627e-05,0.00015344127328693408,-1.4960562e-05,-4.488603e-05,4.7313573262707634e-05,-9.1287184e-05,0.00012333237,-4.657621e-05,8.3205105e-06,4.048680305480957,114.13136291503906
1779210030.9244153,1.3705768585205078,hold-xy,0,0.0,0.0018651502,0.001748126,0.0,0.0054123756,0.0026023868,0.0001757415,0.000117867254,0.00021160757008939764,0,0.005588117,0.002720254,0.037385184,0.004560725297778845,0.011976893991231918,-0.6540555357933044,-0.7563380002975464,81.71214458654981,0.008362531661987305,71,0.0001757415,0.000117867254,0.00021160757008939764,6.804847e-05,5.646838e-05,8.842664949394807e-05,-0.0001419688,0.00015691598,6.568759e-05,-5.9198086e-05,4.048680305480957,114.12709045410156
1779210030.9672377,1.4133992195129395,hold-xy,0,0.0,-0.005184888,-0.0061585386,0.0,0.0054123756,0.0026023868,3.635604e-05,1.3015233e-06,3.6379328847013285e-05,0,0.0054487316,0.0026036883,0.0373823,0.003789986250922084,0.012791682034730911,-0.6532796025276184,-0.7569993138313293,81.596733536361,0.019654273986816406,72,3.635604e-05,1.3015233e-06,3.6379328847013285e-05,-0.0012785577,-0.0010695439,0.0016669234747126874,-6.600601e-06,3.5775516e-05,-0.0012449089,0.0011085286,4.048680305480957,114.1354751586914
1779210031.052093,1.4982545375823975,hold-xy,0,0.0,-0.0018888395,-0.00209973,0.0,0.0054123756,0.0026023868,0.00011177454,7.6192664e-05,0.00013527331582703994,0,0.00552415,0.0026785794,0.037391476,0.004281372297555208,0.012242453172802925,-0.653937578201294,-0.756437361240387,81.69494016253634,0.009033679962158203,73,0.00011177454,7.6192664e-05,0.00013527331582703994,-0.00065801386,-0.00051336124,0.0008345789150449277,-9.153875e-05,9.959682e-05,-0.0006030235,0.00057696155,4.048680305480957,114.1354751586914
1779210031.137009,1.5831704139709473,hold-xy,0,0.0,9.931624e-06,-0.00092238083,0.0,0.0054123756,0.0026023868,0.0001520412,8.076453e-05,0.00017216107514357834,0,0.0055644168,0.0026831513,0.037416354,0.003910760395228863,0.012577872723340988,-0.6541446447372437,-0.7562547922134399,81.7271625061106,0.0023992061614990234,74,0.0001520412,8.076453e-05,0.00017216107514357834,-0.00032866048,-0.0003443714,0.00047603503950153673,-0.00010180086,0.0001388381,-0.0003880779,0.00027568988,4.048680305480957,114.13409423828125
1779210031.2398064,1.6859679222106934,hold-xy,0,0.0,0.00048484106,0.00030336983,0.0,0.0054123756,0.0026023868,0.00015773624,0.00010408228,0.0001889810639983991,0,0.005570112,0.002706469,0.037378334,0.004187996499240398,0.013086339458823204,-0.6540721654891968,-0.7563073635101318,81.71764477254992,0.016612529754638672,75,0.00015773624,0.00010408228,0.0001889810639983991,-0.00021077547,-0.00016209183,0.0002658948305567565,-0.00012571886,0.00014109789,-0.00019076376,0.00018522756,4.048680305480957,114.16614532470703
1779210031.321224,1.767385482788086,hold-xy,0,0.0,0.0007842692,0.00014741992,0.0,0.0054123756,0.0026023868,0.00015611667,8.7233726e-05,0.00017883550990593244,0,0.005568492,0.0026896205,0.037400853,0.004067976027727127,0.012842041440308094,-0.6541775465011597,-0.7562210559844971,81.73290265840076,0.005079746246337891,76,0.00015611667,8.7233726e-05,0.00017883550990593244,-0.00015277004,-0.00016784351,0.00022695842729177705,-0.000108774926,0.00014195124,-0.00018806587,0.00012704865,4.048680305480957,114.17657470703125
1779210031.4279552,1.8741166591644287,hold-xy,0,0.0,-4.797941e-05,4.013942e-05,0.0,0.0054123756,0.0026023868,0.00011449959,7.7952165e-05,0.00013851605205133453,0,0.005526875,0.002680339,0.03736348,0.004327724222093821,0.011911331675946712,-0.6537694334983826,-0.7565876841545105,81.66860574394282,0.01605987548828125,77,0.00011449959,7.7952165e-05,0.00013851605205133453,-0.00023733055,-0.00014657075,0.00027894223592322205,-9.372031e-05,0.00010199608,-0.00017941273,0.00021358802,4.048680305480957,114.1294174194336
1779210031.4907954,1.9369568824768066,hold-xy,0,0.0,0.0011021139,0.001353588,0.0,0.0054123756,0.0026023868,0.00014655292,0.00010812399,0.000182122360311675,0,0.0055589285,0.0027105107,0.03738206,0.0044130790047347546,0.012879427522420883,-0.6540866494178772,-0.7562971115112305,81.7192879243291,0.005010366439819336,78,0.00014655292,0.00010812399,0.000182122360311675,-3.599153e-05,1.9901236e-05,4.112723323960986e-05,-0.00012810373,0.00012945264,1.451014e-05,3.848253e-05,4.048680305480957,114.15092468261719
1779210031.5739772,2.020138740539551,hold-xy,0,0.0,0.0013671343,0.0010988585,0.0,0.0054123756,0.0026023868,0.00015262049,9.8916236e-05,0.00018187202677999082,0,0.005564996,0.002701303,0.037371483,0.004482922609895468,0.011915178969502449,-0.6541207432746887,-0.7562829852104187,81.72185126924761,0.006100177764892578,79,0.00015262049,9.8916236e-05,0.00018187202677999082,-3.0205447e-06,-1.9718267e-05,1.994827735092539e-05,-0.00011985972,0.00013678845,-1.9947713e-05,1.5006049e-07,4.048680305480957,114.12956237792969
1779210031.6553214,2.10148286819458,hold-xy,0,0.0,0.0017415149,0.001532102,0.0,0.0054123756,0.0026023868,0.00016796775,0.000111325644,0.0002015107074609779,0,0.0055803433,0.0027137124,0.03736984,0.00481678219512105,0.011834003031253815,-0.6542601585388184,-0.7561615705490112,81.74280688390805,0.0035462379455566406,80,0.00016796775,0.000111325644,0.0002015107074609779,5.2763873e-05,3.0570372e-05,6.098011063660136e-05,-0.00013429458,0.00015023825,3.7831243e-05,-4.7826466e-05,4.048680305480957,114.12956237792969
1779210031.7369027,2.1830642223358154,hold-xy,0,0.0,0.0015470341,0.0013149178,0.0,0.0054123756,0.0026023868,0.00016290043,0.00010633934,0.00019453689597377072,0,0.005575276,0.002708726,0.0373697,0.00443970737978816,0.012258290313184261,-0.6541099548339844,-0.7562870979309082,81.72111769012993,0.0037713050842285156,81,0.00016290043,0.00010633934,0.00019453689597377072,1.8249028e-05,3.0123556e-06,1.84959804211424e-05,-0.00012868745,0.00014589087,5.6086683e-06,-1.7625098e-05,4.048680305480957,114.1226806640625
1779210031.818848,2.2650094032287598,hold-xy,0,0.0,0.0017802349,0.0012491969,0.0,0.0054123756,0.0026023868,0.00017090142,0.00010332046,0.00019970581373500426,0,0.005583277,0.0027057072,0.03737594,0.0041989353485405445,0.012380251660943031,-0.6541719436645508,-0.7562329173088074,81.73080416902499,0.014493227005004883,82,0.00017090142,0.00010332046,0.00019970581373500426,4.6475358e-05,-1.0607207e-05,4.767044961313101e-05,-0.00012682602,0.00015426462,-3.8126468e-06,-4.7517737e-05,4.048680305480957,114.11200714111328
1779210031.9478042,2.393965721130371,hold-xy,0,0.0,0.000723463,0.000996369,0.0,0.0054123756,0.0026023868,0.00012366753,9.7990735e-05,0.00015778416217262543,0,0.005536043,0.0027003775,0.037392158,0.0041176131926476955,0.012829979881644249,-0.6541168093681335,-0.756273627281189,81.72367507357185,0.012240886688232422,83,0.00012366753,9.7990735e-05,0.00015778416217262543,-7.546444e-05,-1.9611116e-05,7.797100621424262e-05,-0.0001147718,0.00010827407,-3.0269775e-05,7.185554e-05,4.048680305480957,114.08878326416016
1779210031.9940715,2.440232992172241,hold-xy,0,0.0,0.0011277973,0.0009053155,0.0,0.0054123756,0.0026023868,0.00013032649,9.3673356e-05,0.0001604982538614929,0,0.005542702,0.00269606,0.03742569,0.004106068052351475,0.01286276150494814,-0.6542105078697205,-0.7561919093132019,81.73796009377416,0.010265827178955078,84,0.00013032649,9.3673356e-05,0.0001604982538614929,-1.1415683e-05,-4.0575855e-05,4.215113146675731e-05,-0.00011142914,0.00011551294,-4.1795167e-05,5.466428e-06,4.048680305480957,114.13227844238281
1779210032.0956168,2.541778326034546,hold-xy,500,0.762951094834821,0.0016690549,0.00094423344,0.0,0.0054123756,0.0026023868,0.00015028752,8.982001e-05,0.00017508275701893093,0,0.005562663,0.0026922068,0.037388176,0.004529764410108328,0.012353726662695408,-0.6539798974990845,-0.7563974857330322,81.70168409159655,0.01966571807861328,85,0.00015028752,8.982001e-05,0.00017508275701893093,5.6996625e-05,-4.094853e-05,7.018117570438623e-05,-0.00011057017,0.00013575055,-3.2293643e-05,-6.230985e-05,4.048680305480957,114.12899780273438
1779210032.180529,2.626690626144409,hold-xy,500,0.762951094834821,0.000914776,4.9537455e-05,0.0,0.0054123756,0.0026023868,0.00011982769,5.751499e-05,0.0001329159455764732,0,0.0055322032,0.0026599017,0.037412103,0.004038683138787746,0.012770486995577812,-0.653980016708374,-0.7563933730125427,81.70277368956917,0.010452985763549805,86,0.00011982769,5.751499e-05,0.0001329159455764732,-5.7185473e-05,-0.00013162816,0.0001435135901677044,-7.42051e-05,0.00011027353,-0.00013850271,3.759186e-05,4.048680305480957,114.10127258300781
1779210032.26563,2.711791515350342,hold-xy,500,0.762951094834821,0.0022559334,0.0021829861,0.0,0.0054123756,0.0026023868,0.00017834734,0.00012254529,0.0002163911309595624,0,0.005590723,0.002724932,0.037389584,0.004404708277434111,0.012344731017947197,-0.6541060209274292,-0.7562893629074097,81.72074979188848,0.004443645477294922,87,0.00017834734,0.00012254529,0.0002163911309595624,0.00015265871,0.00012198653,0.0001954108440050056,-0.00014694975,0.00015884236,0.00014269771,-0.00013350192,4.048680305480957,114.10723114013672
1779210032.36882,2.814981460571289,hold-xy,1000,1.525902189669642,0.0012396136,0.0006568317,0.0,0.0054123756,0.0026023868,0.00014064042,7.786439e-05,0.0001607563126794187,0,0.005553016,0.0026802511,0.03741485,0.004245141055434942,0.012455702759325504,-0.6541270613670349,-0.756270170211792,81.72421421786966,0.016327857971191406,88,0.00014064042,7.786439e-05,0.0001607563126794187,-1.7031198e-05,-6.1415885e-05,6.373360601838602e-05,-9.729706e-05,0.00012796825,-6.322778e-05,8.013767e-06,4.048680305480957,114.10945129394531
1779210032.4522047,2.8983662128448486,hold-xy,1000,1.525902189669642,0.0015885913,0.0013396183,0.0,0.0054123756,0.0026023868,0.00015693158,9.867409e-05,0.00018537556236416602,0,0.005569307,0.0027010608,0.037398662,0.004214604385197163,0.012884595431387424,-0.6542043685913086,-0.7561963200569153,81.7371084056648,0.003851175308227539,89,0.00015693158,9.867409e-05,0.00018537556236416602,3.9061626e-05,2.2133212e-05,4.489643209900025e-05,-0.00012020323,0.0001411215,2.75172e-05,-3.547525e-05,4.048680305480957,114.10945129394531
1779210032.5336895,2.979851007461548,hold-xy,1500,2.288853284504463,0.0013811565,0.0012268904,0.0,0.0054123756,0.0026023868,0.00015120395,9.6940435e-05,0.00017961092006128733,0,0.0055635795,0.0026993272,0.0373798,0.004274768754839897,0.012800050899386406,-0.6540510654449463,-0.7563300132751465,81.71365376858135,0.003666400909423828,90,0.00015120395,9.6940435e-05,0.00017961092006128733,6.303597e-06,9.124938e-06,1.1090528331129851e-05,-0.00011771997,0.0001356543,9.938152e-06,-4.9226987e-06,4.048680305480957,114.1473388671875
1779210032.6160123,3.062173843383789,hold-xy,2000,3.051804379339284,0.0017902575,0.000898749,0.0,0.0054123756,0.0026023868,0.00016297307,8.5072825e-05,0.00018384124867638208,0,0.0055753486,0.0026874596,0.037378762,0.004222518298774958,0.012133137322962284,-0.6540401577949524,-0.7563507556915283,81.71018021955142,0.015187740325927734,91,0.00016297307,8.5072825e-05,0.00018384124867638208,5.4280634e-05,-4.389797e-05,6.980987753665689e-05,-0.00010768145,0.0001490044,-3.5613095e-05,-6.004271e-05,4.048680305480957,114.12506103515625
1779210032.6988904,3.145051956176758,hold-xy,2000,3.051804379339284,0.0010572199,0.001435036,0.0,0.0054123756,0.0026023868,0.00014303718,0.00010514539,0.00017752516759104338,0,0.0055554127,0.0027075321,0.037392877,0.004628032445907593,0.012610269710421562,-0.65412837266922,-0.7562642693519592,81.7248913125594,0.01671743392944336,92,0.00014303718,0.00010514539,0.00017752516759104338,-3.552395e-05,4.3295837e-05,5.600428919937734e-05,-0.00012463747,0.00012641474,3.773223e-05,4.1385498e-05,4.048680305480957,114.11348724365234
1779210032.7602534,3.2064149379730225,hold-xy,2500,3.8147554741741057,0.001998411,0.0014279459,0.0,0.0054123756,0.0026023868,0.00017134193,0.00010263594,0.00019973029980530736,0,0.0055837175,0.0027050227,0.037394054,0.004429940599948168,0.01238899677991867,-0.654091477394104,-0.7563009858131409,81.71866862284901,0.006623029708862305,93,0.00017134193,0.00010263594,0.00019973029980530736,9.396528e-05,1.977165e-05,9.602287461615231e-05,-0.00012624476,0.00015477226,3.3099663e-05,-9.01377e-05,4.048680305480957,114.11348724365234
1779210032.964797,3.4109585285186768,hold-xy,3000,4.577706569008926,0.0007900648,0.0008312447,0.0,0.0054123756,0.0026023868,0.00010559894,8.028932e-05,0.00013265561052568296,0,0.0055179745,0.002682676,0.037392277,0.004490132909268141,0.011832629330456257,-0.6537801027297974,-0.7565787434577942,81.6700389437938,0.0068743228912353516,94,0.00010559894,8.028932e-05,0.00013265561052568296,-3.0766852e-05,-1.8975505e-05,3.614787677342614e-05,-9.474078e-05,9.2853086e-05,-2.323262e-05,2.7693217e-05,4.043401718139648,114.18658447265625
1779210032.9853792,3.4315407276153564,hold-xy,3000,4.577706569008926,0.0050872113,0.0031953028,0.0,0.0054123756,0.0026023868,0.0001599295,0.00010051811,0.00018889504697720285,0,0.005572305,0.0027029049,0.037399705,0.004530493635684252,0.012287019751966,-0.6540850400924683,-0.7563076019287109,81.71743225182783,0.007097005844116211,95,0.0001599295,0.00010051811,0.00018889504697720285,0.0007790309,0.0002847909,0.000829454638820651,-0.00012250834,0.00014378125,0.00039404386,-0.0007298798,4.043401718139648,114.18658447265625
1779210033.0875704,3.5337319374084473,hold-xy,3000,4.577706569008926,0.0034397077,0.0024720123,0.0,0.0054123756,0.0026023868,0.00013698265,9.848038e-05,0.00016870871750716758,0,0.005549358,0.0027008671,0.037407257,0.004104675725102425,0.01304613333195448,-0.6541647911071777,-0.7562283873558044,81.73155085574855,0.007144451141357422,96,0.00013698265,9.848038e-05,0.00016870871750716758,0.00047792585,0.00019336873,0.0005155623851859376,-0.000117156334,0.00012139614,0.00026008982,-0.0004451493,4.048680305480957,114.16642761230469
1779210033.1900685,3.636229991912842,hold-xy,3500,5.340657663843747,0.0030995128,0.0024266124,0.0,0.0054123756,0.0026023868,0.00015142094,0.00010987045,0.00018708238333633043,0,0.0055637965,0.0027122572,0.037406314,0.004534510895609856,0.012181676924228668,-0.6542377471923828,-0.7561772465705872,81.74028884109899,0.015076637268066406,97,0.00015142094,0.00010987045,0.00018708238333633043,0.00038035202,0.00017149189,0.0004172255140807386,-0.00013048397,0.00013406624,0.00022435453,-0.00035177005,4.048680305480957,114.14448547363281
1779210033.271642,3.717803478240967,hold-xy,3500,5.340657663843747,0.0023601288,0.001956706,0.0,0.0054123756,0.0026023868,0.00014279084,0.000105940504,0.00017779936655723907,0,0.0055551664,0.0027083273,0.037396234,0.004563897382467985,0.012015710584819317,-0.6539502739906311,-0.7564283609390259,81.69630103886398,0.004948854446411133,98,0.00014279084,0.000105940504,0.00017779936655723907,0.0002380131,0.00010718752,0.00026103524647113583,-0.00012545174,0.00012599395,0.0001404377,-0.00022003785,4.048680305480957,114.12313842773438
1779210033.353002,3.799163579940796,hold-xy,4000,6.103608758678568,0.0014704665,0.00069364,0.0,0.0054123756,0.0026023868,0.000117825344,7.1957475e-05,0.0001380604542478704,0,0.005530201,0.0026743442,0.037376087,0.004354005679488182,0.01247094850987196,-0.6539289355278015,-0.7564406394958496,81.69425716363246,0.004195690155029297,99,0.000117825344,7.1957475e-05,0.0001380604542478704,7.539797e-05,-4.9125396e-05,8.998976935271335e-05,-8.822324e-05,0.000106194864,-3.771849e-05,-8.1703576e-05,4.048680305480957,114.12313842773438
1779210033.456178,3.902339458465576,hold-xy,4500,6.866559853513389,0.0018564275,0.0014363348,0.0,0.0054123756,0.0026023868,0.00014214963,9.641517e-05,0.00017176263359337202,0,0.005554525,0.002698802,0.037360612,0.004440304823219776,0.012274625711143017,-0.6539484858512878,-0.7564265131950378,81.6967010795146,0.0057392120361328125,100,0.00014214963,9.641517e-05,0.00017176263359337202,0.00012457938,3.7806836e-05,0.0001301897798960313,-0.00011593277,0.00012673592,5.540143e-05,-0.00011781367,4.048680305480957,114.12523651123047
1779210033.5381014,3.9842629432678223,hold-xy,4500,6.866559853513389,0.0018181513,0.00084967853,0.0,0.0054123756,0.0026023868,0.00014440157,7.820083e-05,0.00016421687570108395,0,0.005556777,0.0026805876,0.037401214,0.004285584203898907,0.012702232226729393,-0.6541590094566345,-0.7562382221221924,81.72973732337408,0.006110191345214844,101,0.00014440157,7.820083e-05,0.00016421687570108395,9.548957e-05,-4.053871e-05,0.00010373834830255038,-9.8158685e-05,0.00013165126,-2.6381662e-05,-0.00010032773,4.048680305480957,114.12263488769531
1779210033.640012,4.0861735343933105,hold-xy,5000,7.629510948348211,0.0011105774,0.0012447657,0.0,0.0054123756,0.0026023868,0.00012416253,9.566778e-05,0.00015674392562068206,0,0.005536538,0.0026980545,0.037401844,0.004787996411323547,0.011311657726764679,-0.653858482837677,-0.7565171718597412,81.68062658063752,0.0057489871978759766,102,0.00012416253,9.566778e-05,0.00015674392562068206,7.4743184e-06,2.2859771e-05,2.4050666893322156e-05,-0.000112626236,0.00010901371,2.370068e-05,-4.0880677e-06,4.043401718139648,114.11475372314453
1779210033.7423086,4.188470125198364,hold-xy,5000,7.629510948348211,0.001332962,0.0017233273,0.0,0.0054123756,0.0026023868,0.00013556331,0.00011387933,0.00017704776906893777,0,0.005547939,0.002716266,0.037404556,0.004385816399008036,0.01259821467101574,-0.6542521119117737,-0.7561588287353516,81.74357188521608,0.01552128791809082,103,0.00013556331,0.00011387933,0.00017704776906893777,4.219784e-05,7.505081e-05,8.610041804937843e-05,-0.00013216639,0.00011780475,8.03327e-05,-3.09829e-05,4.048680305480957,114.13538360595703
1779210033.8247786,4.270940065383911,hold-xy,5500,8.392462043183032,0.0015314345,0.0016706394,0.0,0.0054123756,0.0026023868,0.00014529284,0.00011506677,0.0001853385319791217,0,0.0055576684,0.0027174535,0.03739572,0.0048593683168292046,0.011841664090752602,-0.6540378332138062,-0.756353497505188,81.70914779062609,0.00426483154296875,104,0.00014529284,0.00011506677,0.0001853385319791217,6.0680817e-05,5.633632e-05,8.280061884067858e-05,-0.00013481514,0.00012718193,6.44976e-05,-5.1923034e-05,4.043401718139648,114.1634750366211
1779210033.9064095,4.3525710105896,hold-xy,6000,9.155413138017853,0.0016807613,0.0015683239,0.0,0.0054123756,0.0026023868,0.0001524752,0.0001138486,0.00019028974913357406,0,0.0055648508,0.0027162354,0.037391435,0.004695580806583166,0.011763897724449635,-0.6541021466255188,-0.7563002109527588,81.71866997958918,0.015013694763183594,105,0.0001524752,0.0001138486,0.00019028974913357406,7.287506e-05,3.4279667e-05,8.053489965998712e-05,-0.00013462306,0.00013448726,4.4418695e-05,-6.7177745e-05,4.043401718139648,114.16990661621094
1779210033.9747567,4.420918226242065,hold-xy,6000,9.155413138017853,0.0010925556,0.0012118323,0.0,0.0054123756,0.0026023868,0.00013488065,0.00010655727,0.00017189311984772628,0,0.005547256,0.002708944,0.037399676,0.004496064502745867,0.012323250994086266,-0.6539669632911682,-0.7564094066619873,81.6996383488364,0.007482051849365234,106,0.00013488065,0.00010655727,0.00017189311984772628,-1.8550501e-05,-4.831729e-06,1.9169420856164956e-05,-0.00012491278,0.00011808489,-7.4591117e-06,1.7658662e-05,4.043401718139648,114.19681549072266
1779210034.062803,4.508964538574219,hold-xy,6000,9.155413138017853,0.0016380927,0.0015676914,0.0,0.0054123756,0.0026023868,0.00015495159,0.000116096344,0.00019361909908624191,0,0.005567327,0.002718483,0.03741109,0.004694364033639431,0.012223436497151852,-0.6542167663574219,-0.7561937570571899,81.73724291594,0.012314796447753906,107,0.00015495159,0.000116096344,0.00019361909908624191,5.9374004e-05,3.1007872e-05,6.698328371040942e-05,-0.00013715975,0.00013665855,3.921881e-05,-5.4301436e-05,4.043401718139648,114.14805603027344
1779210034.1447961,4.5909576416015625,hold-xy,6000,9.155413138017853,0.00077204395,0.0007760574,0.0,0.0054123756,0.0026023868,0.0001234375,9.4204675e-05,0.00015527825073292884,0,0.005535813,0.0026965914,0.03740881,0.0043285926803946495,0.012643775902688503,-0.6541846990585327,-0.7562167644500732,81.73347478957601,0.010875701904296875,108,0.0001234375,9.4204675e-05,0.00015527825073292884,-7.1754504e-05,-5.701111e-05,9.164592591666464e-05,-0.00011097349,0.00010861041,-6.673549e-05,6.2812025e-05,4.043401718139648,114.14805603027344
1779210034.3075216,4.753683090209961,hold-xy,6000,9.155413138017853,0.00077597506,0.0005140528,0.0,0.0054123756,0.0026023868,0.00011627283,7.666764e-05,0.0001392741827836503,0,0.0055286484,0.0026790544,0.037391383,0.004164448939263821,0.012713360600173473,-0.6540226340293884,-0.7563567757606506,81.70908997176282,0.019182443618774414,109,0.00011627283,7.666764e-05,0.0001392741827836503,-6.414745e-05,-7.3978204e-05,9.791664478079529e-05,-9.263281e-05,0.00010400222,-8.2455044e-05,5.280942e-05,4.043401718139648,114.12556457519531
1779210034.352103,4.798264503479004,hold-xy,6000,9.155413138017853,0.002187503,0.002298113,0.0,0.0054123756,0.0026023868,0.00015064422,0.000108759385,0.00018580174178702705,0,0.00556302,0.0027111461,0.0374147,0.004326725844293833,0.012124591507017612,-0.654346764087677,-0.7560850381851196,81.75662869302927,0.02124166488647461,110,0.00015064422,0.000108759385,0.00018580174178702705,0.00019759175,0.000174627,0.0002636988705036592,-0.00012923476,0.00013349405,0.00020115309,-0.00017051253,4.043401718139648,114.12556457519531
1779210034.436348,4.882509469985962,hold-xy,6000,9.155413138017853,0.002446672,0.0022285618,0.0,0.0054123756,0.0026023868,0.00017042458,0.000114361756,0.00020523924487443956,0,0.0055828,0.0027167485,0.03735586,0.0046592275612056255,0.012483254075050354,-0.6540875434875488,-0.7563014626502991,81.71836105071175,0.01981806755065918,111,0.00017042458,0.000114361756,0.00020523924487443956,0.00020758243,0.00014185766,0.00025142406361465243,-0.000137717,0.00015217482,0.00017027835,-0.00018498472,4.043401718139648,114.18048858642578
1779210034.5185306,4.964692115783691,hold-xy,6000,9.155413138017853,0.0020928993,0.0022885208,0.0,0.0054123756,0.0026023868,0.00016921572,0.00012742076,0.00021182543162359677,0,0.0055815913,0.0027298075,0.037398968,0.0048858970403671265,0.011856622993946075,-0.6540622115135193,-0.7563320398330688,81.7128834552957,0.00011396408081054688,112,0.00016921572,0.00012742076,0.00021182543162359677,0.00014174829,0.0001377519,0.00019765667719255593,-0.00015047996,0.0001490832,0.00015674422,-0.00012041349,4.03812313079834,114.18516540527344
1779210034.7070327,5.153194189071655,hold-xy,6500,9.918364232852674,0.0020288841,0.0016457244,0.0,0.0054123756,0.0026023868,0.00017226301,0.00010462431,0.0002015460004242052,0,0.0055846386,0.002707011,0.03738928,0.0045417724177241325,0.011825786903500557,-0.6542284488677979,-0.7561908960342407,81.73794614007673,0.009851455688476562,113,0.00017226301,0.00010462431,0.0002015460004242052,0.00010433771,5.816967e-05,0.00011945739274848162,-0.00012829277,0.00015544052,7.255935e-05,-9.489578e-05,4.043401718139648,114.19715881347656
1779210034.7881413,5.234302759170532,hold-xy,7000,10.681315327687495,0.0012618123,0.0008265298,0.0,0.0054123756,0.0026023868,0.00014915038,8.4896106e-05,0.0001716193018864187,0,0.005561526,0.0026872829,0.037370082,0.004505314398556948,0.012158495374023914,-0.6538989543914795,-0.7564707398414612,81.68889645571986,0.02001190185546875,114,0.00014915038,8.4896106e-05,0.0001716193018864187,-2.4694025e-05,-4.2700798e-05,4.932700084542372e-05,-0.00010556389,0.00013531241,-4.5821816e-05,1.826237e-05,4.03812313079834,114.1990737915039
1779210034.8708289,5.316990375518799,hold-xy,7000,10.681315327687495,0.0013898276,0.0019936322,0.0,0.0054123756,0.0026023868,0.00015852787,0.00012411783,0.00020133633791883312,0,0.0055709034,0.0027265046,0.03738265,0.004598243627697229,0.012009567581117153,-0.6542429327964783,-0.7561751008033752,81.74062737155981,0.016380786895751953,115,0.00015852787,0.00012411783,0.00020133633791883312,1.5305557e-05,0.00010642419,0.00010751915073216503,-0.0001456037,0.00013905352,0.00010751906,1.4150828e-07,4.03812313079834,114.17007446289062
1779210034.9317734,5.37793493270874,hold-xy,7500,11.444266422522317,0.0012470809,0.0012141651,0.0,0.0054123756,0.0026023868,0.00015136134,0.0001056795,0.0001846033889289786,0,0.005563737,0.0027080663,0.037370145,0.004781958647072315,0.011644342914223671,-0.6541330814361572,-0.7562747001647949,81.72306013989687,0.009418964385986328,116,0.00015136134,0.0001056795,0.0001846033889289786,-2.094673e-05,-6.9607777e-06,2.2073013674289552e-05,-0.00012636838,0.00013457132,-9.903721e-06,1.9726485e-05,4.03812313079834,114.17007446289062
1779210035.0132987,5.459460258483887,hold-xy,7500,11.444266422522317,0.00017921953,0.0009361558,0.0,0.0054123756,0.0026023868,0.00011389796,0.000101290876,0.00015242239799136663,0,0.0055262735,0.0027036776,0.03736946,0.004572049714624882,0.011716794222593307,-0.653831422328949,-0.7565357089042664,81.67752360298931,0.01629924774169922,117,0.00011389796,0.000101290876,0.00015242239799136663,-0.00016522883,-2.2510521e-05,0.000166755181905374,-0.00011671028,9.803723e-05,-4.618941e-05,0.00016023056,4.032844543457031,114.1799545288086
1779210035.103096,5.549257516860962,hold-xy,8000,12.207217517357137,0.0035882029,-0.0005636927,0.0,0.0054123756,0.0026023868,0.00021705823,2.99979e-05,0.0002191213154337268,0,0.005629434,0.0026323847,0.037401054,0.0033694703597575426,0.010391425341367722,-0.653984785079956,-0.7564287781715393,81.697400894605,0.02365255355834961,118,0.00021705823,2.99979e-05,0.0002191213154337268,0.0002597231,-0.00027518082,0.0003783921056391444,-6.102694e-05,0.00021045157,-0.00023479242,-0.00029673742,4.032844543457031,114.19559478759766
1779210035.1668358,5.61299729347229,hold-xy,8000,12.207217517357137,0.015059677,-0.009027837,0.0,0.0054123756,0.0026023868,0.0005588215,-0.00030972343,0.0006389131945661805,0,0.005971197,0.0022926633,0.037561603,-0.0018679526401683688,0.010542375035583973,-0.6538184881210327,-0.7565757036209106,81.67169709015329,0.015147924423217773,119,0.0005588215,-0.00030972343,0.0006389131945661805,0.0016010023,-0.0016033434,0.002265815178043419,0.0002255147,0.00059779023,-0.0013545379,-0.0018163549,4.032844543457031,114.19805908203125
1779210035.2494426,5.695604085922241,hold-xy,8500,12.970168612191959,0.027087945,-0.0094770435,0.0,0.0054123756,0.0026023868,0.0010546311,-0.00047228206,0.0011555505858255595,0,0.0064670066,0.0021301047,0.037864674,-0.01219266839325428,0.009715543128550053,-0.652877688407898,-0.7573028802871704,81.52476895114943,0.017314672470092773,120,0.0010546311,-0.00047228206,0.0011555505858255595,0.0029698166,-0.0017286005,0.0034362580911073506,0.00031169108,0.0011127199,-0.0012720266,-0.0031921493,4.032844543457031,114.19805908203125
1779210035.3512425,5.797404050827026,hold-xy,9000,13.733119707026779,0.01783729,-0.008052958,0.0,0.0054123756,0.0026023868,0.00087121315,-0.00046587968,0.0009879556158531898,0,0.0062835887,0.002136507,0.037751235,-0.009800676256418228,0.008060693740844727,-0.6523856520652771,-0.757780909538269,81.4482598406914,0.015877962112426758,121,0.00087121315,-0.00046587968,0.0009879556158531898,0.0015458693,-0.0011914154,0.0019517127207918689,0.0003311485,0.00093080447,-0.0009482946,-0.0017058487,4.027565956115723,114.24807739257812
1779210035.4356031,5.881764650344849,hold-xy,9000,13.733119707026779,0.019197565,-0.0065760915,0.0,0.0054123756,0.0026023868,0.0010192292,-0.00048512034,0.0011287913464448588,0,0.0064316047,0.0021172664,0.037795365,-0.011047651059925556,0.008339496329426765,-0.6528604030609131,-0.7573517560958862,81.52015571733112,0.00830841064453125,122,0.0010192292,-0.00048512034,0.0011287913464448588,0.0015651362,-0.0008967797,0.0018038473648996371,0.00032951985,0.0010796232,-0.00065617857,-0.0016802663,4.032844543457031,114.27589416503906
1779210035.5386384,5.984799861907959,hold-xy,9500,14.4960708018616,0.015902825,-0.0054534404,0.0,0.0054123756,0.0026023868,0.0009906804,-0.0004755638,0.0010989124841161754,0,0.006403056,0.002126823,0.037790895,-0.010585357435047626,0.0075013707391917706,-0.6528350710868835,-0.7573890089988708,81.51520243940328,0.018381357192993164,123,0.0009906804,-0.0004755638,0.0010989124841161754,0.0010034651,-0.0005969057,0.001167578114144686,0.00032418687,0.0010500056,-0.00044231434,-0.001080554,4.032844543457031,114.29914855957031
1779210035.6221647,6.068326234817505,hold-xy,10000,15.259021896696423,0.014856913,-0.0043836916,0.0,0.0054123756,0.0026023868,0.0010129185,-0.00046427315,0.0011142501923387669,0,0.006425294,0.0021381136,0.037791364,-0.010850285179913044,0.008320526219904423,-0.6529027223587036,-0.757318377494812,81.52658981304118,0.02004718780517578,124,0.0010129185,-0.00046427315,0.0011142501923387669,0.0007839232,-0.00037645636,0.0008696292098663355,0.0003099513,0.0010702728,-0.0002568357,-0.0008308372,4.027565956115723,114.29930877685547
1779210035.708177,6.154338598251343,hold-xy,10000,15.259021896696423,0.013973322,-0.0039830375,0.0,0.0054123756,0.0026023868,0.0010267091,-0.00046568224,0.0011273825647045356,0,0.0064390847,0.0021367045,0.0377884,-0.010963301174342632,0.008392173796892166,-0.6529383659362793,-0.7572851777076721,81.53206357841383,0.013564825057983398,125,0.0010267091,-0.00046568224,0.0011273825647045356,0.0005934749,-0.00026808973,0.0006512177525572866,0.00030941656,0.0010840908,-0.00017777443,-0.0006264829,4.027565956115723,114.26683044433594
1779210035.8132036,6.259365081787109,hold-xy,10000,15.259021896696423,0.013433439,-0.0042539807,0.0,0.0054123756,0.0026023868,0.0010390361,-0.00048918976,0.0011484348500927838,0,0.0064514116,0.002113197,0.037798047,-0.010867282748222351,0.007939808070659637,-0.6527479290962219,-0.757455587387085,81.50257343653726,0.021201372146606445,126,0.0010390361,-0.00048918976,0.0011484348500927838,0.00045340447,-0.00026007538,0.0005226995534815916,0.0003302865,0.0010999152,-0.0001902231,-0.00048685726,4.027565956115723,114.2685775756836
1779210035.8973615,6.343523025512695,hold-xy,10000,15.259021896696423,0.012553978,-0.003987244,0.0,0.0054123756,0.0026023868,0.0010332689,-0.00048885634,0.0011430770352669703,0,0.0064456444,0.0021135304,0.03778837,-0.010998385958373547,0.008262989111244678,-0.6529017686843872,-0.7573177814483643,81.52631153394623,0.009464263916015625,127,0.0010332689,-0.00048885634,0.0011430770352669703,0.00029934084,-0.00018100972,0.0003498134599894403,0.00033126224,0.0010940249,-0.00013492432,-0.00032274585,4.027565956115723,114.2774429321289
1779210035.9820335,6.428194999694824,hold-xy,10000,15.259021896696423,0.011917589,-0.0026715929,0.0,0.0054123756,0.0026023868,0.0010337401,-0.00044879783,0.0011269597078269837,0,0.0064461157,0.002153589,0.03779055,-0.010890435427427292,0.008433041162788868,-0.6528803110122681,-0.7573358416557312,81.52336505550888,0.010955810546875,128,0.0010337401,-0.00044879783,0.0011269597078269837,0.0002112382,1.776895e-05,0.00021198423547625955,0.0002915156,0.0010886032,4.8712645e-05,-0.0002063114,4.027565956115723,114.29267120361328
1779210036.0638485,6.510010004043579,hold-xy,10000,15.259021896696423,0.010946008,-0.0037958426,0.0,0.0054123756,0.0026023868,0.0010048198,-0.00048246677,0.0011146465080266819,0,0.0064171953,0.00211992,0.037775166,-0.010674023069441319,0.007744422182440758,-0.6528204679489136,-0.7573978304862976,81.51331608103862,0.0095977783203125,129,0.0010048198,-0.00048246677,0.0011146465080266819,4.355279e-05,-0.00010900353,0.0001173823440456407,0.00032889302,0.0010650195,-0.000101382466,-5.9162587e-05,4.027565956115723,114.27799224853516
1779210036.1455667,6.591728210449219,hold-xy,10000,15.259021896696423,0.011609515,-0.003170216,0.0,0.0054123756,0.0026023868,0.0010311287,-0.00047076447,0.0011335102790086236,0,0.0064435042,0.0021316223,0.03777865,-0.011036485433578491,0.008458154276013374,-0.6530137062072754,-0.7572184205055237,81.54355017793817,0.02000117301940918,130,0.0010311287,-0.00047076447,0.0011335102790086236,0.00014116074,-2.7074406e-05,0.00014373370588753855,0.00031401095,0.0010891478,-6.0212897e-06,-0.00014360753,4.027565956115723,114.27799224853516
1779210036.206794,6.652955532073975,hold-xy,10000,15.259021896696423,0.010788677,-0.0043881736,0.0,0.0054123756,0.0026023868,0.0010059453,-0.00050713075,0.0011265466829763664,0,0.006418321,0.002095256,0.03779088,-0.010923843830823898,0.0089414082467556,-0.6528246402740479,-0.7573775053024292,81.51577328676312,0.009997844696044922,131,0.0010059453,-0.00050713075,0.0011265466829763664,-7.2517723e-06,-0.00017211489,0.00017226759095197495,0.00035316672,0.0010697573,-0.00017130125,-1.8220922e-05,4.022287368774414,114.2854995727539
1779210036.2895217,6.73568320274353,hold-xy,10000,15.259021896696423,0.010722334,-0.0032412473,0.0,0.0054123756,0.0026023868,0.0010092477,-0.00047551328,0.0011156584883580472,0,0.0064216233,0.0021268735,0.037759043,-0.010785801336169243,0.007790123112499714,-0.6528186798095703,-0.7573973536491394,81.51308071806812,0.009425163269042969,132,0.0010092477,-0.00047551328,0.0011156584883580472,6.817359e-06,-6.6124558e-06,9.497418481571218e-06,0.00032135777,0.001068374,-5.533916e-06,-7.718596e-06,4.027565956115723,114.27079010009766
1779210036.3915298,6.837691307067871,hold-xy,10500,16.021972991531243,0.010803178,-0.0027943328,0.0,0.0054123756,0.0026023868,0.0010152673,-0.00045932364,0.001114336557303601,0,0.006427643,0.0021430631,0.03778898,-0.010675234720110893,0.007772444281727076,-0.6528782248497009,-0.7573477625846863,81.52209711217057,0.017992258071899414,133,0.0010152673,-0.00045932364,0.001114336557303601,2.4098581e-05,4.7349462e-05,5.312921206182923e-05,0.00030462572,0.0010718905,5.038487e-05,-1.6854616e-05,4.022287368774414,114.28228759765625
1779210036.474469,6.92063045501709,hold-xy,10500,16.021972991531243,0.010263624,-0.0038342127,0.0,0.0054123756,0.0026023868,0.0009904732,-0.0004927777,0.0011062852265166301,0,0.0064028488,0.002109609,0.037759144,-0.011121407151222229,0.008916349150240421,-0.6528387069702148,-0.7573629021644592,81.51779874958976,0.00870823860168457,134,0.0009904732,-0.0004927777,0.0011062852265166301,-6.378579e-05,-7.5680655e-05,9.897569777010052e-05,0.00034129058,0.0010523249,-8.426138e-05,5.192502e-05,4.022287368774414,114.26760864257812
1779210036.5767558,7.0229172706604,hold-xy,11000,16.784924086366065,0.011061216,-0.0030984464,0.0,0.0054123756,0.0026023868,0.0010209805,-0.0004738476,0.0011255810559023622,0,0.006433356,0.0021285391,0.03774583,-0.01086919754743576,0.008589301258325577,-0.6528878211975098,-0.7573279142379761,81.5247615046147,0.018959999084472656,135,0.0010209805,-0.0004738476,0.0011255810559023622,5.479249e-05,8.728493e-06,5.5483362660227495e-05,0.00031819893,0.0010796677,1.67086e-05,-5.2907715e-05,4.0170087814331055,114.27246856689453
1779210036.7025993,7.148760795593262,hold-xy,11500,17.547875181200887,0.010752114,-0.0037589192,0.0,0.0054123756,0.0026023868,0.0010064072,-0.0005008534,0.0011241483789384884,0,0.0064187828,0.0021015333,0.03779634,-0.011260795406997204,0.008436208590865135,-0.6528741717338562,-0.7573356628417969,81.52232827615744,0.020154476165771484,136,0.0010064072,-0.0005008534,0.0011241483789384884,3.2802564e-06,-5.8886446e-05,5.897773808108285e-05,0.00034701222,0.0010692484,-5.775943e-05,-1.1925688e-05,4.022287368774414,114.28221130371094
1779210036.7644844,7.210645914077759,hold-xy,11500,17.547875181200887,0.010473928,-0.0040738694,0.0,0.0054123756,0.0026023868,0.0009969659,-0.00051164115,0.0011205881198008102,0,0.0064093415,0.0020907456,0.03776707,-0.010847672820091248,0.008053623139858246,-0.6525430083274841,-0.757631242275238,81.47174874030507,0.01969766616821289,137,0.0009969659,-0.00051164115,0.0011205881198008102,-4.3136886e-05,-9.313297e-05,0.00010263791326472696,0.00035813678,0.0010618172,-9.850026e-05,2.8848568e-05,4.0170087814331055,114.28549194335938
1779210036.8458245,7.291985988616943,hold-xy,12000,18.310826276035705,0.009270802,-0.0051317927,0.0,0.0054123756,0.0026023868,0.0009434172,-0.00054983934,0.001091952094853722,0,0.0063557927,0.0020525474,0.03776314,-0.011218135245144367,0.008264003321528435,-0.6526105403900146,-0.7575653791427612,81.48217823461295,0.009214162826538086,138,0.0009434172,-0.00054983934,0.001091952094853722,-0.00020514672,-0.00018999174,0.00027961051553406093,0.00040403835,0.0010144517,-0.00021828183,0.0001747429,4.0170087814331055,114.28549194335938
1779210036.9514177,7.397579193115234,hold-xy,12000,18.310826276035705,0.010493255,-0.0030749647,0.0,0.0054123756,0.0026023868,0.0009897277,-0.00048957346,0.0011041934302218693,0,0.006402103,0.0021128133,0.03776731,-0.010937984101474285,0.008171392604708672,-0.6527264714241028,-0.7574706077575684,81.4996589127975,0.021464109420776367,139,0.0009897277,-0.00048957346,0.0011041934302218693,5.236594e-06,6.0696955e-05,6.0922427600214484e-05,0.0003378986,0.001051222,6.0804246e-05,3.792869e-06,4.011730194091797,114.24528503417969
1779210037.0153232,7.461484670639038,hold-xy,12000,18.310826276035705,0.0108773,-0.0021589182,0.0,0.0054123756,0.0026023868,0.0010067369,-0.00045898114,0.0011064279571866133,0,0.0064191124,0.0021434056,0.037784807,-0.011014372110366821,0.0079783471301198,-0.6527845859527588,-0.7574214935302734,81.50813502323741,0.013204574584960938,140,0.0010067369,-0.00045898114,0.0011064279571866133,7.437527e-05,0.00016966439,0.0001852503346024804,0.00030528544,0.0010634771,0.00017878726,-4.850571e-05,4.011730194091797,114.18106079101562
1779210037.118505,7.564666509628296,hold-xy,13000,19.83672846570535,0.010933397,-0.0028586155,0.0,0.0054123756,0.0026023868,0.0010092189,-0.00047676452,0.0011161662479414849,0,0.0064215944,0.0021256222,0.037746973,-0.010379430837929249,0.0077482592314481735,-0.6526892185211182,-0.7575150728225708,81.49354741934015,0.017818212509155273,141,0.0010092189,-0.00047676452,0.0011161662479414849,5.961677e-05,6.4639986e-05,8.793455891161227e-05,0.00032223528,0.00106864,7.2747454e-05,-4.939934e-05,4.011730194091797,114.13707733154297
1779210037.200139,7.646300554275513,hold-xy,13000,19.83672846570535,0.0105011575,-0.0037071183,0.0,0.0054123756,0.0026023868,0.0009916648,-0.00050239125,0.0011116636400477632,0,0.0064040404,0.0020999955,0.037781265,-0.011025387793779373,0.009260169230401516,-0.6529327034950256,-0.7572790384292603,81.5326520857492,0.006890058517456055,142,0.0009916648,-0.00050239125,0.0011116636400477632,-1.5162008e-05,-3.7809903e-05,4.073665700450852e-05,0.00035089668,0.0010548305,-3.963031e-05,9.429393e-06,4.006451606750488,114.16119384765625
1779210037.2826555,7.728816986083984,hold-xy,13500,20.59967956054017,0.008148634,-0.0040579215,0.0,0.0054123756,0.0026023868,0.00090386625,-0.00050487416,0.0010353125779984623,0,0.006316242,0.0020975126,0.037697654,-0.009551964700222015,0.007081255316734314,-0.6524025797843933,-0.7577793002128601,81.44947672603388,0.0033783912658691406,143,0.00090386625,-0.00050487416,0.0010353125779984623,-0.00031678748,-3.5125406e-05,0.0003187288811986927,0.00036487443,0.0009688853,-8.183542e-05,0.00030804393,4.006451606750488,114.14774322509766
1779210037.366831,7.812992572784424,hold-xy,13500,20.59967956054017,-8.471357e-05,-0.0045499955,0.0,0.0054123756,0.0026023868,0.00059807673,-0.00048079668,0.0007673729290483374,0,0.0060104523,0.00212159,0.037682783,-0.006885033566504717,0.008421407081186771,-0.6529470086097717,-0.7573255896568298,81.53452892699707,0.006019115447998047,144,0.00059807673,-0.00048079668,0.0007673729290483374,-0.0013468757,6.40031e-05,0.0013483955344236896,0.0003875134,0.00066234026,-0.0001349723,0.0013416233,4.00117301940918,114.11322784423828
1779210037.4489233,7.895084857940674,hold-xy,13500,20.59967956054017,-0.00065334514,-0.0022224246,0.0,0.0054123756,0.0026023868,0.0005238955,-0.00039862236,0.0006583056032847964,0,0.005936271,0.0022037644,0.037662525,-0.005769268609583378,0.009348184801638126,-0.6528077721595764,-0.757443904876709,81.51537667714841,0.013880252838134766,145,0.0005238955,-0.00039862236,0.0006583056032847964,-0.0012426112,0.00037690395,0.001298514216863786,0.00031696202,0.0005769761,0.00018943912,0.0012846213,4.00117301940918,114.11322784423828
1779210037.5332048,7.979366302490234,hold-xy,14000,21.36263065537499,0.0037129878,-0.002019643,0.0,0.0054123756,0.0026023868,0.00061327964,-0.000394376,0.0007291394462745114,0,0.006025655,0.0022080108,0.03764245,-0.005422274582087994,0.006754918489605188,-0.65240877866745,-0.7578176856040955,81.45091693215379,0.013722419738769531,146,0.00061327964,-0.000394376,0.0007291394462745114,-0.0005522594,0.00027891947,0.0006186974301261906,0.00029882597,0.00066509197,0.00019372333,0.0005875864,4.00117301940918,114.11670684814453
1779210037.6144428,8.060604333877563,hold-xy,14500,22.12558175020981,-0.0020228568,-0.0012069538,0.0,0.0054123756,0.0026023868,0.00036960235,-0.00031536398,0.00048586040216726744,0,0.005781978,0.0022870228,0.037616607,-0.002520177513360977,0.012539048679172993,-0.6535531878471375,-0.7567724585533142,81.6361923096086,0.0021903514862060547,147,0.00036960235,-0.00031536398,0.00048586040216726744,-0.0011745853,0.00045075273,0.001258105180436614,0.00025824824,0.00041154365,0.00027510576,0.0012276586,3.995894432067871,114.08007049560547
1779210037.7162068,8.162368297576904,hold-xy,14500,22.12558175020981,0.0046827504,0.00036149868,0.0,0.0054123756,0.0026023868,0.0005651885,-0.0002674705,0.0006252827128045108,0,0.005977564,0.0023349163,0.037689034,-0.0037350819911807775,0.012057730928063393,-0.6532729864120483,-0.757017195224762,81.59223057169245,0.010653495788574219,148,0.0005651885,-0.0002674705,0.0006252827128045108,-0.00019332091,0.00046952395,0.0005077654164163865,0.00018195559,0.0005982229,0.00043621092,0.00025989566,3.995894432067871,114.0439682006836
1779210037.7989872,8.245148658752441,hold-xy,14500,22.12558175020981,0.0027986236,0.00032174238,0.0,0.0054123756,0.0026023868,0.0004833024,-0.00023182947,0.0005360280931788207,0,0.005895678,0.0023705573,0.037715044,-0.004296998027712107,0.012327189557254314,-0.6532099843025208,-0.7570642232894897,81.58322464330324,0.0018267631530761719,149,0.0004833024,-0.00023182947,0.0005360280931788207,-0.0004034897,0.00044538596,0.0006009763687790014,0.0001585903,0.0005120305,0.00038152904,0.00046433625,3.995894432067871,113.98521423339844
1779210037.9019082,8.348069667816162,hold-xy,15000,22.888532845044633,0.0062088394,0.002144951,0.0,0.0054123756,0.0026023868,0.0005981885,-0.00015611667,0.000618224777473185,0,0.006010564,0.00244627,0.037612405,-0.002037937520071864,0.011774650774896145,-0.6546598076820374,-0.7558291554450989,81.80204179222405,0.013160228729248047,150,0.0005981885,-0.00015611667,0.000618224777473185,9.387289e-05,0.00055977155,0.0005675881647180327,6.922347e-05,0.00061433704,0.0005674371,-1.3093762e-05,3.9906158447265625,113.9433364868164
1779210037.984999,8.43116044998169,hold-xy,15000,22.888532845044633,-0.0012659803,-0.0014766741,0.0,0.0054123756,0.0026023868,0.0002985848,-0.00022082683,0.00037137229622500066,0,0.0057109604,0.00238156,0.03753158,-0.0008186206105165184,0.012271308340132236,-0.6546469330787659,-0.755834698677063,81.80161258015858,0.0021941661834716797,151,0.0002985848,-0.00022082683,0.00037137229622500066,-0.0008898931,0.00018544312,0.0009090098153807285,0.00017599152,0.0003270235,5.664822e-05,0.000907243,3.9906158447265625,113.95660400390625
1779210038.0658877,8.512049198150635,hold-xy,15000,22.888532845044633,0.0023517103,-0.0005751827,0.0,0.0054123756,0.0026023868,0.00038191397,-0.00019797636,0.0004301777840286351,0,0.0057942895,0.0024044104,0.037684053,-0.0033842846751213074,0.013692965731024742,-0.6539738178253174,-0.7563858032226562,81.7028438676034,0.001895904541015625,152,0.00038191397,-0.00019797636,0.0004301777840286351,-0.00031500956,0.0002142466,0.00038096276884528983,0.00014079125,0.00040648584,0.00016654594,0.00034262962,3.9906158447265625,113.9892578125
1779210038.1699796,8.616141080856323,hold-xy,15000,22.888532845044633,0.00583982,0.0016445292,0.0,0.0054123756,0.0026023868,0.000515867,-0.00011582859,0.0005287107375503381,0,0.0059282426,0.0024865582,0.0375613,-0.00023520969261880964,0.011669906787574291,-0.6545221209526062,-0.7559527158737183,81.78128331339798,0.0034096240997314453,153,0.000515867,-0.00011582859,0.0005287107375503381,0.00017125232,0.00039022195,0.0004261461329361339,4.0894636e-05,0.00052712683,0.0004106951,-0.00011371038,3.9906158447265625,114.04275512695312
1779210038.252655,8.698816537857056,hold-xy,15000,22.888532845044633,0.0059082983,0.0027551951,0.0,0.0054123756,0.0026023868,0.00053154305,-6.156415e-05,0.0005350963886943107,0,0.0059439186,0.0025408226,0.037497062,0.00019103745580650866,0.011682778596878052,-0.6544809341430664,-0.7559882998466492,81.77515487101772,0.014147520065307617,154,0.00053154305,-6.156415e-05,0.0005350963886943107,0.00018525007,0.00049945345,0.0005327019397703026,-1.5110636e-05,0.00053488294,0.00052081776,-0.00011189377,3.9906158447265625,114.04275512695312
1779210038.3362873,8.782448768615723,hold-xy,15000,22.888532845044633,0.0014204415,-0.0013236075,0.0,0.0054123756,0.0026023868,0.0003641392,-0.0001548659,0.0003957029321848755,0,0.0057765148,0.0024475208,0.03769641,-0.002990355947986245,0.014947977848351002,-0.6541649699211121,-0.7561982870101929,81.73567494432966,0.016101598739624023,155,0.0003641392,-0.0001548659,0.0003957029321848755,-0.00048519135,6.9244415e-06,0.0004852407651598669,0.00010091631,0.00038261825,-6.2888896e-05,0.00048114822,3.9906158447265625,114.05733489990234
1779210038.4189367,8.865098237991333,hold-xy,15000,22.888532845044633,0.0063223,0.002426031,0.0,0.0054123756,0.0026023868,0.000530567,-4.6973117e-05,0.0005326423134848245,0,0.0059429426,0.0025554136,0.03751025,-4.912513759336434e-05,0.012728041969239712,-0.6544976830482483,-0.7559568881988525,81.78035982186574,0.015445470809936523,156,0.000530567,-4.6973117e-05,0.0005326423134848245,0.00025970567,0.00039339048,0.00047138425175065476,-2.936364e-05,0.0005318323,0.00042647892,-0.00020079545,3.9906158447265625,114.07159423828125
1779210038.500632,8.946793556213379,hold-xy,15500,23.651483939879455,0.0067627523,0.00032567943,0.0,0.0054123756,0.0026023868,0.0005490016,-0.00010148203,0.0005583022214645945,0,0.005961377,0.0025009047,0.037497576,-6.511119863716885e-05,0.01117026712745428,-0.654466986656189,-0.7560080885887146,81.77174645817193,0.01599287986755371,157,0.0005490016,-0.00010148203,0.0005583022214645945,0.00024994582,7.3856456e-05,0.0002606294046854644,2.186589e-05,0.00055787386,0.00010886766,-0.00023680272,3.985337257385254,114.07774353027344
1779210038.5618913,9.008052825927734,hold-xy,15500,23.651483939879455,0.0023579467,-0.002425272,0.0,0.0054123756,0.0026023868,0.00040551648,-0.00016646925,0.00043835559166649474,0,0.005817892,0.0024359175,0.03769781,-0.004492655396461487,0.013998712413012981,-0.6536357402801514,-0.7566664814949036,81.65218918704457,0.004271745681762695,158,0.00040551648,-0.00016646925,0.00043835559166649474,-0.00041486122,-0.000215443,0.00046746712625433566,0.00010583187,0.00042538834,-0.0002733907,0.00037918735,3.985337257385254,114.00579833984375
1779210038.6633103,9.109471797943115,hold-xy,16000,24.414435034714273,0.0022038454,-0.0011655192,0.0,0.0054123756,0.0026023868,0.0003829524,-0.00013047573,0.00040456947589909094,0,0.005795328,0.002471911,0.037742343,-0.0035963209811598063,0.014281748794019222,-0.6534996032714844,-0.7567835450172424,81.63266526911612,0.01339864730834961,159,0.0003829524,-0.00013047573,0.00040456947589909094,-0.00036374855,-3.3811353e-05,0.00036531659066520704,7.336003e-05,0.00039786272,-8.638378e-05,0.0003549564,3.9800586700439453,113.95592498779297
1779210038.7653656,9.211527109146118,hold-xy,16500,25.177386129549095,0.0030635695,-0.00071000715,0.0,0.0054123756,0.0026023868,0.00039815018,-0.00011916994,0.00041560201855628503,0,0.0058105257,0.0024832168,0.03767865,-0.004204679746180773,0.01525399275124073,-0.653722882270813,-0.7565686106681824,81.66928786827425,0.011828422546386719,160,0.00039815018,-0.00011916994,0.00041560201855628503,-0.00021062577,9.062764e-06,0.00021082065959262313,6.0225862e-05,0.00041121515,-2.1549717e-05,0.00020971638,3.9800586700439453,113.90973663330078
1779210038.8667314,9.31289291381836,hold-xy,16500,25.177386129549095,0.0021179663,-0.00041992875,0.0,0.0054123756,0.0026023868,0.00034919893,-0.00010153372,0.0003636605355222633,0,0.0057615745,0.002500853,0.03763373,-0.002297957194969058,0.012598836794495583,-0.6534663438796997,-0.7568472623825073,81.62325444262689,0.011297941207885742,161,0.00034919893,-0.00010153372,0.0003636605355222633,-0.00029155886,5.8267975e-05,0.0002973242789071712,4.9578684e-05,0.0003602651,1.5171616e-05,0.00029693695,3.9747800827026367,113.91407012939453
1779210038.9492135,9.39537501335144,hold-xy,17000,25.940337224383917,0.0051144054,-6.5227214e-06,0.0,0.0054123756,0.0026023868,0.0004426986,-9.893207e-05,0.0004536183520886159,0,0.005855074,0.0025034547,0.037452113,0.0010813054395839572,0.010900786146521568,-0.6543995141983032,-0.7560696601867676,81.76108449285071,0.008993864059448242,162,0.0004426986,-9.893207e-05,0.0004536183520886159,0.00012673985,4.9993032e-05,0.0001362435063993294,3.4471785e-05,0.00045230667,6.763903e-05,-0.00011826773,3.9747800827026367,113.91407012939453
1779210039.0307798,9.476941347122192,hold-xy,17000,25.940337224383917,0.003807405,-0.0014220616,0.0,0.0054123756,0.0026023868,0.00039655343,-0.00013921852,0.00042028135727036027,0,0.005808929,0.0024631682,0.03775688,-0.004272175952792168,0.014786994084715843,-0.6539802551269531,-0.7563550472259521,81.70680277187424,0.008805274963378906,163,0.00039655343,-0.00013921852,0.00042028135727036027,-8.061199e-05,-0.000112836184,0.00013867335407664996,8.056435e-05,0.00041248734,-0.00012328361,6.349367e-05,3.9747800827026367,113.91316986083984
1779210039.1391075,9.5852689743042,hold-xy,17500,26.70328831921874,0.0023002317,-0.0026960778,0.0,0.0054123756,0.0026023868,0.00032182224,-0.00018967106,0.0003735567793212532,0,0.005734198,0.0024127157,0.03766115,-0.003548329696059227,0.013360097073018551,-0.6540705561637878,-0.7563072443008423,81.71651808615768,0.010198116302490234,164,0.00032182224,-0.00018967106,0.0003735567793212532,-0.00026608288,-0.00022052732,0.00034558993036517996,0.00014132707,0.00034579085,-0.00025656144,0.00023153535,3.969501495361328,113.8636703491211
1779210039.2088413,9.65500283241272,hold-xy,17500,26.70328831921874,0.0059321253,0.0016184923,0.0,0.0054123756,0.0026023868,0.000453474,-7.156702e-05,0.00045908659766991084,0,0.0058658496,0.0025308197,0.037470553,0.0016074141021817923,0.01057287398725748,-0.6545689105987549,-0.7559267282485962,81.78608732164774,0.0009109973907470703,165,0.000453474,-7.156702e-05,0.00045908659766991084,0.00031355274,0.00029400818,0.00042983266274238083,6.045353e-06,0.0004590468,0.00033578917,-0.00026833144,3.969501495361328,113.78545379638672
1779210039.3122988,9.758460283279419,hold-xy,18000,27.466239414053558,-0.0018090954,-0.0030367128,0.0,0.0054123756,0.0026023868,0.00014452636,-0.00019178097,0.00024014123315065856,0,0.005556902,0.0024106058,0.03750544,0.0008444206323474646,0.013317961245775223,-0.6541327834129333,-0.7562620043754578,81.72688032571979,0.007213592529296875,166,0.00014452636,-0.00019178097,0.00024014123315065856,-0.00073449826,-0.00016539743,0.000752890426267627,0.00016898899,0.00017061808,-0.0002693646,0.00070305524,3.9642229080200195,113.71884155273438
