wall_time_s,elapsed_s,mode,thrust_raw,thrust_percent,roll_cmd_deg,pitch_cmd_deg,yawrate_cmd_deg_s,target_x,target_y,target_error_x_m,target_error_y_m,target_error_m,figure8_active,mocap_x,mocap_y,mocap_z,mocap_qx,mocap_qy,mocap_qz,mocap_qw,yaw_deg,mocap_age_s,mocap_frame_count,drift_x_m,drift_y_m,horizontal_drift_m,velocity_x_m_s,velocity_y_m_s,horizontal_speed_m_s,body_error_x_m,body_error_y_m,body_velocity_x_m_s,body_velocity_y_m_s,battery_v,estimate_z
1779209832.6687293,0.0006983280181884766,hold-xy,0,0.0,0.0,-0.0,0.0,0.007617017,-0.00075649587,0.0,0.0,0.0,0,0.007617017,-0.00075649587,0.03788057,0.0007716763648204505,-0.019216014072299004,0.6355759501457214,0.7717987895011902,78.96329495515405,0.04878854751586914,47,0.0,0.0,0.0,0.0,0.0,0.0,0.0,0.0,0.0,0.0,4.085630416870117,113.8051528930664
1779209832.7109776,0.042946577072143555,hold-xy,0,0.0,0.0012709184,-1.2985211e-05,0.0,0.007617017,-0.00075649587,4.4322573e-05,-9.133189e-06,4.525378880066174e-05,0,0.0076613394,-0.00076562905,0.037855122,0.0007909272098913789,-0.019073862582445145,0.6354355812072754,0.7719178199768066,78.9418836212518,0.008098363876342773,48,4.4322573e-05,-9.133189e-06,4.525378880066174e-05,0.000160321,-3.3036034e-05,0.0001636893418521941,4.6234254e-07,4.5251432e-05,-1.672357e-06,-0.0001636808,4.085630416870117,113.8051528930664
1779209832.7923987,0.12436771392822266,hold-xy,0,0.0,-6.437737e-05,-0.00030066955,0.0,0.007617017,-0.00075649587,4.791189e-06,-1.1802011e-05,1.273746212178699e-05,0,0.007621808,-0.0007682979,0.03786091,0.0013051878195255995,-0.020527005195617676,0.6359018683433533,0.7714958190917969,79.01682233304922,0.008236885070800781,49,4.791189e-06,-1.1802011e-05,1.273746212178699e-05,-3.367877e-05,-3.297538e-05,4.713422663154973e-05,1.0673014e-05,6.951958e-06,-3.878788e-05,2.6779388e-05,4.085630416870117,113.80733489990234
1779209832.8983078,0.23027682304382324,hold-xy,0,0.0,0.0012522908,-0.0014692913,0.0,0.007617017,-0.00075649587,4.3647364e-05,-6.70203e-05,7.998007787686925e-05,0,0.007660664,-0.00082351617,0.037840664,0.0006268296856433153,-0.018381567671895027,0.6358292698860168,0.7716105580329895,78.99774114123312,0.021670103073120117,50,4.3647364e-05,-6.70203e-05,7.998007787686925e-05,0.00010247776,-0.0002022158,0.00022670006647943343,5.7458445e-05,5.5635777e-05,-0.00017894137,-0.0001391866,4.085630416870117,113.78276824951172
1779209832.9991992,0.33116817474365234,hold-xy,0,0.0,0.00058900315,-0.00012944486,0.0,0.007617017,-0.00075649587,3.376184e-05,-2.0492298e-05,3.949425503925039e-05,0,0.0076507786,-0.00077698816,0.03783423,0.00042254204163327813,-0.018404779955744743,0.6355974078178406,0.7718011736869812,78.96348154285981,0.018838882446289062,51,3.376184e-05,-2.0492298e-05,3.949425503925039e-05,4.3142223e-05,-6.976683e-06,4.370269500896774e-05,1.3650117e-05,3.7060363e-05,1.4112629e-06,-4.3679902e-05,4.085630416870117,113.7565689086914
1779209833.0805066,0.4124755859375,hold-xy,0,0.0,0.00017099528,-0.0014298172,0.0,0.007617017,-0.00075649587,1.2822915e-05,-6.3008745e-05,6.430030453644666e-05,0,0.0076298397,-0.0008195046,0.037867665,0.000687875144649297,-0.019170867279171944,0.6356247067451477,0.7717599272727966,78.97039391106216,0.018552780151367188,52,1.2822915e-05,-6.3008745e-05,6.430030453644666e-05,-4.6787914e-05,-0.00016120658,0.00016785908275261657,5.9391645e-05,2.4640649e-05,-0.00016718014,1.5082238e-05,4.085630416870117,113.78366088867188
1779209833.1652803,0.4972493648529053,hold-xy,0,0.0,0.0010258724,-0.00020058182,0.0,0.007617017,-0.00075649587,5.1774085e-05,-3.1929463e-05,6.082800745887701e-05,0,0.007668791,-0.0007884253,0.03784653,0.0002853125042747706,-0.01817307248711586,0.6356430053710938,0.771769106388092,78.96943192163317,0.008255481719970703,53,5.1774085e-05,-3.1929463e-05,6.082800745887701e-05,9.016019e-05,-1.4772879e-05,9.136244981187894e-05,2.1433501e-05,5.692672e-05,2.7506385e-06,-9.132104e-05,4.085630416870117,113.78096771240234
1779209833.2671463,0.5991153717041016,hold-xy,0,0.0,-7.7896344e-05,-0.0010929418,0.0,0.007617017,-0.00075649587,9.211712e-06,-5.807384e-05,5.879988766409849e-05,0,0.0076262285,-0.0008145697,0.03786532,0.0008598374552093446,-0.018758298829197884,0.6358085870742798,0.7716183066368103,78.99601371881312,0.017963171005249023,54,9.211712e-06,-5.807384e-05,5.879988766409849e-05,-7.54398e-05,-9.544797e-05,0.00012166132608709084,5.5247783e-05,2.0127321e-05,-0.000108092805,5.5833912e-05,4.085630416870117,113.68367767333984
1779209833.3492796,0.681248664855957,hold-xy,0,0.0,-0.00054219476,-0.00024183528,0.0,0.007617017,-0.00075649587,-5.148351e-06,-3.0477473e-05,3.090925241275212e-05,0,0.0076118684,-0.00078697334,0.03781676,0.0007714293315075338,-0.020246725529432297,0.6355149745941162,0.7718227505683899,78.95843432409299,0.018179893493652344,55,-5.148351e-06,-3.0477473e-05,3.090925241275212e-05,-0.00010539818,3.4251578e-05,0.00011082395004306487,3.0899308e-05,7.840308e-07,1.3431556e-05,0.00011000701,4.085630416870117,113.64317321777344
1779209833.4310725,0.7630414962768555,hold-xy,0,0.0,-0.000432268,-0.00091741397,0.0,0.007617017,-0.00075649587,-1.1515338e-05,-5.2897958e-05,5.413683532006427e-05,0,0.0076055015,-0.0008093938,0.037815098,0.0004942717496305704,-0.01942906342446804,0.6354994177818298,0.7718566656112671,78.9529006937613,0.017642498016357422,56,-1.1515338e-05,-5.2897958e-05,5.413683532006427e-05,-9.697915e-05,-5.772106e-05,0.00011285688548904489,5.412428e-05,-1.1658703e-06,-7.523423e-05,8.412186e-05,4.085630416870117,113.64317321777344
1779209833.5121608,0.8441298007965088,hold-xy,0,0.0,0.0001689293,-0.00014674295,0.0,0.007617017,-0.00075649587,9.260606e-06,-3.3443503e-05,3.470196994902729e-05,0,0.0076262774,-0.00078993937,0.037845228,0.00031541031785309315,-0.017959492281079292,0.6358264684677124,0.7716230154037476,78.99586835384815,0.017708539962768555,57,9.260606e-06,-3.3443503e-05,3.470196994902729e-05,9.041389e-06,3.1629e-05,3.289590044799155e-05,3.106093e-05,1.5474023e-05,3.2773267e-05,-2.8378122e-06,4.085630416870117,113.59852600097656
1779209833.594988,0.9269571304321289,hold-xy,0,0.0,-0.000646621,-0.0005390425,0.0,0.007617017,-0.00075649587,-2.381904e-05,-4.042202e-05,4.6917867219008815e-05,0,0.0075931977,-0.0007969179,0.037826505,0.0007741277222521603,-0.019995585083961487,0.6357042789459229,0.7716733813285828,78.98550279471229,0.007117271423339844,58,-2.381904e-05,-4.042202e-05,4.6917867219008815e-05,-9.990142e-05,-2.701745e-07,9.990178554589411e-05,4.4228203e-05,-1.5657344e-05,-1.9352101e-05,9.8009514e-05,4.085630416870117,113.59115600585938
1779209833.6768,1.0087690353393555,hold-xy,0,0.0,0.00016333628,-0.0011113237,0.0,0.007617017,-0.00075649587,-4.873611e-06,-6.5746484e-05,6.592686984122404e-05,0,0.007612143,-0.00082224235,0.037819434,0.000956053554546088,-0.020182587206363678,0.6358658075332642,0.7715350985527039,79.01018411998362,0.007003068923950195,59,-4.873611e-06,-6.5746484e-05,6.592686984122404e-05,-5.559341e-07,-9.2923176e-05,9.29248407453468e-05,6.5469845e-05,7.749315e-06,-9.132505e-05,-1.7168626e-05,4.085630416870117,113.58871459960938
1779209833.7390587,1.0710277557373047,hold-xy,0,0.0,0.0010858725,-0.00029003882,0.0,0.007617017,-0.00075649587,2.62768e-05,-5.1339972e-05,5.7673761978349715e-05,0,0.0076432936,-0.00080783584,0.037838466,0.0003723078698385507,-0.01842997595667839,0.6358538866043091,0.7715893387794495,79.00168680600363,0.006942033767700195,60,2.62768e-05,-5.1339972e-05,5.7673761978349715e-05,0.00014956528,4.305046e-06,0.00014962722452800393,4.538391e-05,3.5588815e-05,3.2760054e-05,-0.00014599688,4.085630416870117,113.57083129882812
1779209833.8220172,1.1539862155914307,hold-xy,0,0.0,0.00096852914,-0.00022731264,0.0,0.007617017,-0.00075649587,3.0532945e-05,-4.8174115e-05,5.703513028584292e-05,0,0.0076475497,-0.00080467,0.037818965,0.00010568622383289039,-0.01831585168838501,0.6356512308120728,0.771759033203125,78.97126481573068,0.008415699005126953,61,3.0532945e-05,-4.8174115e-05,5.703513028584292e-05,0.00012036541,1.4669167e-05,0.00012125599606624959,4.1443418e-05,3.9184815e-05,3.7424306e-05,-0.0001153362,4.085630416870117,113.57083129882812
1779209833.9040055,1.2359745502471924,hold-xy,500,0.762951094834821,0.000111216556,-0.0004394147,0.0,0.007617017,-0.00075649587,5.6345016e-06,-4.896085e-05,4.928399970156824e-05,0,0.0076226513,-0.0008054567,0.037854224,0.00027495084214024246,-0.01815139502286911,0.6360094547271729,0.7714676856994629,79.02377972633744,0.007796049118041992,62,5.6345016e-06,-4.896085e-05,4.928399970156824e-05,-6.1656538e-06,7.411303e-06,9.640679188043018e-06,4.6992354e-05,1.4853647e-05,6.101772e-06,7.4639847e-06,4.085630416870117,113.59444427490234
1779209833.9903045,1.3222734928131104,hold-xy,500,0.762951094834821,-2.6452908e-06,0.00012124103,0.0,0.007617017,-0.00075649587,5.1134266e-06,-2.753886e-05,2.8009568654582074e-05,0,0.00762213,-0.0007840347,0.03783492,0.00011567950423341244,-0.017995432019233704,0.6357153058052063,0.77171391248703,78.9795740016582,0.007004261016845703,63,5.1134266e-06,-2.753886e-05,2.8009568654582074e-05,-6.110896e-06,7.8979894e-05,7.92159492057017e-05,2.605354e-05,1.0283429e-05,7.635528e-05,2.1095917e-05,4.085630416870117,113.61919403076172
1779209834.092488,1.42445707321167,hold-xy,500,0.762951094834821,-0.0007757615,-0.00046961664,0.0,0.007617017,-0.00075649587,-2.834946e-05,-3.9466424e-05,4.859311161539766e-05,0,0.0075886673,-0.0007959623,0.037828602,0.0009633731096982956,-0.02060878835618496,0.6357725858688354,0.7716007232666016,78.99812621915984,0.017297744750976562,64,-2.834946e-05,-3.9466424e-05,4.859311161539766e-05,-0.00011352625,1.6345173e-05,0.00011469688124563399,4.415131e-05,-2.029661e-05,-5.620708e-06,0.00011455908,4.085630416870117,113.6102523803711
1779209834.1793096,1.5112786293029785,hold-xy,1000,1.525902189669642,0.00017306532,0.0006072591,0.0,0.007617017,-0.00075649587,9.112526e-06,-4.564179e-06,1.0191656252043717e-05,0,0.0076261293,-0.00076106004,0.037843626,-0.00016986990522127599,-0.01698897033929825,0.6358816623687744,0.771599531173706,79.00074202161935,0.009193181991577148,65,9.112526e-06,-4.564179e-06,1.0191656252043717e-05,3.8924714e-05,0.000121745026,0.00012781621609977493,2.7416977e-06,9.815954e-06,0.00012693522,-1.4981157e-05,4.085630416870117,113.62683868408203
1779209834.2809167,1.6128857135772705,hold-xy,1000,1.525902189669642,-0.00081467966,0.00057534344,0.0,0.007617017,-0.00075649587,-2.556108e-05,8.260366e-06,2.686265892395071e-05,0,0.0075914557,-0.0007482355,0.0378263,0.00019985430117230862,-0.01866157352924347,0.6360300183296204,0.771438717842102,79.02880891571739,0.01970076560974121,66,-2.556108e-05,8.260366e-06,2.686265892395071e-05,-8.693645e-05,0.00012745406,0.00015428052943702465,-3.2447242e-06,-2.6665974e-05,0.00010857924,0.000109603985,4.085630416870117,113.66126251220703
1779209834.3627493,1.694718360900879,hold-xy,1000,1.525902189669642,-0.0006395854,0.00015711162,0.0,0.007617017,-0.00075649587,-2.7009752e-05,-1.3856334e-06,2.7045269928222314e-05,0,0.007590007,-0.0007578815,0.037789762,0.0005387518904171884,-0.01970728300511837,0.635691225528717,0.771691620349884,78.98248685094387,0.00865626335144043,67,-2.7009752e-05,-1.3856334e-06,2.7045269928222314e-05,-6.5534834e-05,5.8060552e-05,8.755479531846105e-05,6.521902e-06,-2.6247124e-05,4.4466127e-05,7.5422846e-05,4.085630416870117,113.69168090820312
1779209834.5473857,1.87935471534729,hold-xy,1500,2.288853284504463,-0.0006052898,0.0003297209,0.0,0.007617017,-0.00075649587,-2.875086e-05,1.2348988e-05,3.129072305257433e-05,0,0.007588266,-0.0007441469,0.037822086,0.00045373410102911294,-0.01911233365535736,0.6357343196868896,0.7716711759567261,78.98654000432127,0.010295629501342773,69,-2.875086e-05,1.2348988e-05,3.129072305257433e-05,-4.8728703e-05,6.315853e-05,7.97714649892183e-05,-6.6289967e-06,-3.058048e-05,5.2686188e-05,5.9897015e-05,4.085630416870117,113.75668334960938
1779209834.6287766,1.9607455730438232,hold-xy,2000,3.051804379339284,-0.00017413283,0.00058797625,0.0,0.007617017,-0.00075649587,-1.4626887e-05,2.1754764e-05,2.6214796627743365e-05,0,0.00760239,-0.0007347411,0.0378191,9.952467371476814e-05,-0.018133295699954033,0.6359245181083679,0.7715381383895874,79.0111649413692,0.009557008743286133,70,-1.4626887e-05,2.1754764e-05,2.6214796627743365e-05,1.7481514e-05,7.85681e-05,8.048943565847516e-05,-1.8567733e-05,-1.8505536e-05,8.045979e-05,-2.184508e-06,4.085630416870117,113.75668334960938
1779209834.7108238,2.042792797088623,hold-xy,2000,3.051804379339284,-0.001191289,-0.0001421978,0.0,0.007617017,-0.00075649587,-5.120458e-05,8.412171e-06,5.189098054247482e-05,0,0.007565812,-0.0007480837,0.03783836,0.00024745799601078033,-0.01886981539428234,0.6360347270965576,0.7714296579360962,79.03029568767738,0.018028974533081055,71,-5.120458e-05,8.412171e-06,5.189098054247482e-05,-0.00013690695,5.938091e-07,0.00013690824264096405,1.4852521e-06,-5.186972e-05,-2.5469055e-05,0.00013451837,4.085630416870117,113.7562026977539
1779209834.7925165,2.124485492706299,hold-xy,2000,3.051804379339284,0.00044091063,-5.149132e-05,0.0,0.007617017,-0.00075649587,2.6146881e-06,4.5401976e-09,2.6146920674839775e-06,0,0.0076196315,-0.0007564913,0.037815392,3.006314545928035e-05,-0.018085023388266563,0.6358054876327515,0.7716374397277832,78.99333374523157,0.007565021514892578,72,2.6146881e-06,4.5401976e-09,2.6146920674839775e-06,7.936445e-05,-2.695392e-05,8.381664352193656e-05,-5.0366134e-07,2.5657241e-06,-1.1305587e-05,-8.3050676e-05,4.085630416870117,113.72615051269531
1779209834.8589463,2.19091534614563,hold-xy,2500,3.8147554741741057,-0.00060459453,0.0006843832,0.0,0.007617017,-0.00075649587,-1.7182436e-05,2.2763503e-05,2.8520399193439675e-05,0,0.0075998344,-0.00073373236,0.037789386,0.0002434890775475651,-0.019414324313402176,0.635793149471283,0.7716153264045715,78.99657010966303,0.021787643432617188,73,-1.7182436e-05,2.2763503e-05,2.8520399193439675e-05,-5.8205704e-05,0.00011191278,0.00012614425726507853,-1.9065441e-05,-2.1211368e-05,9.874575e-05,7.8496174e-05,4.085630416870117,113.7384262084961
1779209834.9420607,2.2740297317504883,hold-xy,2500,3.8147554741741057,-0.0009923981,0.00017419159,0.0,0.007617017,-0.00075649587,-3.908435e-05,1.2730481e-05,4.110536970736539e-05,0,0.0075779324,-0.0007437654,0.037826926,0.00034940263140015304,-0.018775906413793564,0.6358413696289062,0.7715912461280823,79.00116577777533,0.010053396224975586,74,-3.908435e-05,1.2730481e-05,4.110536970736539e-05,-0.0001100183,4.660515e-05,0.0001194824947476961,-5.0397707e-06,-4.0795243e-05,2.4758776e-05,0.00011688913,4.085630416870117,113.77607727050781
1779209835.0455916,2.377560615539551,hold-xy,3000,4.577706569008926,-0.00011556483,0.00064828125,0.0,0.007617017,-0.00075649587,-9.16468e-06,2.6735826e-05,2.8262975909792053e-05,0,0.007607852,-0.00072976004,0.037804022,0.0003828585904557258,-0.019767336547374725,0.6358112096786499,0.7715914249420166,79.00062144372286,0.02142167091369629,75,-9.16468e-06,2.6735826e-05,2.8262975909792053e-05,2.0379193e-05,7.821263e-05,8.08240494148212e-05,-2.4496065e-05,-1.4097469e-05,8.066412e-05,-5.0819726e-06,4.085630416870117,113.75579833984375
1779209835.1377428,2.4697117805480957,hold-xy,3000,4.577706569008926,-0.00084077613,0.00030305993,0.0,0.007617017,-0.00075649587,-3.9412174e-05,2.3363507e-05,4.581673095668032e-05,0,0.0075776046,-0.00073313236,0.037810925,0.00015070212248247117,-0.019039342179894447,0.6358911991119385,0.7715438604354858,79.00968083862351,0.011565685272216797,76,-3.9412174e-05,2.3363507e-05,4.581673095668032e-05,-7.469155e-05,4.483095e-05,8.71128051829285e-05,-1.5421345e-05,-4.3143424e-05,2.9769293e-05,8.186837e-05,4.085630416870117,113.75579833984375
1779209835.240453,2.5724220275878906,hold-xy,3500,5.340657663843747,-0.00015999845,0.0005902073,0.0,0.007617017,-0.00075649587,-1.5771016e-05,3.1852396e-05,3.554293207022967e-05,0,0.007601246,-0.00072464347,0.03783518,3.6790286230825586e-06,-0.01790379360318184,0.6360317468643188,0.7714551091194153,79.02627452266609,0.0195620059967041,77,-1.5771016e-05,3.1852396e-05,3.554293207022967e-05,2.2597702e-05,5.8269652e-05,6.249806721497481e-05,-2.8267812e-05,-2.1546022e-05,6.150584e-05,-1.1092353e-05,4.085630416870117,113.69871520996094
1779209835.3216712,2.6536402702331543,hold-xy,3500,5.340657663843747,-0.0017889156,0.00047160336,0.0,0.007617017,-0.00075649587,-7.663015e-05,4.266901e-05,8.770875123753672e-05,0,0.0075403866,-0.00071382686,0.037796393,0.0004684100567828864,-0.02011900022625923,0.6357277035713196,0.771651029586792,78.98962893735212,0.0075054168701171875,78,-7.663015e-05,4.266901e-05,8.770875123753672e-05,-0.00017992296,7.557825e-05,0.00019515210623221267,-2.724825e-05,-8.33688e-05,3.9824172e-05,0.0001910455,4.085630416870117,113.69871520996094
1779209835.403487,2.7354559898376465,hold-xy,3500,5.340657663843747,-0.00034873004,0.00020985758,0.0,0.007617017,-0.00075649587,-3.7421938e-05,2.7656322e-05,4.6532501953862e-05,0,0.007579595,-0.00072883954,0.03783585,0.00028460173052735627,-0.01868649199604988,0.635951817035675,0.7715024352073669,79.01725192907216,0.005493640899658203,79,-3.7421938e-05,2.7656322e-05,4.6532501953862e-05,1.4371428e-05,-8.222996e-07,1.4394933860980334e-05,-2.0020403e-05,-4.200544e-05,1.930711e-06,-1.4264869e-05,4.085630416870117,113.65165710449219
1779209835.5049644,2.8369333744049072,hold-xy,3500,5.340657663843747,-0.0005026389,0.0006137764,0.0,0.007617017,-0.00075649587,-3.9576087e-05,4.503061e-05,5.995016793184277e-05,0,0.0075774407,-0.00071146525,0.03783103,-0.00017846084665507078,-0.01755598746240139,0.6360123753547668,0.7714791297912598,79.02219060122012,0.0030717849731445312,80,-3.9576087e-05,4.503061e-05,5.995016793184277e-05,3.840081e-06,4.9591137e-05,4.973959394007591e-05,-3.667017e-05,-4.742701e-05,4.941493e-05,5.673769e-06,4.085630416870117,113.64652252197266
1779209835.6121166,2.9440855979919434,hold-xy,4000,6.103608758678568,-0.00036909225,-0.00013951922,0.0,0.007617017,-0.00075649587,-3.9833132e-05,1.8195948e-05,4.379236295374651e-05,0,0.0075771837,-0.0007382999,0.037808448,-4.7894685849314556e-05,-0.018516363576054573,0.6358316540718079,0.7716056704521179,78.9988857622822,0.014851570129394531,81,-3.9833132e-05,1.8195948e-05,4.379236295374651e-05,1.8795054e-06,-4.969633e-05,4.973185698044028e-05,-1.026029e-05,-4.2573436e-05,-4.8424423e-05,-1.1328421e-05,4.085630416870117,113.63459014892578
1779209835.6786032,3.0105721950531006,hold-xy,4000,6.103608758678568,0.00011801973,0.0016888892,0.0,0.007617017,-0.00075649587,-1.537567e-05,6.6116336e-05,6.788063985888383e-05,0,0.007601641,-0.00069037953,0.037774168,8.536398672731593e-05,-0.019178617745637894,0.6356797814369202,0.7717146277427673,78.97885994459932,0.018721818923950195,82,-1.537567e-05,6.6116336e-05,6.788063985888383e-05,0.000118493335,0.00019480304,0.000228010742114356,-6.195755e-05,-2.7731629e-05,0.00021386275,-7.9067206e-05,4.085630416870117,113.67533111572266
1779209835.7601845,3.092153549194336,hold-xy,4000,6.103608758678568,-0.0010160604,0.0008931722,0.0,0.007617017,-0.00075649587,-5.4303557e-05,5.6364923e-05,7.826800554248649e-05,0,0.007562713,-0.00070013094,0.037832167,0.0004675582458730787,-0.019334638491272926,0.6359496116638184,0.7714881896972656,79.0193933895131,0.0167694091796875,83,-5.4303557e-05,5.6364923e-05,7.826800554248649e-05,-5.6858815e-05,0.00010134127,0.00011620231620349847,-4.4989414e-05,-6.4045555e-05,8.865561e-05,7.512098e-05,4.085630416870117,113.66921997070312
1779209835.8221166,3.154085636138916,hold-xy,4500,6.866559853513389,5.123418e-05,-0.00062574405,0.0,0.007617017,-0.00075649587,-3.2474753e-05,6.3498737e-06,3.3089732071969994e-05,0,0.007584542,-0.000750146,0.037848577,0.0001936074550030753,-0.018964534625411034,0.6359718441963196,0.7714791893959045,79.02134739785022,0.0067195892333984375,84,-3.2474753e-05,6.3498737e-06,3.3089732071969994e-05,5.1175048e-05,-0.00013750955,0.00014672341635624248,-4.906269e-08,-3.3089695e-05,-0.00012524694,-7.642622e-05,4.085630416870117,113.66921997070312
1779209835.9058917,3.237860679626465,hold-xy,4500,6.866559853513389,-0.00081325485,-4.765991e-05,0.0,0.007617017,-0.00075649587,-5.5939425e-05,2.50038e-05,6.127323418876943e-05,0,0.0075610774,-0.00073149207,0.03781555,-0.00016295467503368855,-0.017803745344281197,0.6358921527862549,0.7715725302696228,79.00523513244212,0.008092164993286133,85,-5.5939425e-05,2.50038e-05,6.127323418876943e-05,-4.9604543e-05,-2.834393e-05,5.713133185053962e-05,-1.3876116e-05,-5.968134e-05,-3.728421e-05,4.32883e-05,4.080351829528809,113.69417572021484
1779209835.986931,3.3189001083374023,hold-xy,5000,7.629510948348211,0.00023096104,0.0010467365,0.0,0.007617017,-0.00075649587,-1.860084e-05,5.1818904e-05,5.5056245674229525e-05,0,0.007598416,-0.00070467696,0.037786763,-0.00025835653650574386,-0.017735082656145096,0.6358833909034729,0.7715812921524048,79.00371736213171,0.017875194549560547,86,-1.860084e-05,5.1818904e-05,5.5056245674229525e-05,0.0001224778,9.305482e-05,0.00015381810382092393,-4.7319463e-05,-2.8143535e-05,0.00011470836,-0.00010247928,4.080351829528809,113.66154479980469
1779209836.0748134,3.406782388687134,hold-xy,5000,7.629510948348211,-0.000903861,-0.00042344883,0.0,0.007617017,-0.00075649587,-6.584963e-05,9.369338e-06,6.651284153267416e-05,0,0.007551167,-0.0007471265,0.03782274,0.0001331122766714543,-0.019000045955181122,0.6360397934913635,0.7714223861694336,79.0316071465401,0.009735584259033203,87,-6.584963e-05,9.369338e-06,6.651284153267416e-05,-6.188435e-05,-6.748628e-05,9.156456916779205e-05,3.3308597e-06,-6.642939e-05,-7.8028046e-05,4.791342e-05,4.080351829528809,113.6232681274414
1779209836.1778738,3.509842872619629,hold-xy,5500,8.392462043183032,-0.00050483464,0.0002152241,0.0,0.007617017,-0.00075649587,-4.9570575e-05,2.6786991e-05,5.634522942924184e-05,0,0.007567446,-0.0007297089,0.03777556,0.00026350782718509436,-0.019264113157987595,0.6360929608345032,0.7713719010353088,79.04049533938034,0.018000125885009766,88,-4.9570575e-05,2.6786991e-05,5.634522942924184e-05,8.199153e-06,7.881121e-06,1.1372694450115748e-05,-1.6874328e-05,-5.375911e-05,9.296166e-06,-6.551295e-06,4.080351829528809,113.60659790039062
1779209836.2601142,3.592083215713501,hold-xy,5500,8.392462043183032,-0.0008441183,0.00093833543,0.0,0.007617017,-0.00075649587,-5.602371e-05,5.4480508e-05,7.814590038479736e-05,0,0.007560993,-0.00070201536,0.037801865,0.00045660469913855195,-0.01937202364206314,0.6360557675361633,0.771399736404419,79.03531749493717,0.018688440322875977,89,-5.602371e-05,5.4480508e-05,7.814590038479736e-05,-1.7999308e-05,0.000107391075,0.00010888901574467737,-4.2830015e-05,-6.5363376e-05,0.00010200706,3.809692e-05,4.080351829528809,113.59976959228516
1779209836.3625085,3.6944775581359863,hold-xy,6000,9.155413138017853,-7.800176e-06,0.00030197354,0.0,0.007617017,-0.00075649587,-2.865633e-05,2.9163202e-05,4.088615381940842e-05,0,0.0075883605,-0.00072733266,0.03783548,3.939289308618754e-05,-0.018144186586141586,0.6358629465103149,0.7715886831283569,79.00208531842989,0.018329858779907227,90,-2.865633e-05,2.9163202e-05,4.088615381940842e-05,6.730297e-05,1.256718e-06,6.73147022401973e-05,-2.3160734e-05,-3.3693592e-05,1.40732445e-05,-6.5827146e-05,4.080351829528809,113.58138275146484
1779209836.444997,3.776966094970703,hold-xy,6000,9.155413138017853,-0.0013677117,0.00080259517,0.0,0.007617017,-0.00075649587,-7.271627e-05,5.8283447e-05,9.319129026595566e-05,0,0.0075443005,-0.0006982124,0.03779631,7.356639252975583e-05,-0.019392887130379677,0.6358922123908997,0.7715342044830322,79.01126943169645,0.0061397552490234375,91,-7.271627e-05,5.8283447e-05,9.319129026595566e-05,-9.249684e-05,9.31505e-05,0.00013127330673030533,-4.3353928e-05,-8.249275e-05,7.3811185e-05,0.00010855686,4.0750732421875,113.58551025390625
1779209836.5467625,3.8787314891815186,hold-xy,6000,9.155413138017853,0.0003853924,0.0008699361,0.0,0.007617017,-0.00075649587,-1.2128148e-05,5.341461e-05,5.477419374868805e-05,0,0.0076048886,-0.00070308126,0.03780502,0.0004831650585401803,-0.01928229257464409,0.636024534702301,0.7714277505874634,79.03030825006459,0.016003847122192383,92,-1.2128148e-05,5.341461e-05,5.477419374868805e-05,0.00013303437,4.9311653e-05,0.0001418794576714232,-5.0130755e-05,-2.2070792e-05,7.37257e-05,-0.00012122006,4.0750732421875,113.64179992675781
1779209836.6309958,3.9629647731781006,hold-xy,6000,9.155413138017853,0.00067331793,0.0017098893,0.0,0.007617017,-0.00075649587,1.217844e-05,8.527143e-05,8.613669814631584e-05,0,0.007629195,-0.00067122444,0.03778397,7.28749146219343e-05,-0.018558504059910774,0.6357489824295044,0.7716727256774902,78.98671989518067,0.009124755859375,93,1.217844e-05,8.527143e-05,8.613669814631584e-05,0.00017315685,0.00013941112,0.00022230328777923496,-8.60275e-05,-4.3358077e-06,0.00016992286,-0.0001433352,4.0750732421875,113.64179992675781
1779209836.7124887,4.044457674026489,hold-xy,6500,9.918364232852674,-0.00018507711,-0.00016493537,0.0,0.007617017,-0.00075649587,-2.1193642e-05,3.323774e-05,3.9419763726265155e-05,0,0.007595823,-0.0007232581,0.03778927,-0.0005931712221354246,-0.016946028918027878,0.6358131766319275,0.7716566920280457,78.99057396993362,0.00818777084350586,94,-2.1193642e-05,3.323774e-05,3.9419763726265155e-05,-2.464585e-07,-9.17866e-05,9.178692924857477e-05,-2.8578663e-05,-2.7151016e-05,-9.01444e-05,-1.728661e-05,4.0750732421875,113.66091918945312
1779209836.8155055,4.147474527359009,hold-xy,6500,9.918364232852674,-0.0011597365,0.0006644725,0.0,0.007617017,-0.00075649587,-5.1681884e-05,6.615301e-05,8.39478258220898e-05,0,0.007565335,-0.00069034286,0.037787925,0.00010597556683933362,-0.019124343991279602,0.6358223557472229,0.7715984582901001,78.99980944686632,0.018620967864990234,95,-5.1681884e-05,6.615301e-05,8.39478258220898e-05,-9.896396e-05,4.2405147e-05,0.00010766643642702494,-5.5076012e-05,-6.335512e-05,2.2742483e-05,0.00010523708,4.0750732421875,113.6548080444336
1779209836.8973954,4.229364395141602,hold-xy,6500,9.918364232852674,-0.000789187,-7.1716466e-05,0.0,0.007617017,-0.00075649587,-4.902901e-05,4.0262938e-05,6.344248083573372e-05,0,0.007567988,-0.0007162329,0.03782135,-0.00023878556385170668,-0.01772807165980339,0.6359657645225525,0.7715135812759399,79.01591920554354,0.01807260513305664,96,-4.902901e-05,4.0262938e-05,6.344248083573372e-05,-5.9620732e-05,-6.453265e-05,8.785837863725673e-05,-3.0183523e-05,-5.5802357e-05,-7.471033e-05,4.6232683e-05,4.069794654846191,113.62796020507812
1779209836.9599385,4.291907548904419,hold-xy,6500,9.918364232852674,0.0021619042,0.001986459,0.0,0.007617017,-0.00075649587,4.511373e-05,8.0181635e-05,9.200186413479595e-05,0,0.0076621305,-0.00067631423,0.037775133,-0.001022111508063972,-0.01598178967833519,0.6354407668113708,0.7719835638999939,78.93212843665782,0.01814746856689453,97,4.511373e-05,8.0181635e-05,9.200186413479595e-05,0.00041038005,0.00014653416,0.0004357568680362561,-8.7350854e-05,2.8882036e-05,0.00022259005,-0.00037461676,4.069794654846191,113.63524627685547
1779209837.0433002,4.375269174575806,hold-xy,7000,10.681315327687495,-0.00095914386,0.0009559459,0.0,0.007617017,-0.00075649587,-5.6252815e-05,7.276493e-05,9.197344343842237e-05,0,0.007560764,-0.00068373093,0.037801933,0.000461134739452973,-0.019425172358751297,0.6360176205635071,0.7714299559593201,79.02986289249041,0.008427143096923828,98,-5.6252815e-05,7.276493e-05,9.197344343842237e-05,-3.9434963e-05,7.867013e-05,8.80005960939351e-05,-6.0730505e-05,-6.907185e-05,6.972818e-05,5.3685064e-05,4.069794654846191,113.63699340820312
1779209837.1486843,4.480653285980225,hold-xy,7000,10.681315327687495,0.0011077907,-0.00029562664,0.0,0.007617017,-0.00075649587,1.1859462e-05,1.3597077e-05,1.8042375877809615e-05,0,0.0076288763,-0.0007428988,0.037860215,0.00114370824303478,-0.016328079625964165,0.635994017124176,0.7715204954147339,79.01466962352931,0.016562223434448242,99,1.1859462e-05,1.3597077e-05,1.8042375877809615e-05,0.00018251261,-0.00012745567,0.00022261132325272846,-1.5607835e-05,9.051122e-06,-9.0341e-05,-0.0002034559,4.069794654846191,113.66393280029297
1779209837.230247,4.56221604347229,hold-xy,7500,11.444266422522317,0.008523655,-0.0050551565,0.0,0.007617017,-0.00075649587,0.0002640835,-0.00022412906,0.00034637253501171555,0,0.0078811,-0.0009806249,0.037853062,0.006002531852573156,-0.016730301082134247,0.6363367438316345,0.7712066173553467,79.06487430519502,0.0065250396728515625,100,0.0002640835,-0.00022412906,0.00034637253501171555,0.00095382065,-0.0008677985,0.0012895146951288862,0.0001699635,0.00030180512,-0.00067110424,-0.0011011208,4.069794654846191,113.66393280029297
1779209837.3118477,4.643816709518433,hold-xy,7500,11.444266422522317,0.018800952,-0.016203249,0.0,0.007617017,-0.00075649587,0.0005932753,-0.0007229283,0.0009352010325065351,0,0.008210292,-0.0014794242,0.038048495,0.01263539120554924,-0.013209869153797626,0.6359444856643677,0.7715182900428772,78.99310503815343,0.007048368453979492,101,0.0005932753,-0.0007229283,0.0009352010325065351,0.0018857403,-0.0024531013,0.003094143373962588,0.00059635716,0.00072038814,-0.0020479355,-0.0023194142,4.069794654846191,113.67333221435547
1779209837.4153626,4.747331619262695,hold-xy,8000,12.207217517357137,0.018976524,-0.014074126,0.0,0.007617017,-0.00075649587,0.0007232954,-0.0007849594,0.0010673881295359994,0,0.008340312,-0.0015414553,0.03805463,0.013925573788583279,-0.012305092066526413,0.6359244585037231,0.7715275883674622,78.98733335068628,0.017934560775756836,102,0.0007232954,-0.0007849594,0.0010673881295359994,0.001741119,-0.0019180733,0.0025904633179673186,0.00063233613,0.00085992354,-0.0015501529,-0.002075458,4.069794654846191,113.71286010742188
1779209837.4972296,4.829198598861694,hold-xy,8500,12.970168612191959,0.02040722,-0.015584113,0.0,0.007617017,-0.00075649587,0.00086642103,-0.00096500316,0.0012968872353384768,0,0.008483438,-0.001721499,0.038121015,0.016606327146291733,-0.01348054688423872,0.6353873014450073,0.7718973159790039,78.90878186817282,0.005224704742431641,103,0.00086642103,-0.00096500316,0.0012968872353384768,0.0016727813,-0.0019137545,0.0025417816235280537,0.0007803042,0.0010358773,-0.0015562142,-0.0020096893,4.069794654846191,113.72052764892578
1779209837.5996501,4.931619167327881,hold-xy,8500,12.970168612191959,0.016152618,-0.01197391,0.0,0.007617017,-0.00075649587,0.0008296338,-0.0009081786,0.0012300734259510107,0,0.008446651,-0.0016646745,0.038098536,0.015618963167071342,-0.012971840798854828,0.6354972124099731,0.7718361616134644,78.92447088008794,0.015603780746459961,104,0.0008296338,-0.0009081786,0.0012300734259510107,0.0010510426,-0.0011544143,0.0015612054899936253,0.0007318886,0.0009886454,-0.00093100476,-0.001253233,4.064516067504883,113.7044448852539
1779209837.6822693,5.014238357543945,hold-xy,9000,13.733119707026779,0.013941547,-0.009689172,0.0,0.007617017,-0.00075649587,0.00082436623,-0.00087512215,0.0012022555609486473,0,0.008441383,-0.001631618,0.038092766,0.015317490324378014,-0.011213479563593864,0.6356691718101501,0.7717281579971313,78.94637458918102,0.016839265823364258,105,0.00082436623,-0.00087512215,0.0012022555609486473,0.0007163123,-0.0006862358,0.0009919792860988569,0.0007008332,0.0009768578,-0.00053616794,-0.0008345938,4.069794654846191,113.66268157958984
1779209837.763787,5.0957560539245605,hold-xy,9000,13.733119707026779,0.012379217,-0.009245983,0.0,0.007617017,-0.00075649587,0.00081093283,-0.0008857172,0.0012008776279495046,0,0.00842795,-0.0016422131,0.03811106,0.015976447612047195,-0.013388046994805336,0.6356223821640015,0.7717186808586121,78.94384798478353,0.014425277709960938,106,0.00081093283,-0.0008857172,0.0012008776279495046,0.00045340313,-0.0005182354,0.0006885799132853517,0.0007137647,0.0009657365,-0.00042166724,-0.0005443703,4.064516067504883,113.67289733886719
1779209837.8460038,5.177972793579102,hold-xy,9000,13.733119707026779,0.010991543,-0.00726825,0.0,0.007617017,-0.00075649587,0.0008005933,-0.00083530997,0.001157018712088751,0,0.00841761,-0.0015918058,0.038120225,0.01575041003525257,-0.011972305364906788,0.6359632015228271,0.7714657783508301,78.99138736760077,0.015645980834960938,107,0.0008005933,-0.00083530997,0.001157018712088751,0.0002790857,-0.00017606208,0.00032997984062047654,0.0006670605,0.0009453691,-0.000119529024,-0.00030757033,4.064516067504883,113.70665740966797
1779209837.9272676,5.259236574172974,hold-xy,9500,14.4960708018616,0.011425659,-0.006894834,0.0,0.007617017,-0.00075649587,0.0008329735,-0.0008350593,0.001179478277692062,0,0.00844999,-0.0015915552,0.038102537,0.015940450131893158,-0.01273597963154316,0.6354632377624512,0.7718614935874939,78.91869651171477,0.013297319412231445,108,0.0008329735,-0.0008350593,0.001179478277692062,0.00031153968,-0.00012234416,0.0003347014641575561,0.00065939105,0.000977943,-6.0184637e-05,-0.00032924593,4.064516067504883,113.70665740966797
1779209837.9887981,5.320767164230347,hold-xy,10000,15.259021896696423,0.01111471,-0.007966762,0.0,0.007617017,-0.00075649587,0.00083132414,-0.0008730601,0.0012055429342090957,0,0.008448341,-0.001629556,0.03810554,0.015947282314300537,-0.01270988117903471,0.6351743936538696,0.772099494934082,78.87574124274433,0.003817319869995117,109,0.00083132414,-0.0008730601,0.0012055429342090957,0.00021110964,-0.00024618354,0.00032430481347284,0.0006962627,0.0009841505,-0.00020082705,-0.0002546411,4.064516067504883,113.75675964355469
1779209838.0716856,5.4036545753479,hold-xy,10000,15.259021896696423,0.009534948,-0.006797392,0.0,0.007617017,-0.00075649587,0.00079897465,-0.0008377178,0.0011576405208392922,0,0.008415991,-0.0015942137,0.038094446,0.015815207734704018,-0.01283219363540411,0.6355751156806946,0.7717703580856323,78.93560565723392,0.014861583709716797,110,0.00079897465,-0.0008377178,0.0011576405208392922,1.2692923e-05,-2.4747409e-05,2.7812669086919794e-05,0.0006688135,0.0009448916,-2.1851482e-05,-1.7206316e-05,4.059237480163574,113.69518280029297
1779209838.154616,5.4865851402282715,hold-xy,10500,16.021972991531243,0.010656598,-0.006466949,0.0,0.007617017,-0.00075649587,0.0008414122,-0.0008352037,0.0011855545984713108,0,0.008458429,-0.0015916995,0.03809302,0.01565932109951973,-0.01158246211707592,0.6355122327804565,0.7718451619148254,78.92362923281017,0.013715982437133789,111,0.0008414122,-0.0008352037,0.0011855545984713108,0.00016031053,-8.352372e-06,0.00016052797359081264,0.0006579957,0.0009861954,2.2601635e-05,-0.0001589289,4.059237480163574,113.64095306396484
1779209838.235976,5.5679450035095215,hold-xy,10500,16.021972991531243,0.009207045,-0.006637642,0.0,0.007617017,-0.00075649587,0.00079540676,-0.0008313877,0.0011505987255509607,0,0.008412424,-0.0015878836,0.038073733,0.01600167714059353,-0.012921297922730446,0.6356000900268555,0.7717444896697998,78.93941542461933,0.0033757686614990234,112,0.00079540676,-0.0008313877,0.0011505987255509607,-3.829114e-05,6.637445e-06,3.886215268781154e-05,0.0006633483,0.0009401311,-8.3188115e-07,3.885325e-05,4.059237480163574,113.64095306396484
1779209838.3180172,5.649986267089844,hold-xy,11000,16.784924086366065,0.00909865,-0.0062442976,0.0,0.007617017,-0.00075649587,0.0007924647,-0.0008165869,0.0011378991213449035,0,0.0084094815,-0.0015730828,0.0381391,0.0161062553524971,-0.012556207366287708,0.635831892490387,0.7715573310852051,78.97295741942506,0.004185914993286133,113,0.0007924647,-0.0008165869,0.0011378991213449035,-3.766927e-05,5.9308066e-05,7.025966556721453e-05,0.00064993376,0.0009340239,5.1007977e-05,4.8317772e-05,4.059237480163574,113.61309051513672
1779209838.420271,5.752239942550659,hold-xy,11500,17.547875181200887,0.0104275085,-0.007335862,0.0,0.007617017,-0.00075649587,0.00083161565,-0.00086390844,0.001199134011901895,0,0.008448632,-0.0016204043,0.038135335,0.01621125638484955,-0.013173914514482021,0.6354504227638245,0.7718590497970581,78.91765573718561,0.014484882354736328,114,0.00083161565,-0.00086390844,0.001199134011901895,0.00010136049,-0.000112869755,0.00015170211151041178,0.00068794546,0.0009821678,-9.128149e-05,-0.0001211661,4.053958892822266,113.62564086914062
1779209838.5229146,5.854883670806885,hold-xy,11500,17.547875181200887,0.0102430135,-0.0069511877,0.0,0.007617017,-0.00075649587,0.0008333889,-0.00085403677,0.0011932794387871258,0,0.008450406,-0.0016105326,0.038121674,0.01633082889020443,-0.01357955764979124,0.635382354259491,0.7719055414199829,78.9084531693355,0.013971090316772461,115,0.0008333889,-0.00085403677,0.0011932794387871258,7.610923e-05,-5.0300296e-05,9.122902225484894e-05,0.00067775924,0.0009821192,-3.4719058e-05,-8.436422e-05,4.053958892822266,113.62216186523438
1779209838.7128756,6.044844627380371,hold-xy,12000,18.310826276035705,0.008966532,-0.0057909,0.0,0.007617017,-0.00075649587,0.00078196963,-0.00077932316,0.0011040023214665426,0,0.008398986,-0.001535819,0.038111214,0.016139687970280647,-0.012797810137271881,0.6358367800712585,0.7715486288070679,78.97421320863718,0.0074617862701416016,116,0.00078196963,-0.00077932316,0.0011040023214665426,-2.5238092e-05,7.8873636e-05,8.281311183639959e-05,0.0006153855,0.0009165816,7.259092e-05,3.985687e-05,4.048680305480957,113.58211517333984
1779209838.7947986,6.126767635345459,hold-xy,12500,19.073777370870527,0.009473631,-0.007211776,0.0,0.007617017,-0.00075649587,0.00078791426,-0.0008237625,0.0011399094213169986,0,0.008404931,-0.0015802584,0.03815119,0.016577310860157013,-0.014114771969616413,0.63564532995224,0.7716741561889648,78.948706892894,0.01789689064025879,117,0.00078791426,-0.0008237625,0.0011399094213169986,7.2800703e-06,-0.00013127876,0.00013148046989016495,0.0006574532,0.0009312083,-0.00012744883,-3.2309596e-05,4.048680305480957,113.59447479248047
1779209838.8757172,6.207686185836792,hold-xy,12500,19.073777370870527,0.009958875,-0.0072041247,0.0,0.007617017,-0.00075649587,0.00080645597,-0.00083453837,0.0011605280937978693,0,0.008423473,-0.0015910342,0.038135774,0.016334855929017067,-0.01359805278480053,0.6356090307235718,0.7717185020446777,78.94216529165722,0.0067789554595947266,118,0.00080645597,-0.00083453837,0.0011605280937978693,6.553415e-05,-0.0001270199,0.00014292927855657096,0.00066436635,0.00095154764,-0.000112092224,-8.867984e-05,4.048680305480957,113.61075592041016
1779209838.9780457,6.310014724731445,hold-xy,13000,19.83672846570535,0.0070941257,-0.0056603085,0.0,0.007617017,-0.00075649587,0.000715083,-0.000763359,0.0010459735825251338,0,0.0083321,-0.0015198549,0.03813258,0.015907328575849533,-0.013244000263512135,0.635917067527771,0.7714797854423523,78.987323241521,0.017611265182495117,119,0.000715083,-0.000763359,0.0010459735825251338,-0.000253722,0.00014447063,0.0002919702480705403,0.00061270216,0.00084773626,9.3342656e-05,0.0002766474,4.043401718139648,113.57185363769531
1779209839.066689,6.398658037185669,hold-xy,13000,19.83672846570535,0.008192331,-0.004486598,0.0,0.007617017,-0.00075649587,0.00074868416,-0.0007210929,0.0010394724132083226,0,0.008365701,-0.0014775888,0.03809308,0.015276768244802952,-0.012085371650755405,0.6356369853019714,0.7717422842979431,78.94342405744572,0.019507646560668945,120,0.00074868416,-0.0007210929,0.0010394724132083226,-6.1401224e-05,0.0002472998,0.000254808357580138,0.0005641269,0.0008730772,0.00023093406,0.00010768822,4.043401718139648,113.48011779785156
1779209839.1479666,6.479935646057129,hold-xy,13500,20.59967956054017,0.009462517,-0.0068588634,0.0,0.007617017,-0.00075649587,0.0007736753,-0.0007983097,0.0011116976945366782,0,0.008390692,-0.0015548056,0.03803861,0.014169683679938316,-0.009953112341463566,0.6361034512519836,0.7714094519615173,79.00910893510299,0.019193172454833984,121,0.0007736753,-0.0007983097,0.0011116976945366782,4.890714e-05,-0.00011080291,0.00012111644385234944,0.0006361632,0.00091168424,-9.944622e-05,-6.913496e-05,4.043401718139648,113.413818359375
1779209839.2328265,6.56479549407959,hold-xy,14000,21.36263065537499,0.005245938,-0.0050428202,0.0,0.007617017,-0.00075649587,0.00064035365,-0.00071152044,0.0009572429941714071,0,0.00825737,-0.0014680163,0.03822466,0.016604367643594742,-0.013485213741660118,0.6361088156700134,0.7713028192520142,79.01599311614738,0.020227909088134766,122,0.00064035365,-0.00071152044,0.0009572429941714071,-0.0004429071,0.00023304627,0.0005004770291567496,0.00057647587,0.00076419214,0.00014438767,0.00047919666,4.043401718139648,113.413818359375
1779209839.299714,6.631683111190796,hold-xy,14000,21.36263065537499,0.004939664,-0.004178878,0.0,0.007617017,-0.00075649587,0.0006140624,-0.0006699981,0.0009088289822443132,0,0.008231079,-0.001426494,0.03822523,0.017511654645204544,-0.015432087704539299,0.6363369822502136,0.7710580229759216,79.0544567605474,0.01327967643737793,123,0.0006140624,-0.0006699981,0.0009088289822443132,-0.000416858,0.00033184036,0.0005328119974326338,0.0005412139,0.00073010795,0.00024665226,0.00047228305,4.03812313079834,113.37965393066406
1779209839.3811207,6.71308970451355,hold-xy,14500,22.12558175020981,0.010607874,-0.008237156,0.0,0.007617017,-0.00075649587,0.0007605818,-0.00083118665,0.0011266569790101659,0,0.008377599,-0.0015876825,0.038038563,0.014601476490497589,-0.011604969389736652,0.6359308958053589,0.7715206146240234,78.98642408799446,0.013046026229858398,124,0.0007605818,-0.00083118665,0.0011266569790101659,0.00024660816,-0.0003600245,0.00043638657258455006,0.0006705751,0.0009053646,-0.00030628114,-0.00031084576,4.03812313079834,113.35407257080078
1779209839.4451387,6.7771077156066895,hold-xy,14500,22.12558175020981,0.007789063,-0.004182905,0.0,0.007617017,-0.00075649587,0.00070800865,-0.0007022922,0.0009972415051693424,0,0.008325025,-0.001458788,0.03815598,0.016192330047488213,-0.012751231901347637,0.6359149813652039,0.7714838981628418,78.98569669304402,0.005163669586181641,125,0.00070800865,-0.0007022922,0.0009972415051693424,-4.673266e-05,0.00028578736,0.0002895830677895205,0.00055408775,0.0008291426,0.00027159456,0.00010047265,4.032844543457031,113.26979064941406
1779209839.5469952,6.878964185714722,hold-xy,15000,22.888532845044633,0.0056213336,-0.004971646,0.0,0.007617017,-0.00075649587,0.0006191614,-0.0006994384,0.0009341171774583922,0,0.008236178,-0.0014559343,0.038200535,0.01698274351656437,-0.014808377251029015,0.6364352107048035,0.7710009813308716,79.06767982638875,0.015210628509521484,126,0.0006191614,-0.0006994384,0.0009341171774583922,-0.00032303325,0.00020937633,0.00038495315474504013,0.00056932133,0.0007405728,0.00014431351,0.00035687888,4.027565956115723,113.19361877441406
1779209839.6289513,6.960920333862305,hold-xy,15000,22.888532845044633,0.0046587554,-0.004026642,0.0,0.007617017,-0.00075649587,0.00057182694,-0.0006453297,0.0008622276308971666,0,0.008188844,-0.0014018256,0.038174413,0.01547467801719904,-0.014339134097099304,0.6366406083106995,0.7708720564842224,79.09788869209484,0.005497932434082031,127,0.00057182694,-0.0006453297,0.0008622276308971666,-0.0003810324,0.00032364216,0.0004999299349459529,0.00052553206,0.00068355876,0.00024573572,0.0004353664,4.027565956115723,113.19361877441406
1779209839.7307453,7.062714338302612,hold-xy,15500,23.651483939879455,-0.0010152375,0.0019732248,0.0,0.007617017,-0.00075649587,0.00038183993,-0.00036256528,0.0005265503872051566,0,0.007998857,-0.0011190611,0.03808652,0.012084843590855598,-0.014391652308404446,0.6362242698669434,0.7712752819061279,79.03802919097481,0.015548467636108398,128,0.00038183993,-0.00036256528,0.0005265503872051566,-0.00088797783,0.0011511857,0.0014538683629895424,0.00028334008,0.0004438172,0.00096132513,0.0010906819,4.027565956115723,113.1104736328125
1779209839.812048,7.144016981124878,hold-xy,16000,24.414435034714273,-0.0008391761,0.001667805,0.0,0.007617017,-0.00075649587,0.00033526262,-0.00030929944,0.00045614381252997527,0,0.007952279,-0.0010657953,0.03806851,0.012585262767970562,-0.01888244040310383,0.6363507509231567,0.7710660099983215,79.0708163426896,0.003999948501586914,129,0.00033526262,-0.00030929944,0.00045614381252997527,-0.0007720747,0.0009779307,0.0012459726202194753,0.00024012514,0.00038782353,0.0008138113,0.00094348233,4.022287368774414,113.09918212890625
1779209839.9144642,7.246433258056641,hold-xy,16000,24.414435034714273,-0.0010609142,0.0016022443,0.0,0.007617017,-0.00075649587,0.000281109,-0.0002530592,0.0003782343567700751,0,0.007898126,-0.0010095551,0.038086575,0.011868163011968136,-0.019050734117627144,0.6367636919021606,0.7707322835922241,79.13329857336676,0.010699748992919922,130,0.000281109,-0.0002530592,0.0003782343567700751,-0.0007101836,0.00086082285,0.0011159645063708598,0.00019552546,0.0003237762,0.0007114998,0.00085973524,4.022287368774414,113.15388488769531
1779209840.0253127,7.357281684875488,hold-xy,16500,25.177386129549095,0.00024149125,0.001008487,0.0,0.007617017,-0.00075649587,0.00028526364,-0.00023426372,0.000369127113727221,0,0.00790228,-0.0009907596,0.038081497,0.011473806574940681,-0.01860778033733368,0.6366194486618042,0.7708682417869568,79.11046977748597,0.018826723098754883,131,0.00028526364,-0.00023426372,0.000369127113727221,-0.00048499485,0.00065746857,0.0008169975067269156,0.00017615453,0.00032438312,0.00055400643,0.000600468,4.022287368774414,113.09183502197266
1779209840.1093726,7.4413416385650635,hold-xy,16500,25.177386129549095,-0.0072975666,0.008597604,0.0,0.007617017,-0.00075649587,2.9448885e-05,0.00014380878,0.00014679305652992672,0,0.0076464657,-0.0006126871,0.037849955,0.0034292482305318117,-0.017810935154557228,0.6359409093856812,0.7715246677398682,79.01100097523464,0.009792804718017578,132,2.9448885e-05,0.00014380878,0.00014679305652992672,-0.0011638732,0.0016785869,0.0020426098754253853,-0.00014678543,1.4960024e-06,0.00142595,0.0014625053,4.022287368774414,113.06546020507812
1779209840.1915925,7.523561477661133,hold-xy,17000,25.940337224383917,-0.001828046,0.0013045351,0.0,0.007617017,-0.00075649587,0.00010167388,-4.027062e-05,0.00010935859359537563,0,0.0077186907,-0.0007967665,0.03784695,0.0045165205374360085,-0.015993822365999222,0.6365077495574951,0.7710912823677063,79.08854693015526,0.020206928253173828,133,0.00010167388,-4.027062e-05,0.00010935859359537563,-0.00051295955,0.00040593807,0.0006541507634341059,2.0296538e-05,0.0001074586,0.00030150008,0.0005805264,4.0170087814331055,113.03739166259766
1779209840.2559595,7.587928533554077,hold-xy,17000,25.940337224383917,-0.0018545609,-0.00091417274,0.0,0.007617017,-0.00075649587,6.192038e-05,-9.151478e-05,0.00011049474580731383,0,0.007678937,-0.00084801065,0.03790412,0.006235267501324415,-0.018316205590963364,0.6367611885070801,0.770818293094635,79.133409751596,0.011631250381469727,134,6.192038e-05,-9.151478e-05,0.00011049474580731383,-0.0005225705,7.3398856e-05,0.0005277000337718869,7.8200406e-05,7.80627e-05,-2.6433736e-05,0.0005270376,4.011730194091797,112.95529174804688
1779209840.3203125,7.6522815227508545,hold-xy,17000,25.940337224383917,0.0042288327,-0.0028168089,0.0,0.007617017,-0.00075649587,0.00022363523,-0.00018903869,0.00029282817484677434,0,0.007840652,-0.00094553456,0.037776228,0.004715295974165201,-0.015643838793039322,0.6362451314926147,0.7713139057159424,79.04831996175615,0.000400543212890625,135,0.00022363523,-0.00018903869,0.00029282817484677434,0.00027606467,-0.00033570392,0.00043463643213142674,0.00014310941,0.0002554761,-0.00027714294,-0.0003348143,4.011730194091797,112.95529174804688
1779209840.4245405,7.75650954246521,hold-xy,17500,26.70328831921874,0.0019416135,-0.001230164,0.0,0.007617017,-0.00075649587,0.00016451487,-0.00013150997,0.00021061817188577033,0,0.0077815317,-0.00088800583,0.037787214,0.0041273487731814384,-0.015412083826959133,0.6362630128860474,0.7713071703910828,79.05049912238775,0.010164022445678711,136,0.00016451487,-0.00013150997,0.00021061817188577033,5.491136e-06,-5.2293297e-05,5.258080968197797e-05,9.7867254e-05,0.00018649937,-5.0298288e-05,-1.5323954e-05,4.011730194091797,112.99700164794922
1779209840.4857612,7.817730188369751,hold-xy,17500,26.70328831921874,-0.007925059,0.008036092,0.0,0.007617017,-0.00075649587,-6.9122296e-05,0.00018980051,0.00020199536603245893,0,0.0075478945,-0.00056669535,0.03790909,0.0024029240012168884,-0.01843348890542984,0.6362475156784058,0.7712610363960266,79.05931117178913,0.008621931076049805,137,-6.9122296e-05,0.00018980051,0.00020199536603245893,-0.00111292,0.0014992288,0.0018671576846426478,-0.00017323182,-0.0001038887,0.0012607549,0.0013772345,4.006451606750488,113.02391815185547
1779209840.588418,7.920387029647827,hold-xy,18000,27.466239414053558,-0.0016350776,0.0045703324,0.0,0.007617017,-0.00075649587,7.8146346e-05,0.00010010763,0.00012699759561019425,0,0.007695163,-0.00065638823,0.037834886,0.002887388924136758,-0.015513399615883827,0.6359144449234009,0.7715981602668762,78.99952816729349,0.018494367599487305,138,7.8146346e-05,0.00010010763,0.00012699759561019425,-0.00030288,0.00075945596,0.0008176243895027841,-0.00011317988,5.7608213e-05,0.00068770675,0.00044223195,4.006451606750488,112.96846008300781
1779209840.6708395,8.002808570861816,hold-xy,18000,27.466239414053558,0.007142678,-0.00470773,0.0,0.007617017,-0.00075649587,0.0003062659,-0.00024360768,0.00039133553788539294,0,0.007923283,-0.0010001035,0.037807137,0.005948194768279791,-0.013744321651756763,0.636281430721283,0.7713116407394409,79.04764032077608,0.017773151397705078,139,0.0003062659,-0.00024360768,0.00039133553788539294,0.0006110968,-0.00070859224,0.0009357041420097516,0.00018098218,0.0003469711,-0.0005795816,-0.00073459337,4.00117301940918,112.95558166503906
1779209840.8959978,8.227966785430908,hold-xy,18500,28.22919050888838,0.0031686123,-0.00094922644,0.0,0.007617017,-0.00075649587,0.00016717752,-3.6753947e-05,0.00017117002196168155,0,0.0077841943,-0.0007932498,0.037752464,0.002452276647090912,-0.015189402736723423,0.635887086391449,0.771628737449646,78.99462209938906,0.006247758865356445,140,0.00016717752,-3.6753947e-05,0.00017117002196168155,0.00025147115,-0.00023382434,0.00034338252926381733,4.163634e-06,0.00017111938,-0.00018151801,-0.00029148374,3.995894432067871,112.8709945678711
1779209840.9580488,8.29001784324646,hold-xy,19000,28.9921416037232,0.006390733,-0.0039847344,0.0,0.007617017,-0.00075649587,0.00024198508,-0.00013652886,0.0002778433163155607,0,0.007859002,-0.0008930247,0.037748702,0.003339874790981412,-0.01499141100794077,0.6357944011688232,0.771705687046051,78.97991163160904,0.017551898956298828,141,0.00024198508,-0.00013652886,0.0002778433163155607,0.00061826885,-0.00075351534,0.0009747008452463505,8.77551e-05,0.00026362084,-0.0006214367,-0.00075090496,3.995894432067871,112.79113006591797
1779209841.0454974,8.377466440200806,hold-xy,19000,28.9921416037232,0.008490817,-0.0038727266,0.0,0.007617017,-0.00075649587,0.000358799,-0.00019172183,0.0004068095211702589,0,0.007975816,-0.0009482177,0.03775289,0.004742816556245089,-0.013778778724372387,0.6358028054237366,0.7717139720916748,78.97711124555515,0.009863138198852539,142,0.000358799,-0.00019172183,0.0004068095211702589,0.0008011417,-0.00070150266,0.0010648634278322105,0.00011958196,0.00038883692,-0.0005353814,-0.00092048943,3.995894432067871,112.77301025390625
1779209841.1292694,8.461238384246826,hold-xy,19500,29.755092698558023,-0.0026599024,0.006253833,0.0,0.007617017,-0.00075649587,5.957065e-05,0.00023105601,0.0002386117018907769,0,0.0076765874,-0.00052543986,0.037795126,0.0014382994268089533,-0.018285997211933136,0.6353000998497009,0.7720475196838379,78.91846676875478,0.0002815723419189453,143,5.957065e-05,0.00023105601,0.0002386117018907769,-0.0004007984,0.00086758327,0.0009556882574208099,-0.00023819771,1.40496595e-05,0.00077437115,0.0005600798,3.995894432067871,112.77301025390625
1779209841.2349677,8.566936731338501,hold-xy,19500,29.755092698558023,0.007298583,-0.004010924,0.0,0.007617017,-0.00075649587,0.00032085506,-0.0001564708,0.00035697491961354805,0,0.007937872,-0.0009129667,0.037733153,0.0036712910514324903,-0.013038886711001396,0.6356691718101501,0.7718427777290344,78.95567909214654,0.02057957649230957,144,0.00032085506,-0.0001564708,0.00035697491961354805,0.00063729845,-0.00075402163,0.0009872679314951729,9.21072e-05,0.00034488743,-0.0006179705,-0.00076994183,3.9906158447265625,112.7486801147461
1779209841.29658,8.628549098968506,hold-xy,19500,29.755092698558023,0.009329913,-0.006924123,0.0,0.007617017,-0.00075649587,0.0003986084,-0.00029871915,0.0004981182380949446,0,0.008015625,-0.001055215,0.037784874,0.00473093893378973,-0.012602453120052814,0.6357458829879761,0.7717810869216919,78.96557383674293,0.009998798370361328,145,0.0003986084,-0.00029871915,0.0004981182380949446,0.00076921436,-0.0011189309,0.0013578280318169511,0.0002169034,0.00044841354,-0.0009510178,-0.0009691554,3.9906158447265625,112.7197265625
1779209841.398975,8.73094391822815,hold-xy,20000,30.518043793392845,-0.002148368,0.005356316,0.0,0.007617017,-0.00075649587,8.2479324e-05,0.00021357648,0.00022894923824536898,0,0.007699496,-0.0005429194,0.037774723,0.001339363632723689,-0.017582440748810768,0.6353994011878967,0.7719823718070984,78.93066123691105,0.009241819381713867,146,8.2479324e-05,0.00021357648,0.00022894923824536898,-0.0003809593,0.0007066759,0.000802820569554154,-0.00022543878,3.9938837e-05,0.00062038563,0.00050955126,3.985337257385254,112.66239929199219
1779209841.4664557,8.79842472076416,hold-xy,20000,30.518043793392845,0.009246765,-0.008469051,0.0,0.007617017,-0.00075649587,0.00032505812,-0.00023416104,0.0004006172506274858,0,0.007942075,-0.0009906569,0.037738174,0.003349709790199995,-0.013671613298356533,0.6356204748153687,0.771873414516449,78.95026328651689,0.010982275009155273,147,0.00032505812,-0.00023416104,0.0004006172506274858,0.00084031443,-0.0015485357,0.001761843030816246,0.000167519,0.00036391147,-0.001358772,-0.00112153,3.985337257385254,112.67498779296875
1779209841.590902,8.922871112823486,hold-xy,20500,31.280994888227664,0.012011264,-0.009747942,0.0,0.007617017,-0.00075649587,0.0005003116,-0.00042785937,0.0006583124895074285,0,0.008117328,-0.0011843552,0.037739966,0.005465628579258919,-0.0118669793009758,0.6354354619979858,0.7720434665679932,78.91743957376472,0.0019376277923583984,148,0.0005003116,-0.00042785937,0.0006583124895074285,0.0009820745,-0.0015192813,0.001809056707745829,0.00032370875,0.0005732259,-0.0013021709,-0.0012558012,3.9800586700439453,112.64968872070312
1779209841.6319234,8.963892459869385,hold-xy,20500,31.280994888227664,-0.0062356815,0.009560126,0.0,0.007617017,-0.00075649587,0.00022733072,4.804693e-06,0.0002273814860249642,0,0.0078443475,-0.0007516912,0.037826337,0.0031549111008644104,-0.01473414059728384,0.6356083750724792,0.7718645334243774,78.95158408321873,0.002006053924560547,149,0.00022733072,4.804693e-06,0.0002273814860249642,-0.0013122653,0.002105977,0.0024813663749203843,-4.828094e-05,0.00022219651,0.0018154633,0.0016915293,3.9800586700439453,112.64968872070312
1779209841.7132509,9.045219898223877,hold-xy,20500,31.280994888227664,0.005508174,-0.0030802106,0.0,0.007617017,-0.00075649587,0.00045704888,-0.0003655475,0.0005852509380987488,0,0.008074066,-0.0011220434,0.037747696,0.00516502233222127,-0.013382460922002792,0.6354334950447083,0.7720223069190979,78.92103942485262,0.01208186149597168,150,0.00045704888,-0.0003655475,0.0005852509380987488,4.862662e-05,-8.515804e-05,9.806344930032694e-05,0.00027090765,0.0005187752,-7.42268e-05,-6.408449e-05,3.9800586700439453,112.61221313476562
1779209841.7742796,9.106248617172241,hold-xy,20500,31.280994888227664,0.010064429,-0.0054857153,0.0,0.007617017,-0.00075649587,0.0005754349,-0.0004636126,0.0007389600687361386,0,0.008192452,-0.0012201085,0.03776408,0.007024983409792185,-0.0115641038864851,0.6350167989730835,0.7723798155784607,78.85402936415736,0.01165628433227539,151,0.0005754349,-0.0004636126,0.0007389600687361386,0.00061196083,-0.00053833285,0.0008150449931016559,0.00034363102,0.00065420155,-0.0004098811,-0.00070448266,3.9800586700439453,112.63957214355469
1779209841.8563533,9.188322305679321,hold-xy,20500,31.280994888227664,-0.006711265,0.006369269,0.0,0.007617017,-0.00075649587,6.7636836e-05,7.405854e-05,0.00010029660222241925,0,0.0076846536,-0.0006824373,0.037902996,0.002754795830696821,-0.017362207174301147,0.6359814405441284,0.7715041041374207,79.01571363448592,0.0007600784301757812,152,6.7636836e-05,7.405854e-05,0.00010029660222241925,-0.001210216,0.0013581517,0.001819120322061615,-8.558926e-05,5.22866e-05,0.0011026753,0.0014468262,3.9800586700439453,112.64865112304688
1779209841.9638753,9.295844316482544,hold-xy,20500,31.280994888227664,0.0034417673,0.0008809925,0.0,0.007617017,-0.00075649587,0.00034463545,-0.00013206876,0.00036907419369142656,0,0.007961652,-0.0008885646,0.03784673,0.005772198084741831,-0.015064229257404804,0.6357206702232361,0.7717506289482117,78.96817900274908,0.01246023178100586,153,0.00034463545,-0.00013206876,0.00036907419369142656,2.0078849e-05,0.00030536077,0.0003060201957022889,6.368085e-05,0.00036353886,0.0003035602,3.8724233e-05,3.9747800827026367,112.5879135131836
1779209842.045482,9.377450942993164,hold-xy,21000,32.043945983062486,-0.0068589044,0.0058407807,0.0,0.007617017,-0.00075649587,-5.1441602e-06,0.00014737365,0.00014746340296586344,0,0.0076118726,-0.0006091222,0.037857283,0.0010654996149241924,-0.017133867368102074,0.635741114616394,0.7717114686965942,78.97990874516269,0.0009541511535644531,154,-5.1441602e-06,0.00014737365,0.00014746340296586344,-0.0011129004,0.0011140886,0.0015747192495772129,-0.00014367279,-3.3220247e-05,0.00088081055,0.0013053404,3.9747800827026367,112.52366638183594
1779209842.1470613,9.47903037071228,hold-xy,21000,32.043945983062486,0.006824079,-0.0021871463,0.0,0.007617017,-0.00075649587,0.0003819731,-0.00018684426,0.00042522257704057646,0,0.00799899,-0.0009433401,0.03783945,0.006079690530896187,-0.014979058876633644,0.6355952024459839,0.7718532681465149,78.94915853937385,0.011142253875732422,155,0.0003819731,-0.00018684426,0.00042522257704057646,0.000491716,-0.0003172375,0.0005851703174889825,0.000110163106,0.00041070467,-0.00021710302,-0.00054340647,3.969501495361328,112.55633544921875
1779209842.248592,9.58056092262268,hold-xy,21500,32.806897077897304,-0.003497282,0.0049154656,0.0,0.007617017,-0.00075649587,7.2375406e-05,0.00013966043,0.00015729983087340343,0,0.007689392,-0.00061683543,0.037865017,0.0019325364846736193,-0.017778759822249413,0.6357030272483826,0.7717265486717224,78.97620610186867,0.018619537353515625,156,7.2375406e-05,0.00013966043,0.00015729983087340343,-0.000643317,0.0008193799,0.001041748585150062,-0.00015092277,4.4334527e-05,0.0006812476,0.0007881255,3.969501495361328,112.58216094970703
1779209842.3304944,9.662463426589966,hold-xy,21500,32.806897077897304,0.0076250075,-0.0025699704,0.0,0.007617017,-0.00075649587,0.00039479556,-0.00017247978,0.00043082804589053455,0,0.008011812,-0.00092897564,0.037859015,0.005962263327091932,-0.014517048373818398,0.6356416344642639,0.7718247175216675,78.95475460267873,0.009185791015625,157,0.00039479556,-0.00017247978,0.00043082804589053455,0.00060868857,-0.00045167952,0.0007579684361562111,9.364823e-05,0.0004205268,-0.00032669763,-0.00068394793,3.969501495361328,112.58216094970703
1779209842.4354079,9.767376899719238,hold-xy,22000,33.56984817273213,0.013486655,-0.0078430865,0.0,0.007617017,-0.00075649587,0.00061283866,-0.00044255354,0.0007559265119074762,0,0.008229855,-0.0011990494,0.03782285,0.007786786183714867,-0.012493853457272053,0.6352171301841736,0.7721932530403137,78.88561436129493,0.019654035568237305,158,0.00061283866,-0.00044255354,0.0007559265119074762,0.0011186837,-0.0011740499,0.0016216801315468256,0.00031611725,0.0006866547,-0.0009363829,-0.0013240216,3.9642229080200195,112.58641815185547
1779209842.5210118,9.852980852127075,hold-xy,22000,33.56984817273213,0.0045497515,-0.0006535086,0.0,0.007617017,-0.00075649587,0.0004005325,-0.00018140534,0.00043969783689510374,0,0.008017549,-0.0009379012,0.03785559,0.005860727280378342,-0.01486160233616829,0.6352601647377014,0.7721329927444458,78.89916480374947,0.016350507736206055,159,0.0004005325,-0.00018140534,0.00043969783689510374,6.669515e-05,5.935598e-05,8.92825651950753e-05,0.00010089419,0.0004279656,7.108666e-05,-5.4019096e-05,3.9642229080200195,112.54405975341797
