wall_time_s,elapsed_s,mode,thrust_raw,thrust_percent,roll_cmd_deg,pitch_cmd_deg,yawrate_cmd_deg_s,target_x,target_y,figure8_active,mocap_x,mocap_y,mocap_z,mocap_qx,mocap_qy,mocap_qz,mocap_qw,yaw_deg,mocap_age_s,mocap_frame_count,drift_x_m,drift_y_m,horizontal_drift_m,velocity_x_m_s,velocity_y_m_s,horizontal_speed_m_s,body_error_x_m,body_error_y_m,body_velocity_x_m_s,body_velocity_y_m_s,battery_v,estimate_z
1779208292.0984848,0.0013082027435302734,figure8,0,0.0,0.0,-0.0,0.0,0.017932285,0.00036355783,0,0.017932285,0.00036355783,0.03741913,0.0054048835299909115,0.017828496173024178,-0.6583054065704346,-0.7525203824043274,82.37678144603338,0.009440183639526367,55,0.0,0.0,0.0,0.0,0.0,0.0,0.0,0.0,0.0,0.0,4.101466178894043,112.63343811035156
1779208292.1670122,0.06983566284179688,figure8,0,0.0,6.628713e-05,-0.0012796985,0.0,0.017932285,0.00036355783,0,0.017927935,0.00031027943,0.037454817,0.005749486852437258,0.015982117503881454,-0.6582915782928467,-0.7525714039802551,82.36790639454539,0.01119542121887207,56,-4.3492764e-06,-5.3278403e-05,5.3455630716306245e-05,-1.9540807e-05,-0.00023937383,0.00024017008763619995,5.338406e-05,2.7652422e-06,-0.00023984854,-1.24239195e-05,4.101466178894043,112.61885833740234
1779208292.2494211,0.15224456787109375,figure8,0,0.0,-0.002875667,0.00041344363,0.0,0.017932285,0.00036355783,0,0.017806612,0.00039003423,0.03747463,0.005641873925924301,0.016008416190743446,-0.6579729914665222,-0.7528502345085144,82.31948685497397,0.020292043685913086,57,-0.00012567267,2.6476395e-05,0.00012843137858013025,-0.00051014405,0.00015880163,0.0005342891470104582,-9.442823e-06,-0.00012808378,8.919667e-05,0.0005267911,4.101466178894043,112.55717468261719
1779208292.3309264,0.2337498664855957,figure8,0,0.0,0.00018251053,-0.00013572058,0.0,0.017932285,0.00036355783,0,0.017919606,0.00035331352,0.037420712,0.005051684100180864,0.018390454351902008,-0.6583766937255859,-0.7524469494819641,82.38978481664545,0.020478010177612305,58,-1.26790255e-05,-1.02443155e-05,1.6300419665738846e-05,5.9750804e-05,-2.4307425e-05,6.450588589334095e-05,1.18332055e-05,-1.1210661e-05,-1.6180336e-05,-6.244362e-05,4.101466178894043,112.64025115966797
1779208292.392974,0.29579734802246094,figure8,0,0.0,0.000115752264,-0.0002867517,0.0,0.017932285,0.00036355783,0,0.017918907,0.00034511602,0.037430484,0.005065877456218004,0.018457449972629547,-0.6583530902862549,-0.7524659633636475,82.38646396299326,0.0011258125305175781,59,-1.33775175e-05,-1.8441817e-05,2.278285701794467e-05,3.9251256e-05,-4.7227237e-05,6.140906111782679e-05,2.0051633e-05,-1.08162185e-05,-4.1610474e-05,-4.5162393e-05,4.101466178894043,112.64025115966797
1779208292.5767934,0.4796168804168701,figure8,0,0.0,-2.8538598e-05,-0.0004132932,0.0,0.017932285,0.00036355783,0,0.017910384,0.0003327839,0.037406117,0.005027668084949255,0.018761856481432915,-0.6583747267723083,-0.7524396181106567,82.39098410297171,0.018661022186279297,60,-2.1900982e-05,-3.0773925e-05,3.777151618426052e-05,1.2098366e-05,-5.53079e-05,5.661567311543069e-05,3.3402914e-05,-1.763329e-05,-5.3218926e-05,-1.9315286e-05,4.101466178894043,112.70572662353516
1779208292.5971608,0.4999842643737793,figure8,0,0.0,0.0017609635,-0.0002743991,0.0,0.017932285,0.00036355783,0,0.017938089,0.00033024745,0.037404545,0.005070775747299194,0.01833907701075077,-0.6584388613700867,-0.7523937225341797,82.39905012841001,0.018762588500976562,61,5.8040023e-06,-3.331038e-05,3.381224518979337e-05,0.00041859274,-7.626334e-05,0.000425483221750459,3.2249984e-05,1.0159063e-05,-2.0224797e-05,-0.00042500228,4.101466178894043,112.6796875
1779208292.678991,0.5818145275115967,figure8,0,0.0,0.0010293431,1.853286e-05,0.0,0.017932285,0.00036355783,0,0.017929155,0.0003445868,0.03740854,0.0049068499356508255,0.01930815353989601,-0.6583973169326782,-0.752406895160675,82.39666371282524,0.018472671508789062,62,-3.1292439e-06,-1.897104e-05,1.92273907316429e-05,0.00026038015,-1.0001095e-06,0.0002603820839873002,1.9218289e-05,-5.915947e-07,3.346065e-05,-0.00025822318,4.101466178894043,112.6796875
1779208292.7600286,0.6628520488739014,figure8,0,0.0,0.0008370898,0.0007300144,0.0,0.017932285,0.00036355783,0,0.017940518,0.0003829659,0.03737121,0.005249328911304474,0.017596416175365448,-0.6584736704826355,-0.7523797154426575,82.40147375746965,0.0072650909423828125,63,8.232892e-06,1.9408064e-05,2.108206456372019e-05,0.0002192181,0.00012411666,0.0002519157011444264,-2.0326284e-05,5.594252e-06,0.00015201418,-0.00020088107,4.101466178894043,112.70679473876953
1779208292.987495,0.8903183937072754,figure8,0,0.0,0.00039452783,0.00030753843,0.0,0.017932285,0.00036355783,0,0.01792054,0.0003647064,0.037410654,0.00517370505258441,0.01845594495534897,-0.658296525478363,-0.752514660358429,82.37786726745489,0.019759178161621094,64,-1.1743978e-05,1.1485536e-06,1.1800008000988232e-05,0.00012557437,6.139999e-05,0.00013978154647728428,4.193073e-07,-1.1792556e-05,7.751357e-05,-0.00011632079,4.101466178894043,112.67986297607422
1779208293.0280783,0.9309017658233643,figure8,0,0.0,0.00046876233,4.295452e-05,0.0,0.017932285,0.00036355783,0,0.017926902,0.00035803462,0.037407737,0.00538564333692193,0.01786746084690094,-0.658307671546936,-0.752517580986023,82.37727407135166,0.00979471206665039,65,-5.3830445e-06,-5.5232085e-06,7.712522405635521e-06,0.00012565401,3.3832694e-06,0.0001256995540761693,6.1884584e-06,-4.6028235e-06,2.0021318e-05,-0.00012409482,4.101466178894043,112.67033386230469
1779208293.109789,1.0126123428344727,figure8,0,0.0,0.00014274352,0.0002570441,0.0,0.017932285,0.00036355783,0,0.017919797,0.00037083798,0.03742801,0.004975467920303345,0.018812915310263634,-0.6583794951438904,-0.7524346113204956,82.39190880975696,0.007424116134643555,66,-1.2487173e-05,7.2801486e-06,1.4454412952911067e-05,6.2610416e-05,4.805042e-05,7.892342597630858e-05,-5.5628043e-06,-1.3341112e-05,5.591682e-05,-5.5697546e-05,4.101466178894043,112.6622314453125
1779208293.1913576,1.0941810607910156,figure8,0,0.0,-0.00035345857,0.00094856776,0.0,0.017932285,0.00036355783,0,0.01790547,0.00040654012,0.037452713,0.005004187114536762,0.018786273896694183,-0.6581798195838928,-0.7526096701622009,82.3614035033761,0.016952037811279297,67,-2.681464e-05,4.2982283e-05,5.0660649974146106e-05,-1.5836682e-05,0.00018230996,0.0001829965103956129,-3.903656e-05,-3.2290074e-05,0.0001785871,3.9929535e-05,4.101466178894043,112.6622314453125
1779208293.2725914,1.175414800643921,figure8,0,0.0,-0.00030000927,-0.00017273315,0.0,0.017932285,0.00036355783,0,0.017899865,0.00036273035,0.037409622,0.005199117120355368,0.018520213663578033,-0.658138632774353,-0.7526509761810303,82.3540937593362,0.015627622604370117,68,-3.241934e-05,-8.274801e-07,3.242989628403942e-05,-3.1452048e-05,-3.157904e-05,4.4569799089739805e-05,5.1335333e-06,-3.202101e-05,-3.548299e-05,2.6970807e-05,4.101466178894043,112.62725830078125
1779208293.3538654,1.2566888332366943,figure8,0,0.0,0.0002554048,0.00010540047,0.0,0.017932285,0.00036355783,0,0.017926296,0.0003706147,0.037420962,0.005151295568794012,0.018717600032687187,-0.6582893133163452,-0.752514660358429,82.37782522879796,0.01580953598022461,69,-5.988404e-06,7.056864e-06,9.25528563453486e-06,7.576472e-05,7.0627757e-06,7.609320530970318e-05,-6.200209e-06,-6.8715144e-06,1.7049802e-05,-7.415847e-05,4.101466178894043,112.62532043457031
1779208293.434829,1.3376524448394775,figure8,0,0.0,0.00020620823,-0.00079827884,0.0,0.017932285,0.00036355783,0,0.017922537,0.0003279387,0.03740169,0.005139682907611132,0.018683668226003647,-0.6583545804023743,-0.7524584531784058,82.38762168032672,0.014785528182983398,70,-9.747222e-06,-3.561913e-05,3.6928725877784525e-05,3.9281455e-05,-0.00015121132,0.00015623026642958574,3.6596437e-05,-4.942834e-06,-0.00014467505,-5.896631e-05,4.101466178894043,112.67779541015625
1779208293.4972076,1.4000310897827148,figure8,0,0.0,-0.00040489165,-0.00020666991,0.0,0.017932285,0.00036355783,0,0.017901516,0.0003492129,0.037438903,0.0049301497638225555,0.01916748844087124,-0.6582368612289429,-0.7525506615638733,82.3716474293666,0.005927324295043945,71,-3.0769035e-05,-1.4344929e-05,3.3948645502504355e-05,-6.103223e-05,-1.6255799e-05,6.315998807921337e-05,1.830247e-05,-2.8592483e-05,-2.4213772e-05,5.8334186e-05,4.101466178894043,112.65943145751953
1779208293.5821528,1.4849762916564941,figure8,0,0.0,-0.00013168399,-0.0003093183,0.0,0.017932285,0.00036355783,0,0.017910577,0.00034145545,0.03742511,0.00509454682469368,0.018780959770083427,-0.65855872631073,-0.752277672290802,82.41909785714952,0.007092475891113281,72,-2.1707267e-05,-2.210238e-05,3.097935822923803e-05,-1.0274136e-05,-3.9156977e-05,4.0482425087678256e-05,2.477295e-05,-1.8601657e-05,-4.0170155e-05,5.018513e-06,4.101466178894043,112.65943145751953
1779208293.664671,1.5674943923950195,figure8,0,0.0,-0.0013529717,0.0007850345,0.0,0.017932285,0.00036355783,0,0.01785754,0.00040053134,0.037426643,0.0050544943660497665,0.018731189891695976,-0.658158540725708,-0.7526294589042664,82.3579513431877,0.005793571472167969,73,-7.4744225e-05,3.6973506e-05,8.338908419033816e-05,-0.00019702317,0.00018403606,0.0002696060073713784,-2.6705344e-05,-7.899723e-05,0.00015620061,0.00021974706,4.101466178894043,112.67443084716797
1779208293.746006,1.648829460144043,figure8,0,0.0,-6.031942e-05,-0.00012062995,0.0,0.017932285,0.00036355783,0,0.017902428,0.0003593173,0.037413586,0.004765952471643686,0.019340818747878075,-0.6584777235984802,-0.7523365020751953,82.40901283508911,0.004900932312011719,74,-2.985634e-05,-4.2405445e-06,3.0155981751242254e-05,2.585299e-05,-2.1540327e-05,3.3650599848110085e-05,8.147417e-06,-2.903451e-05,-1.7936361e-05,-2.847191e-05,4.101466178894043,112.65682220458984
1779208293.8480556,1.7508790493011475,figure8,0,0.0,0.00015550945,-0.00046192177,0.0,0.017932285,0.00036355783,0,0.01791289,0.000338763,0.037415635,0.004910313989967108,0.018907301127910614,-0.6584854125976562,-0.7523398995399475,82.40841094546673,0.015372753143310547,75,-1.9393861e-05,-2.4794834e-05,3.147865276360873e-05,5.237117e-05,-8.2412116e-05,9.764474767070812e-05,2.7139646e-05,-1.5948206e-05,-7.477097e-05,-6.279967e-05,4.101466178894043,112.66509246826172
1779208293.9305136,1.8333370685577393,figure8,0,0.0,-0.0005698356,-0.00029232132,0.0,0.017932285,0.00036355783,0,0.017879002,0.00034760288,0.03746949,0.0057158577255904675,0.016573304310441017,-0.658362627029419,-0.7524967789649963,82.38082825641968,0.003367900848388672,76,-5.3282827e-05,-1.5954953e-05,5.562032226499447e-05,-7.09665e-05,-2.9614335e-05,7.689767298293307e-05,2.2878758e-05,-5.069697e-05,-3.8762188e-05,6.641344e-05,4.096187591552734,112.65105438232422
1779208294.0388515,1.9416749477386475,figure8,0,0.0,7.858948e-05,-0.0006713184,0.0,0.017932285,0.00036355783,0,0.017905533,0.00032161083,0.03739788,0.00502735935151577,0.018718935549259186,-0.6584169864654541,-0.752403736114502,82.39724403036102,0.020295143127441406,77,-2.675131e-05,-4.1947e-05,4.975121720748233e-05,3.739708e-05,-0.00010603318,0.00011243476630631131,4.511756e-05,-2.0966385e-05,-0.000100153266,-5.1096948e-05,4.101466178894043,112.60154724121094
1779208294.1223314,2.0251548290252686,figure8,0,0.0,-0.00020728455,0.00011576888,0.0,0.017932285,0.00036355783,0,0.0178984,0.0003582905,0.03740483,0.004892504308372736,0.019078155979514122,-0.6583998203277588,-0.7524106502532959,82.39607997154997,0.010259389877319336,78,-3.388524e-05,-5.2673277e-06,3.429218894861188e-05,3.2921635e-06,4.34459e-05,4.35704551348878e-05,9.704847e-06,-3.289027e-05,4.349949e-05,2.4857304e-06,4.101466178894043,112.60526275634766
1779208294.2241106,2.126934051513672,figure8,0,0.0,-0.00013621787,-0.00023904908,0.0,0.017932285,0.00036355783,0,0.017899837,0.00034205895,0.037410147,0.005261561367660761,0.017911875620484352,-0.6583014130592346,-0.7525229454040527,82.37647045646473,0.019953489303588867,79,-3.244728e-05,-2.1498883e-05,3.892335763914741e-05,6.9891867e-06,-2.246793e-05,2.352990788419723e-05,2.5613426e-05,-2.9308367e-05,-2.134213e-05,-9.9080835e-06,4.101466178894043,112.67827606201172
1779208294.3058424,2.2086658477783203,figure8,0,0.0,-0.00074658403,-0.0006762864,0.0,0.017932285,0.00036355783,0,0.017865233,0.00032197824,0.037468992,0.006039043422788382,0.01555555034428835,-0.6585177183151245,-0.7523801922798157,82.40090853999675,0.008729934692382812,80,-6.70515e-05,-4.1579595e-05,7.889718930383528e-05,-0.00010678771,-8.053516e-05,0.00013375173383837197,5.0081362e-05,-6.0964114e-05,-9.394955e-05,9.519984e-05,4.101466178894043,112.71392059326172
1779208294.412475,2.315298557281494,figure8,0,0.0,-8.890619e-05,0.00013762107,0.0,0.017932285,0.00036355783,0,0.017899131,0.00035543507,0.03743267,0.00469142384827137,0.019107135012745857,-0.6585321426391602,-0.7522953748703003,82.41630635825612,0.020311594009399414,81,-3.315322e-05,-8.122763e-06,3.4133785865949416e-05,3.2238306e-05,4.9221806e-05,5.88395667131849e-05,1.2427086e-05,-3.1791238e-05,5.3045896e-05,-2.5460311e-05,4.101466178894043,112.70899963378906
1779208294.4964778,2.399301290512085,figure8,0,0.0,-0.00027878096,0.00023331342,0.0,0.017932285,0.00036355783,0,0.017891712,0.00036516413,0.03741944,0.005179921630769968,0.018558397889137268,-0.658201277256012,-0.7525953650474548,82.36378047608082,0.007692575454711914,82,-4.0572137e-05,1.6062986e-06,4.0603921190087e-05,-4.6811147e-07,6.466294e-05,6.466463588507671e-05,3.7992922e-06,-4.0425784e-05,6.402729e-05,9.0565645e-06,4.096187591552734,112.68220520019531
1779208294.5998752,2.5026986598968506,figure8,0,0.0,0.0008507445,0.00050030346,0.0,0.017932285,0.00036355783,0,0.017952329,0.0003752606,0.03737078,0.0051492564380168915,0.018965836614370346,-0.6582533121109009,-0.7525399327278137,82.37336324190542,0.019092321395874023,83,2.0043924e-05,1.1702767e-05,2.3210205282615816e-05,0.00019733851,7.8188175e-05,0.00021226369744104429,-1.4259416e-05,1.8313456e-05,0.00010368673,-0.00018521593,4.101466178894043,112.65737915039062
1779208294.6873744,2.590197801589966,figure8,0,0.0,-0.0003304566,-0.00048340837,0.0,0.017932285,0.00036355783,0,0.017898992,0.00033896416,0.03742307,0.005912072956562042,0.015687013044953346,-0.6583279967308044,-0.7525445818901062,82.37245279014815,0.02062058448791504,84,-3.329292e-05,-2.4593668e-05,4.1391629259259585e-05,-4.798484e-05,-7.192665e-05,8.646379490166835e-05,2.8795126e-05,-2.9733948e-05,-7.76594e-05,3.8013226e-05,4.101466178894043,112.65737915039062
1779208294.755479,2.6583025455474854,figure8,0,0.0,0.0006953398,0.00040164372,0.0,0.017932285,0.00036355783,0,0.017950598,0.0003703537,0.037352525,0.005412711296230555,0.018105505034327507,-0.6583088636398315,-0.7525107860565186,82.37839773644382,0.007979154586791992,85,1.8313527e-05,6.795861e-06,1.9533791199348406e-05,0.00015814645,6.6274326e-05,0.0001714718154072399,-9.164748e-06,1.72504e-05,8.666381e-05,-0.00014795935,4.096187591552734,112.66262817382812
1779208294.837208,2.7400314807891846,figure8,0,0.0,-0.0003972226,0.0008068704,0.0,0.017932285,0.00036355783,0,0.017909737,0.00040085125,0.037366908,0.00534127838909626,0.01867046020925045,-0.6581238508224487,-0.7526592016220093,82.35248352809592,0.007138490676879883,86,-2.254732e-05,3.7293416e-05,4.357958660342387e-05,-3.775715e-05,0.00015719875,0.0001616695699807673,-3.3961147e-05,-2.730972e-05,0.00015077589,5.8341073e-05,4.096187591552734,112.69120788574219
1779208294.921516,2.8243393898010254,figure8,0,0.0,0.00066665374,-0.0004967944,0.0,0.017932285,0.00036355783,0,0.01794847,0.00034314487,0.037358593,0.005404460709542036,0.017946315929293633,-0.6581506729125977,-0.7526529431343079,82.35368535188806,0.014398336410522461,87,1.6184524e-05,-2.0412961e-05,2.6050485995562837e-05,0.00012437916,-0.00011465067,0.00016915954653975342,1.807798e-05,1.8756717e-05,-9.708163e-05,-0.00013852835,4.096187591552734,112.66077423095703
1779208294.9851363,2.8879597187042236,figure8,0,0.0,-3.217806e-05,0.00018226873,0.0,0.017932285,0.00036355783,0,0.017929174,0.00036991085,0.037369974,0.0055447970516979694,0.01808982901275158,-0.658177375793457,-0.7526251077651978,82.35834332030113,0.009363412857055664,88,-3.1106174e-06,6.353017e-06,7.073667110977265e-06,2.75224e-06,3.6702717e-05,3.680576408184258e-05,-5.8829564e-06,-3.9277975e-06,3.674275e-05,2.1528194e-06,4.096187591552734,112.66077423095703
1779208295.0868611,2.989684581756592,figure8,0,0.0,0.00044756057,0.0003028668,0.0,0.017932285,0.00036355783,0,0.01795536,0.00037518423,0.037373874,0.005484039895236492,0.018296314403414726,-0.658083438873291,-0.7527027130126953,82.34485234554076,0.01805853843688965,89,2.3074448e-05,1.1626398e-05,2.5838020550546974e-05,8.636752e-05,4.269737e-05,9.634528503563092e-05,-1.4596537e-05,2.1320047e-05,5.3821892e-05,-7.991007e-05,4.101466178894043,112.65206146240234
1779208295.148313,3.0511364936828613,figure8,0,0.0,-0.0005257703,0.0018167922,0.0,0.017932285,0.00036355783,0,0.017926246,0.00044954382,0.03741382,0.005577776115387678,0.01794033870100975,-0.6578883528709412,-0.7528811097145081,82.31377062109996,0.007277011871337891,90,-6.0386956e-06,8.598599e-05,8.619777074740958e-05,-6.0455477e-05,0.00033871847,0.00034407130071730706,-8.440577e-05,-1.7484896e-05,0.0003275894,0.00010521523,4.096187591552734,112.60150146484375
1779208295.3611596,3.2639830112457275,figure8,0,0.0,-0.0008891901,0.00025709742,0.0,0.017932285,0.00036355783,0,0.017872144,0.00035752938,0.03742791,0.0060908556915819645,0.015546946786344051,-0.6581025719642639,-0.752743124961853,82.33768372408554,0.015221834182739258,91,-6.0141087e-05,-6.028451e-06,6.044247312411676e-05,-0.00012153105,0.00010238304,0.0001589090347175858,1.3993498e-05,-5.880029e-05,8.5264604e-05,0.00013409709,4.101466178894043,112.61831665039062
1779208295.4233956,3.326219081878662,figure8,0,0.0,0.00029197324,-0.00020011888,0.0,0.017932285,0.00036355783,0,0.017910007,0.00033838162,0.03741012,0.0055782245472073555,0.017893975600600243,-0.6584020853042603,-0.7524330019950867,82.3917922202069,0.015795230865478516,92,-2.2277236e-05,-2.517621e-05,3.3617211201389236e-05,9.914272e-05,-2.148917e-05,0.00010144488159077716,2.7904043e-05,-1.874783e-05,-8.173655e-06,-0.00010111506,4.096187591552734,112.5689697265625
1779208295.6314378,3.5342612266540527,figure8,0,0.0,-3.3515927e-05,-0.0001238688,0.0,0.017932285,0.00036355783,0,0.017893016,0.0003465349,0.03743591,0.006044473499059677,0.015132802538573742,-0.6581250429153442,-0.7527322769165039,82.33970005717813,0.0015344619750976562,93,-3.9268285e-05,-1.7022947e-05,4.279928680182572e-05,4.647031e-05,-4.039508e-06,4.664555213676664e-05,2.2105472e-05,-3.6648697e-05,2.1910105e-06,-4.6594065e-05,4.096187591552734,112.54769134521484
1779208295.712695,3.61551833152771,figure8,0,0.0,0.0004965584,0.00029226195,0.0,0.017932285,0.00036355783,0,0.017923629,0.00036275224,0.037403475,0.00537711288779974,0.018073316663503647,-0.65824294090271,-0.7525693774223328,82.36822557136828,0.0016613006591796875,94,-8.655712e-06,-8.05594e-07,8.69311956510882e-06,0.00014572707,5.7140176e-05,0.00015652916247041516,1.9479892e-06,-8.472052e-06,7.598747e-05,-0.00013684767,4.096187591552734,112.54507446289062
1779208295.7945573,3.697380781173706,figure8,0,0.0,0.00050365046,0.0005170885,0.0,0.017932285,0.00036355783,0,0.017933099,0.00037573557,0.03739938,0.005743665620684624,0.01706932671368122,-0.658226490020752,-0.752604603767395,82.36193501693089,0.010205745697021484,95,8.1397593e-07,1.2177741e-05,1.2204914081058136e-05,0.00014075669,9.312287e-05,0.00016877296984663104,-1.2177883e-05,-8.118492e-07,0.0001110053,-0.00012713039,4.096187591552734,112.55545043945312
1779208295.8773088,3.780132293701172,figure8,0,0.0,-0.00028246068,0.00017799142,0.0,0.017932285,0.00036355783,0,0.017898515,0.00036940328,0.037392996,0.0053889695554971695,0.018266068771481514,-0.6584226489067078,-0.7524073719978333,82.39635484591948,0.00030684471130371094,96,-3.3769757e-05,5.845446e-06,3.427193701777593e-05,-1.3451689e-05,4.468218e-05,4.6663102266192466e-05,-1.3256522e-06,-3.424629e-05,4.2509375e-05,1.924573e-05,4.096187591552734,112.55545043945312
1779208295.9801977,3.883021116256714,figure8,0,0.0,-0.00091549265,-0.00101058,0.0,0.017932285,0.00036355783,0,0.017859433,0.00031862408,0.03742637,0.006378896068781614,0.015113241039216518,-0.6584699749946594,-0.7524282336235046,82.39219730153754,0.020402193069458008,97,-7.285178e-05,-4.4933753e-05,8.559452942742064e-05,-0.00015102887,-0.0001527196,0.00021478593084722585,5.4183172e-05,-6.626166e-05,-0.00017137022,0.00012948067,4.096187591552734,112.52471923828125
1779208296.0412838,3.9441072940826416,figure8,0,0.0,-0.00022818393,0.0009924757,0.0,0.017932285,0.00036355783,0,0.017896207,0.00040079514,0.03740818,0.00518607534468174,0.018312208354473114,-0.6581655740737915,-0.7526325583457947,82.35735617797597,0.0005447864532470703,98,-3.6077574e-05,3.7237303e-05,5.184793246181807e-05,3.0575473e-05,0.00019764566,0.00019999666869543504,-3.210841e-05,-4.070943e-05,0.0001999563,-4.018162e-06,4.096187591552734,112.5670166015625
1779208296.1234157,4.0262391567230225,figure8,0,0.0,0.00091505423,0.00072182505,0.0,0.017932285,0.00036355783,0,0.017951407,0.0003918754,0.0374157,0.005216089077293873,0.018197685480117798,-0.6581299901008606,-0.7526662945747375,82.3514898788817,0.0001499652862548828,99,1.9121915e-05,2.8317561e-05,3.416916517824056e-05,0.00022206335,0.000105927014,0.0002460338662182197,-3.0610667e-05,1.5182851e-05,0.00013454026,-0.00020598929,4.096187591552734,112.58042907714844
1779208296.2266734,4.129496812820435,figure8,0,0.0,0.00017129659,0.00054627686,0.0,0.017932285,0.00036355783,0,0.017926615,0.00039449334,0.037397247,0.005721445195376873,0.017719199880957603,-0.6582444310188293,-0.7525740265846252,82.36713613885433,0.017280101776123047,100,-5.669892e-06,3.093551e-05,3.145080962128619e-05,6.9089336e-05,8.326776e-05,0.00010819822516615319,-2.9908302e-05,-9.72866e-06,9.170676e-05,-5.741714e-05,4.096187591552734,112.59272003173828
1779208296.290204,4.193027496337891,figure8,0,0.0,-7.953023e-05,0.00041837583,0.0,0.017932285,0.00036355783,0,0.017918639,0.00039477693,0.037412476,0.005495712161064148,0.018036017194390297,-0.6579817533493042,-0.7527979016304016,82.3283456366937,0.009673357009887695,101,-1.3645738e-05,3.1219097e-05,3.4071075758480536e-05,1.47268765e-05,5.9483373e-05,6.127930020234461e-05,-2.9118017e-05,-1.7691222e-05,6.0916936e-05,-6.6542743e-06,4.096187591552734,112.59272003173828
1779208296.3729675,4.2757909297943115,figure8,0,0.0,-0.00054035115,-0.0002636727,0.0,0.017932285,0.00036355783,0,0.017895197,0.00037074508,0.037371114,0.00545914750546217,0.01788078434765339,-0.658173143863678,-0.7526344060897827,82.35686005236991,0.02018570899963379,102,-3.7087128e-05,7.187249e-06,3.7777131324063814e-05,-8.702422e-05,-5.8146372e-05,0.00010466238728697401,-2.1907085e-06,-3.7713555e-05,-6.920424e-05,7.851745e-05,4.101466178894043,112.5602035522461
1779208296.4577086,4.36053204536438,figure8,0,0.0,0.0005222711,8.919444e-05,0.0,0.017932285,0.00036355783,0,0.0179509,0.00037851557,0.037397034,0.0050978814251720905,0.018964052200317383,-0.6583382487297058,-0.7524660229682922,82.38627681607117,0.0038733482360839844,103,1.8615276e-05,1.4957739e-05,2.388016851644648e-05,0.00010444819,-1.7634009e-05,0.00010592630855961815,-1.7292277e-05,1.6469352e-05,-3.639807e-06,-0.00010586375,4.096187591552734,112.50830078125
1779208296.5590656,4.461889028549194,figure8,0,0.0,3.9762068e-05,-0.00041504888,0.0,0.017932285,0.00036355783,0,0.017928962,0.00035464112,0.037407916,0.005371862556785345,0.018027324229478836,-0.6581552624702454,-0.7526471614837646,82.35469501179355,0.013924598693847656,104,-3.322959e-06,-8.916715e-06,9.51576934442301e-06,1.0320509e-06,-9.078726e-05,9.079312609987098e-05,9.279538e-06,-2.107139e-06,-8.984291e-05,-1.3101226e-05,4.096187591552734,112.5057373046875
1779208296.6407852,4.543608665466309,figure8,0,0.0,-0.00067303295,0.00029650296,0.0,0.017932285,0.00036355783,0,0.017899334,0.0003881948,0.03744362,0.005349865183234215,0.01800960674881935,-0.6580284237861633,-0.752758800983429,82.33531546201135,0.013472318649291992,105,-3.2950193e-05,2.4636975e-05,4.114238400159885e-05,-0.00010744311,5.8949503e-05,0.00012255230262652288,-2.0022115e-05,-3.5941768e-05,4.4092565e-05,0.00011434559,4.096187591552734,112.51139068603516
1779208296.7421556,4.644979000091553,figure8,0,0.0,-0.0012299829,0.00048439266,0.0,0.017932285,0.00036355783,0,0.017864186,0.0004059826,0.037431918,0.004878181032836437,0.019001564010977745,-0.657830536365509,-0.7529104948043823,82.30909893237074,0.0199892520904541,106,-6.809831e-05,4.242477e-05,8.023241563363757e-05,-0.00018637576,9.752346e-05,0.00021034911519592864,-3.292962e-05,-7.3163385e-05,7.170373e-05,0.00019775066,4.096187591552734,112.47557830810547
1779208296.8232734,4.726096868515015,figure8,0,0.0,7.693116e-05,-0.0005257354,0.0,0.017932285,0.00036355783,0,0.01791339,0.0003503561,0.03742874,0.006136718206107616,0.015338769182562828,-0.658148467540741,-0.7527069449424744,82.34397030381335,0.009055137634277344,107,-1.8894672e-05,-1.320173e-05,2.304982303304094e-05,2.9892995e-05,-0.00011302191,0.00011690826597463133,1.5601301e-05,-1.6967431e-05,-0.00010803189,-4.4683937e-05,4.096187591552734,112.46086883544922
1779208296.9128969,4.815720319747925,figure8,1000,1.525902189669642,5.4576078e-05,0.00027251084,0.0,0.017932285,0.00036355783,0,0.017919721,0.00038511166,0.03741886,0.005039154551923275,0.01875523291528225,-0.6582175493240356,-0.7525772452354431,82.36702847212128,0.005994081497192383,108,-1.25635415e-05,2.1553831e-05,2.4948150922727494e-05,4.1417617e-05,3.338101e-05,5.319502503045212e-05,-1.9694073e-05,-1.5315145e-05,3.85866e-05,-3.6616737e-05,4.096187591552734,112.49315643310547
1779208297.0160263,4.91884970664978,figure8,1000,1.525902189669642,0.00031225715,-2.7724462e-05,0.0,0.017932285,0.00036355783,0,0.017933633,0.00036980025,0.037408885,0.005517307203263044,0.017919139936566353,-0.6580896377563477,-0.7527061700820923,82.34431099743468,0.017253875732421875,109,1.3485551e-06,6.2424224e-06,6.386425974518297e-06,7.442226e-05,-2.6632673e-05,7.904411655339019e-05,-6.366435e-06,5.049208e-07,-1.6480768e-05,-7.7306904e-05,4.096187591552734,112.5714111328125
1779208297.097385,5.000208377838135,figure8,1000,1.525902189669642,-0.00019531182,-0.0010763635,0.0,0.017932285,0.00036355783,0,0.017904678,0.00031718705,0.037410595,0.0052334899082779884,0.01859459839761257,-0.6584113240242004,-0.7524104118347168,82.39592050969269,0.006879568099975586,110,-2.7606264e-05,-4.6370784e-05,5.396624172438094e-05,-4.259715e-05,-0.00019070707,0.00019540650785049058,4.9616057e-05,-2.1227394e-05,-0.00019466678,1.6986865e-05,4.096187591552734,112.60945892333984
1779208297.199584,5.102407455444336,figure8,2000,3.051804379339284,-0.00028054503,0.00023433985,0.0,0.017932285,0.00036355783,0,0.01790681,0.0003778562,0.037401944,0.005458568688482046,0.01798872835934162,-0.6582135558128357,-0.7525965571403503,82.3634356421259,0.007643938064575195,111,-2.5475398e-05,1.4298363e-05,2.921367996624859e-05,-2.3515822e-05,4.5938155e-05,5.160724773293917e-05,-1.07861515e-05,-2.714955e-05,4.2405736e-05,2.941193e-05,4.096187591552734,112.59725189208984
1779208297.2810478,5.183871269226074,figure8,3000,4.577706569008926,-0.00042932638,-0.00035772432,0.0,0.017932285,0.00036355783,0,0.01789445,0.00035298336,0.03744797,0.006309818010777235,0.014843082055449486,-0.6582884788513184,-0.7525929808616638,82.36366230798242,0.0068111419677734375,112,-3.783405e-05,-1.0574469e-05,3.928402539430136e-05,-6.151269e-05,-5.8513495e-05,8.489782509874403e-05,1.5508267e-05,-3.609333e-05,-6.616868e-05,5.31916e-05,4.096187591552734,112.59725189208984
1779208297.3833737,5.286197185516357,figure8,3000,4.577706569008926,-0.00089101784,0.0010234006,0.0,0.017932285,0.00036355783,0,0.017876122,0.00042482186,0.03741628,0.0048755318857729435,0.019319990649819374,-0.6579253673553467,-0.7528194785118103,82.32485786096427,0.01639103889465332,113,-5.6162477e-05,6.126403e-05,8.311139988218587e-05,-0.000102344755,0.00019141225,0.0002170555250991054,-5.3214328e-05,-6.384152e-05,0.00017602867,0.00012699218,4.096187591552734,112.58448791503906
1779208297.445258,5.348081350326538,figure8,3000,4.577706569008926,0.00056206575,-0.0006292447,0.0,0.017932285,0.00036355783,0,0.017924994,0.0003534872,0.037420996,0.005257186479866505,0.018575578927993774,-0.6583724021911621,-0.7524448037147522,82.38992196698285,0.005340099334716797,114,-7.290393e-06,-1.0070624e-05,1.2432509939706859e-05,0.00012938157,-0.00015942838,0.00020532169367254346,1.0947397e-05,-5.8925216e-06,-0.00014089009,-0.00014935523,4.096187591552734,112.59603881835938
1779208297.5268126,5.429636001586914,figure8,4000,6.103608758678568,-4.4434863e-05,-0.00068087445,0.0,0.017932285,0.00036355783,0,0.017905042,0.00034634257,0.037430402,0.005289959721267223,0.018103281036019325,-0.6583310961723328,-0.7524921298027039,82.38174764600672,0.015018701553344727,115,-2.7243048e-05,-1.7215265e-05,3.2226526721891715e-05,7.2876646e-06,-0.00014142055,0.00014160819271921623,2.0674981e-05,-2.472032e-05,-0.00013920614,-2.5971765e-05,4.096187591552734,112.59151458740234
1779208297.587863,5.490686416625977,figure8,4000,6.103608758678568,-0.0001370926,-0.0009721439,0.0,0.017932285,0.00036355783,0,0.017899733,0.00032682158,0.037429184,0.0048723709769546986,0.01952235959470272,-0.6584381461143494,-0.7523658275604248,82.40377875468029,0.0048885345458984375,116,-3.2551587e-05,-3.673625e-05,4.9083174145707136e-05,-1.7272176e-05,-0.00018126817,0.00018208920465448064,4.071689e-05,-2.7409718e-05,-0.00018196064,-6.8414247e-06,4.096187591552734,112.59151458740234
1779208297.6896393,5.592462778091431,figure8,4000,6.103608758678568,-0.0004250242,0.0003297661,0.0,0.017932285,0.00036355783,0,0.017892662,0.0003855175,0.037423752,0.005349262151867151,0.018751801922917366,-0.6582875847816467,-0.7525138854980469,82.37774386556634,0.013867616653442383,117,-3.9622188e-05,2.1959655e-05,4.530059858680586e-05,-3.4948738e-05,6.286755e-05,7.19287370362384e-05,-1.651008e-05,-4.218485e-05,5.7676407e-05,4.2978776e-05,4.096187591552734,112.5129165649414
1779208297.7911134,5.693936824798584,figure8,5000,7.629510948348211,-0.00038950652,1.1511138e-06,0.0,0.017932285,0.00036355783,0,0.017889842,0.00037123123,0.037414625,0.005270198918879032,0.018708471208810806,-0.6581329703330994,-0.7526509165763855,82.35401285388453,0.01396322250366211,118,-4.2442232e-05,7.6733995e-06,4.3130315160930104e-05,-3.2809217e-05,1.7312668e-06,3.285486235316048e-05,-1.9581557e-06,-4.308584e-05,-2.6494552e-06,3.2747863e-05,4.096187591552734,112.48458862304688
1779208297.8723168,5.775140285491943,figure8,5000,7.629510948348211,0.0008880978,0.00064307975,0.0,0.017932285,0.00036355783,0,0.017959578,0.00039611198,0.037386265,0.005502073559910059,0.018193073570728302,-0.6581118702888489,-0.752680242061615,82.34877254354147,0.0015532970428466797,119,2.729334e-05,3.2554148e-05,4.248174707821568e-05,0.00020051305,8.094647e-05,0.00021623555534951603,-3.5898218e-05,2.2716002e-05,0.00010692261,-0.00018795044,4.096187591552734,112.4720230102539
1779208298.370824,6.2736475467681885,figure8,7000,10.681315327687495,0.0003780775,0.00041164324,0.0,0.017932285,0.00036355783,0,0.017927503,0.00038915128,0.037407994,0.005636724643409252,0.017650846391916275,-0.6582505702972412,-0.7525708675384521,82.36778958923247,0.12763285636901855,123,-4.78141e-06,2.5593443e-05,2.6036247648702492e-05,0.0001145221,5.1055504e-05,0.00012538730641290628,-2.4731675e-05,-8.1382095e-06,6.58133e-05,-0.000106726686,4.096187591552734,112.46989440917969
1779208298.3936574,6.296480894088745,figure8,8000,12.207217517357137,0.00024802278,-7.583552e-05,0.0,0.017932285,0.00036355783,0,0.017923487,0.00036026211,0.037399974,0.00510092917829752,0.018899992108345032,-0.6580876111984253,-0.7526867985725403,82.34785497527838,0.0006310939788818359,124,-8.797273e-06,-3.2957178e-06,9.39434752427097e-06,7.21249e-05,-2.2103053e-05,7.54357123683526e-05,4.4378e-06,-8.280078e-06,-1.2302181e-05,-7.4425814e-05,4.096187591552734,112.46989440917969
1779208298.4363294,6.339152812957764,figure8,8000,12.207217517357137,-0.0015087738,-5.137841e-05,0.0,0.017932285,0.00036355783,0,0.017876681,0.00036679395,0.037393127,0.005326199345290661,0.01885969378054142,-0.6583855748176575,-0.7524256706237793,82.39310251560757,0.0023233890533447266,125,-5.5603683e-05,3.2361131e-06,5.569777391266614e-05,-0.00029216878,3.2345517e-05,0.0002939537924394686,4.1529433e-06,-5.5542732e-05,-6.615188e-06,0.00029387933,4.096187591552734,112.46989440917969
1779208298.5008144,6.403637886047363,figure8,9000,13.733119707026779,-0.0014451037,-0.0017675166,0.0,0.017932285,0.00036355783,0,0.017859349,0.00031051598,0.037443854,0.0061601088382303715,0.015214196406304836,-0.6585026383399963,-0.7523995041847229,82.39747671419985,0.01614975929260254,126,-7.2935596e-05,-5.3041847e-05,9.018336393733054e-05,-0.00030715746,-0.0003106353,0.0004368523918184021,6.222498e-05,-6.5277025e-05,-0.00034854168,0.0002633604,4.096187591552734,112.46989440917969
1779208298.5830867,6.485910177230835,figure8,9000,13.733119707026779,-7.7150566e-05,0.00023840927,0.0,0.017932285,0.00036355783,0,0.017919842,0.0003797817,0.037403192,0.0054505919106304646,0.018233222886919975,-0.6581782102584839,-0.7526216506958008,82.35902060462635,0.01685190200805664,127,-1.244247e-05,1.6223872e-05,2.0445759549865452e-05,7.472365e-06,3.730187e-05,3.804294614887481e-05,-1.4425399e-05,-1.4489201e-05,3.796422e-05,-2.446161e-06,4.096187591552734,112.46989440917969
1779208298.6642256,6.567049026489258,figure8,10000,15.259021896696423,-0.0003816359,0.0005134628,0.0,0.017932285,0.00036355783,0,0.01790725,0.00039737765,0.037403136,0.005475910380482674,0.01789095066487789,-0.658109188079834,-0.7526900172233582,82.34716799361448,0.014316082000732422,128,-2.503395e-05,3.3819815e-05,4.207705481080832e-05,-3.9913764e-05,8.91983e-05,9.772126523259014e-05,-3.0184809e-05,-2.9314773e-05,8.30885e-05,5.1436822e-05,4.096187591552734,112.46989440917969
1779208298.725143,6.627966403961182,figure8,10000,15.259021896696423,-0.0005723053,0.000533966,0.0,0.017932285,0.00036355783,0,0.017897021,0.00040404242,0.03736135,0.005852208007127047,0.017681121826171875,-0.6582010984420776,-0.7526116967201233,82.3604157892064,0.004235029220581055,129,-3.5263598e-05,4.0484592e-05,5.368913813037639e-05,-7.116445e-05,9.0600464e-05,0.00011520773776445795,-3.5437264e-05,-4.0332663e-05,8.03356e-05,8.2577324e-05,4.096187591552734,112.46989440917969
1779208298.8073447,6.710168123245239,figure8,10000,15.259021896696423,9.034529e-05,0.00012321796,0.0,0.017932285,0.00036355783,0,0.017922346,0.00038510282,0.037408803,0.005477467551827431,0.018414871767163277,-0.6581519246101379,-0.7526399493217468,82.35575095568659,0.0031387805938720703,130,-9.9390745e-06,2.1544984e-05,2.3727021689626723e-05,4.139188e-05,-4.791218e-06,4.1668253758677226e-05,-2.0031403e-05,-1.27167e-05,7.5738535e-07,-4.1661373e-05,4.096187591552734,112.46989440917969
1779208298.9118035,6.814626932144165,figure8,11000,16.784924086366065,0.00021075911,0.000768338,0.0,0.017932285,0.00036355783,0,0.01793569,0.00041740388,0.03743081,0.0055140284821391106,0.01818363554775715,-0.6580191850662231,-0.7527614235877991,82.33462976160428,0.016114473342895508,131,3.4049153e-06,5.3846044e-05,5.3953590182476556e-05,7.273318e-05,0.00010257081,0.00012574134889530058,-5.381905e-05,-3.8078842e-06,0.00011135591,-5.8401605e-05,4.096187591552734,112.46989440917969
1779208299.1376917,7.040515184402466,figure8,12000,18.310826276035705,-0.00022640734,0.00038278787,0.0,0.017932285,0.00036355783,0,0.0179005,0.0003996326,0.037372027,0.005722559057176113,0.01757161132991314,-0.6581227779388428,-0.7526837587356567,82.34804618992256,0.015425682067871094,132,-3.1784177e-05,3.607478e-05,4.8079348802593706e-05,4.3210057e-06,4.8269467e-05,4.846248462119013e-05,-3.152131e-05,-3.630469e-05,4.8415e-05,2.1447995e-06,4.096187591552734,112.46989440917969
1779208299.2021928,7.105016231536865,figure8,13000,19.83672846570535,0.001073958,0.00015635251,0.0,0.017932285,0.00036355783,0,0.017950717,0.00038614543,0.037415076,0.005562998354434967,0.017889361828565598,-0.6581883430480957,-0.7526201605796814,82.35922816323372,0.017319679260253906,133,1.8432736e-05,2.25876e-05,2.915416662110147e-05,0.00024365375,-3.083915e-05,0.0002455976388574417,-2.4837896e-05,1.5265789e-05,1.8312821e-06,-0.0002455908,4.096187591552734,112.46989440917969
1779208299.289293,7.1921164989471436,figure8,13000,19.83672846570535,-0.00019030334,-0.00014947497,0.0,0.017932285,0.00036355783,0,0.017900351,0.00037749065,0.03739547,0.0057741617783904076,0.017212597653269768,-0.6582760214805603,-0.7525576949119568,82.37001821257913,0.017966747283935547,134,-3.193319e-05,1.3932819e-05,3.484037755073104e-05,-4.216461e-06,-5.1620234e-05,5.179215140570451e-05,-9.5695295e-06,-3.350039e-05,-5.172304e-05,-2.6747498e-06,4.096187591552734,112.46989440917969
1779208299.3922708,7.29509425163269,figure8,14000,21.36263065537499,-0.0011352659,-0.0011747903,0.0,0.017932285,0.00036355783,0,0.017839478,0.00032368628,0.037469674,0.0060418471693992615,0.015451406128704548,-0.6583036780357361,-0.7525696158409119,82.36796401083917,0.01843428611755371,135,-9.2806295e-05,-3.987155e-05,0.00010100865739124709,-0.00018109896,-0.00019359468,0.0002650957032855072,5.1844003e-05,-8.66888e-05,-0.00021593156,0.00015378326,4.096187591552734,112.46989440917969
1779208299.4742346,7.377058029174805,figure8,14000,21.36263065537499,0.0006018437,-0.0015873107,0.0,0.017932285,0.00036355783,0,0.017909735,0.00028151087,0.03748789,0.004473397508263588,0.01960979588329792,-0.6586596965789795,-0.75217205286026,82.43780121992533,0.018552064895629883,136,-2.2549182e-05,-8.204696e-05,8.508918209062078e-05,0.0001307526,-0.00029010687,0.0003182109950182757,8.430089e-05,-1.1555485e-05,-0.00027037633,-0.00016779415,4.096187591552734,112.46989440917969
1779208299.556329,7.459152460098267,figure8,15000,22.888532845044633,0.0005163123,-0.0003254777,0.0,0.017932285,0.00036355783,0,0.017922357,0.0003299904,0.03741844,0.005456917453557253,0.017386477440595627,-0.6584002375602722,-0.7524473667144775,82.38952922806655,0.007224082946777344,137,-9.927899e-06,-3.3567427e-05,3.500478935357402e-05,0.00013205655,-4.7396315e-05,0.00014030446583536313,3.458657e-05,-5.39486e-06,-2.9489574e-05,-0.00013717037,4.096187591552734,112.46989440917969
1779208299.638047,7.540870428085327,figure8,15000,22.888532845044633,0.0020694968,-0.00082666246,0.0,0.017932285,0.00036355783,0,0.017996663,0.0002954146,0.03749799,0.00514603964984417,0.014478969387710094,-0.6584890484809875,-0.7524333596229553,82.3928553134198,0.013746976852416992,138,6.4378604e-05,-6.814324e-05,9.374489982243643e-05,0.00038889452,-0.0001711219,0.00042487839758841315,5.9021077e-05,7.2832816e-05,-0.000118134005,-0.00040812496,4.096187591552734,112.46989440917969
1779208299.7203357,7.623159170150757,figure8,16000,24.414435034714273,0.005922477,-0.003453435,0.0,0.017932285,0.00036355783,0,0.018189978,0.00013239263,0.037529152,0.002621805528178811,0.012566225603222847,-0.6584504842758179,-0.7525145411491394,82.3809498712129,0.012507915496826172,139,0.00025769323,-0.0002311652,0.0003461836947553973,0.00096653856,-0.00070529804,0.0011965125172338793,0.00019495787,0.00028606743,-0.0005709219,-0.0010515181,4.096187591552734,112.46989440917969
1779208299.7877595,7.690582990646362,figure8,16000,24.414435034714273,0.010460042,-0.009624804,0.0,0.017932285,0.00036355783,0,0.018403014,-0.00019785762,0.037615053,-0.0030708257108926773,0.01303116139024496,-0.6593630909919739,-0.7517054677009583,82.52015721384358,0.008670568466186523,140,0.00047072954,-0.00056141545,0.0007326483841910968,0.0015734314,-0.0018840181,0.0024546304194040243,0.0004953599,0.0005398076,-0.0016631612,-0.0018052992,4.096187591552734,112.46989440917969
1779208299.8690438,7.771867275238037,figure8,17000,25.940337224383917,0.013682483,-0.010185113,0.0,0.017932285,0.00036355783,0,0.018620893,-0.00033935532,0.037694227,-0.0070757316425442696,0.012058268301188946,-0.6590486764907837,-0.7519704103469849,82.46867054624649,0.019142866134643555,141,0.00068860874,-0.00070291315,0.0009840065944319682,0.0020244627,-0.0019182777,0.0027889494072434067,0.0006065946,0.000774798,-0.0016363865,-0.0022584237,4.096187591552734,112.46989440917969
1779208299.952615,7.855438470840454,figure8,17000,25.940337224383917,0.015379594,-0.011475239,0.0,0.017932285,0.00036355783,0,0.018827185,-0.0005398607,0.03770088,-0.00932658277451992,0.01095513068139553,-0.6586654782295227,-0.7522983551025391,82.40706090713799,0.010707616806030273,142,0.0008949004,-0.0009034185,0.001271617779064883,0.002089767,-0.0019965705,0.002890228298330286,0.0007772502,0.0010064263,-0.0017029345,-0.002335259,4.096187591552734,112.46989440917969
1779208300.0563886,7.959212064743042,figure8,18000,27.466239414053558,0.012218502,-0.009251478,0.0,0.017932285,0.00036355783,0,0.01881005,-0.0005271975,0.037648387,-0.008225263096392155,0.010196340270340443,-0.6590561270713806,-0.751979649066925,82.4652751567426,0.020188570022583008,143,0.00087776594,-0.0008907553,0.001250567107412341,0.0014083221,-0.0013573103,0.001955930108285295,0.00076796534,0.000986989,-0.0011609215,-0.0015741421,4.096187591552734,112.46989440917969
1779208300.1419246,8.044748067855835,figure8,18000,27.466239414053558,-0.0053506703,0.003823629,0.0,0.017932285,0.00036355783,0,0.018069586,0.00019420218,0.03753187,0.0034642720129340887,0.014056523330509663,-0.6583620309829712,-0.7525622844696045,82.37193117527491,0.012807130813598633,144,0.00013730116,-0.00016935566,0.00021802051845584236,-0.0014048929,0.0013790462,0.001968627044151586,0.00014963135,0.00015856673,0.0011803543,0.0015755177,4.096187591552734,112.46989440917969
1779208300.3455305,8.248353958129883,figure8,19000,28.9921416037232,-0.005617818,0.0038372776,0.0,0.017932285,0.00036355783,0,0.017905457,0.00033767894,0.037402984,0.004927263595163822,0.019225072115659714,-0.6582463979721069,-0.7525408864021301,82.37333967923884,0.012141704559326172,145,-2.6827678e-05,-2.5878893e-05,3.7275212283542054e-05,-0.0012244703,0.0011760474,0.0016977677032206588,2.921047e-05,-2.3155773e-05,0.0010031351,0.0013697208,4.096187591552734,112.46989440917969
1779208300.4071548,8.309978246688843,figure8,20000,30.518043793392845,-0.004113545,0.0037652662,0.0,0.017932285,0.00036355783,0,0.017905975,0.00038807467,0.037399635,0.005183837842196226,0.018860064446926117,-0.6582850813865662,-0.7525145411491394,82.37777132312972,0.0015647411346435547,146,-2.6309863e-05,2.4516834e-05,3.596225848607978e-05,-0.0008549777,0.0010326301,0.00134063858839837,-2.0810441e-05,-2.9329329e-05,0.0009101009,0.0009843922,4.096187591552734,112.46989440917969
1779208300.5132015,8.416024923324585,figure8,20000,30.518043793392845,-0.002620088,0.0026204516,0.0,0.017932285,0.00036355783,0,0.017922264,0.00038309768,0.037391067,0.005644694436341524,0.017598912119865417,-0.6581707000732422,-0.7526418566703796,82.35543164413073,0.012657642364501953,147,-1.0021031e-05,1.9539846e-05,2.1959659548873135e-05,-0.0005470209,0.0007071166,0.0008940054870454838,-1.8033112e-05,-1.2531302e-05,0.0006280632,0.00063622504,4.096187591552734,112.46989440917969
1779208300.5961916,8.499015092849731,figure8,21000,32.043945983062486,-0.0024594478,0.0015769771,0.0,0.017932285,0.00036355783,0,0.017888691,0.00037212158,0.037397325,0.005366201046854258,0.01851114071905613,-0.6583601832389832,-0.7524562478065491,82.38782293394856,0.003174304962158203,148,-4.3593347e-05,8.563744e-06,4.442654199658337e-05,-0.000491829,0.0004593733,0.000672993021952244,-2.713593e-06,-4.434359e-05,0.00039017387,0.00054834655,4.096187591552734,112.46989440917969
1779208300.6801047,8.58292818069458,figure8,21000,32.043945983062486,-0.0021136566,0.00067785394,0.0,0.017932285,0.00036355783,0,0.017870834,0.0003533247,0.03743555,0.006461536046117544,0.01494393590837717,-0.6584775447845459,-0.7524242401123047,82.3928005322134,0.0045092105865478516,149,-6.1450526e-05,-1.023314e-05,6.229674552213342e-05,-0.00040915402,0.0002532737,0.0004812011697241221,1.8277955e-05,-5.955502e-05,0.00019688041,0.0004390816,4.096187591552734,112.46989440917969
1779208300.762871,8.66569447517395,figure8,21000,32.043945983062486,-0.0015107628,0.00012398914,0.0,0.017932285,0.00036355783,0,0.017872293,0.00033911224,0.03740177,0.0064938864670693874,0.015012054704129696,-0.6584315896034241,-0.7524628639221191,82.38603302247259,0.016042232513427734,150,-5.9992075e-05,-2.4445588e-05,6.478144740321672e-05,-0.00028026552,0.000117435644,0.00030387480272270844,3.217889e-05,-5.622415e-05,7.926562e-05,0.00029335447,4.096187591552734,112.46989440917969
1779208300.8441172,8.746940612792969,figure8,21000,32.043945983062486,0.00016447951,0.0007451495,0.0,0.017932285,0.00036355783,0,0.01794152,0.0003654221,0.03737812,0.005118487402796745,0.01910368725657463,-0.6582522988319397,-0.7525375485420227,82.37377426754028,0.013482332229614258,151,9.234995e-06,1.864275e-06,9.421286784063131e-06,5.1625888e-05,0.00017638621,0.00018378608713722798,-3.0733622e-06,8.905902e-06,0.00018167733,-2.7761023e-05,4.096187591552734,112.46989440917969
1779208300.9053931,8.808216571807861,figure8,21000,32.043945983062486,-0.0003682757,0.00067841494,0.0,0.017932285,0.00036355783,0,0.017920643,0.00037492532,0.037409782,0.0052269878797233105,0.018702324479818344,-0.658275306224823,-0.7525267601013184,82.37564644757957,0.0031228065490722656,152,-1.1641532e-05,1.13674905e-05,1.627098997356167e-05,-5.1290033e-05,0.00016326856,0.00017113529454321596,-9.722422e-06,-1.3046825e-05,0.0001550201,7.249869e-05,4.096187591552734,112.46989440917969
1779208300.986903,8.889726400375366,figure8,21000,32.043945983062486,-0.001179948,-0.00025343915,0.0,0.017932285,0.00036355783,0,0.017876716,0.00034742523,0.037426937,0.006365329958498478,0.015244984067976475,-0.6582335233688354,-0.7526325583457947,82.35663618417,0.012041568756103516,153,-5.5568293e-05,-1.6132602e-05,5.786273431707498e-05,-0.0002174409,6.372575e-07,0.00021744183701973496,2.3380213e-05,-5.2928834e-05,-2.8289467e-05,0.00021559374,4.096187591552734,112.46989440917969
1779208301.0689104,8.971733808517456,figure8,21000,32.043945983062486,-0.00026360972,-0.00048684087,0.0,0.017932285,0.00036355783,0,0.017908942,0.0003289925,0.037424564,0.006302467081695795,0.014889203011989594,-0.6584112048149109,-0.7524847388267517,82.38249691470713,0.0026443004608154297,154,-2.3342669e-05,-3.456534e-05,4.1709026291666425e-05,-4.6440648e-05,-6.005215e-05,7.591438945310267e-05,3.735459e-05,-1.855472e-05,-6.567833e-05,3.807035e-05,4.096187591552734,112.46989440917969
1779208301.1708174,9.073640823364258,figure8,21000,32.043945983062486,-0.00078601803,-0.00073872576,0.0,0.017932285,0.00036355783,0,0.017876007,0.00031528994,0.037445944,0.00609965156763792,0.015545024536550045,-0.6584067940711975,-0.7524769902229309,82.38399137881314,0.007987737655639648,155,-5.627796e-05,-4.8267888e-05,7.414174241224875e-05,-0.00013483055,-8.4607054e-05,0.0001591779897995236,5.53008e-05,-4.9384405e-05,-0.00010173024,0.0001224279,4.096187591552734,112.46989440917969
1779208301.2730634,9.175886869430542,figure8,21000,32.043945983062486,0.00020495713,0.0003121417,0.0,0.017932285,0.00036355783,0,0.017926428,0.00035778154,0.037404437,0.00498709874227643,0.018961826339364052,-0.6583539247512817,-0.7524531483650208,82.38863050520366,0.018161296844482422,156,-5.8561563e-06,-5.7762954e-06,8.225579326483771e-06,6.990809e-05,7.9225516e-05,0.00010565899698227752,6.501068e-06,-5.039471e-06,8.7787026e-05,-5.879849e-05,4.096187591552734,112.46989440917969
1779208301.355201,9.258024454116821,figure8,21000,32.043945983062486,-1.1028584e-05,0.00035029915,0.0,0.017932285,0.00036355783,0,0.01791983,0.00036630454,0.037397616,0.005268753040581942,0.018570737913250923,-0.6582589149475098,-0.7525440454483032,82.3726245227534,0.00761723518371582,157,-1.2455508e-05,2.746703e-06,1.2754766194141606e-05,2.757431e-05,8.3045845e-05,8.750402887861844e-05,-1.0691816e-06,-1.2709875e-05,8.597101e-05,-1.6307666e-05,4.096187591552734,112.46989440917969
1779208301.4620845,9.36490797996521,figure8,21000,32.043945983062486,0.00017826338,-5.4483124e-05,0.0,0.017932285,0.00036355783,0,0.017928727,0.00034889905,0.03738654,0.005258179735392332,0.018671637400984764,-0.658296525478363,-0.7525087594985962,82.37875891734814,0.020509958267211914,158,-3.5576522e-06,-1.46587845e-05,1.508432466079527e-05,4.770221e-05,2.5772206e-06,4.777177952605045e-05,1.5001125e-05,-1.5821208e-06,8.880906e-06,-4.6939025e-05,4.096187591552734,112.46989440917969
1779208301.5280755,9.430898904800415,figure8,21000,32.043945983062486,-0.00093500846,-0.000813843,0.0,0.017932285,0.00036355783,0,0.017873134,0.00031970907,0.037462324,0.00611847173422575,0.015438257716596127,-0.6584538221359253,-0.7524380087852478,82.39079256524089,0.00446629524230957,159,-5.915016e-05,-4.3848762e-05,7.363053228589536e-05,-0.00016990992,-0.00010494353,0.00019970609837057543,5.129505e-05,-5.2823034e-05,-0.00012651816,0.00015451756,4.096187591552734,112.46989440917969
1779208301.6295125,9.532335996627808,figure8,21000,32.043945983062486,0.00018198523,0.00037567114,0.0,0.017932285,0.00036355783,0,0.01792947,0.00036777277,0.037356,0.005427964963018894,0.018676290288567543,-0.6582453846931458,-0.7525521516799927,82.37102756051218,0.012384891510009766,160,-2.8144568e-06,4.214933e-06,5.068217576192768e-06,6.178358e-05,8.07241e-05,0.00010165427566048996,-3.8039843e-06,-3.3491092e-06,8.821181e-05,-5.051997e-05,4.096187591552734,112.46989440917969
1779208301.7108333,9.613656759262085,figure8,21000,32.043945983062486,-0.0012266352,-0.00079742575,0.0,0.017932285,0.00036355783,0,0.017851755,0.00032150093,0.037437763,0.006045088171958923,0.015821008011698723,-0.658541202545166,-0.752354085445404,82.40540133913093,0.0014696121215820312,161,-8.05296e-05,-4.2056898e-05,9.085042334358778e-05,-0.00020952192,-9.39934e-05,0.00022963927680869222,5.2331e-05,-7.4264826e-05,-0.00012085993,0.00019526154,4.096187591552734,112.46989440917969
1779208301.7948368,9.697660207748413,figure8,21000,32.043945983062486,0.00024081807,0.0003715672,0.0,0.017932285,0.00036355783,0,0.01791123,0.00035881298,0.03738549,0.005136790219694376,0.01887056604027748,-0.6582697033882141,-0.7525281310081482,82.37546368120499,0.01417398452758789,162,-2.105534e-05,-4.7448557e-06,2.1583350815279495e-05,0.00010358021,9.119982e-05,0.00013800821918388075,7.496546e-06,-2.0239633e-05,0.00010413662,-9.056397e-05,4.096187591552734,112.46989440917969
1779208301.8558533,9.758676767349243,figure8,21000,32.043945983062486,-0.0004376144,-0.0015022707,0.0,0.017932285,0.00036355783,0,0.017876355,0.00028612837,0.037444714,0.005580843426287174,0.01664438284933567,-0.6586154103279114,-0.7522749304771423,82.41955651480232,0.0038259029388427734,163,-5.5929646e-05,-7.742946e-05,9.551673616105514e-05,-7.409715e-05,-0.00024170894,0.00025281138461961706,8.413091e-05,-4.5226516e-05,-0.0002493713,4.1563817e-05,4.096187591552734,112.46989440917969
1779208301.938171,9.840994358062744,figure8,21000,32.043945983062486,0.00011751286,-0.00042025372,0.0,0.017932285,0.00036355783,0,0.01790567,0.000320551,0.03742063,0.004701432306319475,0.019344257190823555,-0.658473014831543,-0.7523409724235535,82.40829566433679,0.00397801399230957,164,-2.6615337e-05,-4.3006847e-05,5.057632797037174e-05,5.5163477e-05,-4.3513486e-05,7.025975089640938e-05,4.6146106e-05,-2.0700285e-05,-3.584427e-05,-6.042864e-05,4.096187591552734,112.46989440917969
1779208302.0241508,9.926974296569824,figure8,21000,32.043945983062486,0.00091053406,0.0005467354,0.0,0.017932285,0.00036355783,0,0.017953947,0.0003599869,0.03735418,0.005501572974026203,0.01829039491713047,-0.6582154035568237,-0.7525873184204102,82.36492082787841,0.006077766418457031,165,2.1662563e-05,-3.5709236e-06,2.1954911696893486e-05,0.0002112818,0.000110584326,0.0002384719937809994,6.611069e-07,2.1944958e-05,0.00013767551,-0.00019471608,4.096187591552734,112.46989440917969
1779208302.1279612,10.030784606933594,figure8,21000,32.043945983062486,0.00050969946,-0.0010664569,0.0,0.017932285,0.00036355783,0,0.01793492,0.0002847016,0.03740763,0.00490278797224164,0.018912462517619133,-0.6585586071014404,-0.7522757649421692,82.41957813686332,0.015866994857788086,166,2.6356429e-06,-7.885625e-05,7.890027940379954e-05,8.718666e-05,-0.0001628094,0.00018468463355428684,7.781941e-05,1.3015143e-05,-0.0001498851,-0.000107902146,4.096187591552734,112.46989440917969
1779208302.2300365,10.132859945297241,figure8,21000,32.043945983062486,0.00029518036,0.00019894491,0.0,0.017932285,0.00036355783,0,0.01793828,0.00034660753,0.03738454,0.005101826507598162,0.018836647272109985,-0.6583293080329895,-0.7524769902229309,82.38439104171422,0.014137029647827148,167,5.9958547e-06,-1.6950304e-05,1.7979517657963433e-05,7.074176e-05,6.494319e-05,9.603131455502034e-05,1.6006185e-05,8.189331e-06,7.3745505e-05,-6.151109e-05,4.096187591552734,112.46989440917969
1779208302.312319,10.215142488479614,figure8,21000,32.043945983062486,-0.00010027514,0.000441484,0.0,0.017932285,0.00036355783,0,0.01792385,0.00036606472,0.037413757,0.004955711308866739,0.01957787573337555,-0.6583209037780762,-0.7524664402008057,82.38618125458318,0.004494190216064453,168,-8.434057e-06,2.5068875e-06,8.798739016199598e-06,2.426972e-06,0.000108959095,0.00010898612318997438,-1.3673117e-06,-8.691851e-06,0.00010832003,1.2031009e-05,4.096187591552734,112.46989440917969
1779208302.414895,10.317718505859375,figure8,21000,32.043945983062486,0.00014988123,-0.00028749887,0.0,0.017932285,0.00036355783,0,0.017931946,0.0003332952,0.03742336,0.0045804670080542564,0.019840510562062263,-0.6584330201148987,-0.7523638010025024,82.40429175699943,0.015256881713867188,169,-3.3900142e-07,-3.0262629e-05,3.026452709598273e-05,2.8149472e-05,-3.0803014e-05,4.172791035644451e-05,3.0041898e-05,3.6641518e-06,-2.6811873e-05,-3.197408e-05,4.096187591552734,112.46989440917969
1779208302.4963584,10.399181842803955,figure8,21000,32.043945983062486,0.00013414872,0.00017446242,0.0,0.017932285,0.00036355783,0,0.017935796,0.0003538141,0.03736394,0.005626852624118328,0.01816716231405735,-0.6582186818122864,-0.7525865435600281,82.36495484159036,0.014590740203857422,170,3.511086e-06,-9.74373e-06,1.0357025932198443e-05,3.3768112e-05,5.3388685e-05,6.317149004148156e-05,9.190853e-06,4.774536e-06,5.7401885e-05,-2.6375377e-05,4.096187591552734,112.46989440917969
1779208302.579439,10.482262372970581,figure8,21000,32.043945983062486,0.0001672749,0.00019785757,0.0,0.017932285,0.00036355783,0,0.017939862,0.00035822205,0.037368402,0.0055036949925124645,0.01791461743414402,-0.6582619547843933,-0.7525556087493896,82.37052174334784,0.003924846649169922,171,7.5772405e-06,-5.33578e-06,9.26742242813643e-06,3.6649868e-05,5.1478055e-05,6.319179615674426e-05,4.2825413e-06,8.218573e-06,5.5888206e-05,-2.9490864e-05,4.096187591552734,112.46989440917969
1779208302.681618,10.584441423416138,figure8,21000,32.043945983062486,-0.00062445854,-0.00040560585,0.0,0.017932285,0.00036355783,0,0.017896848,0.00033563375,0.03742419,0.006119348108768463,0.016110768541693687,-0.6582313179969788,-0.7526184916496277,82.3592471777144,0.014396429061889648,172,-3.5436824e-05,-2.7924078e-05,4.5116766720721946e-05,-0.000115055765,-3.785781e-05,0.00012112408120224298,3.2387874e-05,-3.1409367e-05,-5.2819654e-05,0.00010900059,4.096187591552734,112.46989440917969
1779208302.7660244,10.668847799301147,figure8,21000,32.043945983062486,0.0008480679,-0.00020912185,0.0,0.017932285,0.00036355783,0,0.017962834,0.0003333781,0.037393395,0.004878499079495668,0.019260888919234276,-0.6583428978919983,-0.7524558901786804,82.3881719935207,0.015605688095092773,173,3.0549243e-05,-3.017974e-05,4.294267114896464e-05,0.00015739974,-3.463415e-05,0.00016116514549018046,2.586722e-05,3.427769e-05,-1.3479632e-05,-0.00016060045,4.096187591552734,112.46989440917969
1779208302.8293898,10.732213258743286,figure8,21000,32.043945983062486,-0.0011064578,-0.001277036,0.0,0.017932285,0.00036355783,0,0.017878247,0.00029569864,0.037466083,0.005772005766630173,0.016084963455796242,-0.6585693955421448,-0.7523260712623596,82.41057595271931,0.0055201053619384766,174,-5.40372e-05,-6.785919e-05,8.674611896926352e-05,-0.0002353011,-0.0001781401,0.0002951279431200043,7.440162e-05,-4.460144e-05,-0.00020765659,0.00020971228,4.096187591552734,112.46989440917969
1779208302.9107325,10.81355595588684,figure8,21000,32.043945983062486,0.00018433435,0.0002737135,0.0,0.017932285,0.00036355783,0,0.017937258,0.00035228487,0.037368167,0.005654400680214167,0.017886683344841003,-0.658229410648346,-0.7525836825370789,82.36548829792174,0.003364086151123047,175,4.9732625e-06,-1.1272961e-05,1.2321241525612616e-05,4.7306137e-05,7.860888e-05,9.174544145237289e-05,1.0512319e-05,6.4268293e-06,8.419685e-05,-3.6443344e-05,4.096187591552734,112.46989440917969
1779208302.9922862,10.8951096534729,figure8,21000,32.043945983062486,-0.0009000891,-0.00082003814,0.0,0.017932285,0.00036355783,0,0.01788644,0.00031531323,0.037421774,0.006381475832313299,0.015428739599883556,-0.6584647297859192,-0.7524263262748718,82.39245943260319,0.013852357864379883,176,-4.5845285e-05,-4.8244605e-05,6.655322691108989e-05,-0.00018141429,-0.00010104818,0.00020765808291657516,5.3889275e-05,-3.905481e-05,-0.00012417563,0.00016644006,4.096187591552734,112.46989440917969
1779208303.073407,10.976230382919312,figure8,21000,32.043945983062486,-0.00079705147,-0.00085543003,0.0,0.017932285,0.00036355783,0,0.017880091,0.00030635018,0.03741646,0.006371692288666964,0.015299595892429352,-0.6584315896034241,-0.7524580955505371,82.386975376084,0.0023431777954101562,177,-5.219318e-05,-5.7207653e-05,7.74392917732246e-05,-0.00014754888,-9.97623e-05,0.00017811004858989414,6.3618034e-05,-4.4154152e-05,-0.000118430464,0.00013303163,4.096187591552734,112.46989440917969
1779208303.175425,11.078248500823975,figure8,21000,32.043945983062486,-0.000984469,-0.00023854958,0.0,0.017932285,0.00036355783,0,0.017865375,0.00033341534,0.037420467,0.006521712057292461,0.015035306103527546,-0.6582505702972412,-0.7526204586029053,82.35855374931174,0.012787342071533203,178,-6.690994e-05,-3.0142488e-05,7.338603283923035e-05,-0.00015149692,1.883298e-05,0.0001526630240383717,3.877205e-05,-6.2307605e-05,-1.4793204e-06,0.00015265585,4.096187591552734,112.46989440917969
1779208303.260499,11.163322448730469,figure8,21000,32.043945983062486,-0.0004444085,0.00011655888,0.0,0.017932285,0.00036355783,0,0.017886655,0.00034948904,0.037429262,0.006612056866288185,0.0144891906529665,-0.6583830118179321,-0.7525145411491394,82.37695071543438,0.004301786422729492,179,-4.562922e-05,-1.4068792e-05,4.774889179766878e-05,-3.7810874e-05,6.4723645e-05,7.495873882586696e-05,1.9997404e-05,-4.335966e-05,5.9135826e-05,4.6062636e-05,4.096187591552734,112.46989440917969
1779208303.4050663,11.307889699935913,figure8,21000,32.043945983062486,0.00011557589,-0.00022751908,0.0,0.017932285,0.00036355783,0,0.01791903,0.00032594055,0.03741916,0.005013583227992058,0.018892953172326088,-0.6584791541099548,-0.7523452043533325,82.4074229671817,0.004927873611450195,180,-1.3254583e-05,-3.7617283e-05,3.988413194471817e-05,4.1007115e-05,-3.7728605e-06,4.1180311333781464e-05,3.9038783e-05,-8.168081e-06,1.6784043e-06,-4.1146093e-05,4.096187591552734,112.46989440917969
1779208303.4668407,11.369664192199707,figure8,21000,32.043945983062486,-0.0013647735,-0.0014610544,0.0,0.017932285,0.00036355783,0,0.017863277,0.00028955285,0.037480853,0.005836661905050278,0.015905611217021942,-0.6586008071899414,-0.7523016929626465,82.41473897663067,0.013028144836425781,181,-6.900728e-05,-7.400499e-05,0.00010118667055714742,-0.00028291217,-0.0002060219,0.0003499776037526497,8.246646e-05,-5.863467e-05,-0.0002415639,0.00025324136,4.096187591552734,112.46989440917969
