wall_time_s,elapsed_s,mode,thrust_raw,thrust_percent,roll_cmd_deg,pitch_cmd_deg,yawrate_cmd_deg_s,target_x,target_y,target_error_x_m,target_error_y_m,target_error_m,figure8_active,mocap_x,mocap_y,mocap_z,mocap_qx,mocap_qy,mocap_qz,mocap_qw,yaw_deg,mocap_age_s,mocap_frame_count,drift_x_m,drift_y_m,horizontal_drift_m,velocity_x_m_s,velocity_y_m_s,horizontal_speed_m_s,body_error_x_m,body_error_y_m,body_velocity_x_m_s,body_velocity_y_m_s,battery_v,estimate_z
1779209063.4392822,0.0017654895782470703,figure8,0,0.0,0.0,-0.0,0.0,0.0021894816,0.010167809,0.0,0.0,0.0,0,0.0021894816,0.010167809,0.03771079,-0.0019482565112411976,-0.019612401723861694,0.64515221118927,0.7637999057769775,80.39523215421782,0.07846665382385254,39,0.0,0.0,0.0,0.0,0.0,0.0,0.0,0.0,0.0,0.0,4.080351829528809,112.76335906982422
1779209063.463817,0.02630019187927246,figure8,0,0.0,-0.0006270602,-0.0006190484,0.0,0.0021894816,0.010167809,-2.665352e-05,-1.8687919e-05,3.2552242320198076e-05,0,0.002162828,0.010149121,0.03773352,-0.0019421771867200732,-0.018900010734796524,0.645232081413269,0.7637503147125244,80.40430596009831,0.015121698379516602,40,-2.665352e-05,-1.8687919e-05,3.2552242320198076e-05,-9.09887e-05,-6.379606e-05,0.00011112551925123382,2.2869448e-05,-2.3165425e-05,-7.807079e-05,7.908118e-05,4.080351829528809,112.76335906982422
1779209063.5464983,0.10898160934448242,figure8,0,0.0,0.0013706615,-0.00048212532,0.0,0.0021894816,0.010167809,4.004594e-05,-2.923794e-05,4.9583611073662255e-05,0,0.0022295276,0.010138571,0.03769506,-0.0015334702329710126,-0.020430242642760277,0.6452210545539856,0.7637211680412292,80.40887743214817,0.013669729232788086,41,4.004594e-05,-2.923794e-05,4.9583611073662255e-05,0.00017414261,-8.227616e-05,0.00019260065753601646,2.2156955e-05,4.435768e-05,-5.211115e-05,-0.00018541695,4.080351829528809,112.71284484863281
1779209063.6283653,0.19084858894348145,figure8,0,0.0,-0.0003217077,-0.0003150722,0.0,0.0021894816,0.010167809,-1.2659468e-05,-1.6888604e-05,2.110656381671865e-05,0,0.0021768222,0.010150921,0.03773387,-0.0013489078264683485,-0.020447153598070145,0.6452356576919556,0.7637088894844055,80.4110758715947,0.002810955047607422,42,-1.2659468e-05,-1.6888604e-05,2.110656381671865e-05,-4.8620466e-05,-1.7638915e-05,5.1721185655074506e-05,1.8761431e-05,-9.66932e-06,-2.5491576e-05,4.5002897e-05,4.080351829528809,112.70972442626953
1779209063.8173835,0.3798668384552002,figure8,0,0.0,-0.00020742664,0.00021202292,0.0,0.0021894816,0.010167809,-5.7490543e-06,8.790754e-06,1.0503760046884693e-05,0,0.0021837326,0.0101766,0.03771993,-0.00207653921097517,-0.019304420799016953,0.6451455950737,0.7638129591941833,80.39301289922032,0.014726400375366211,43,-5.7490543e-06,8.790754e-06,1.0503760046884693e-05,-2.2328557e-05,3.115183e-05,3.832754780710844e-05,-7.708015e-06,-7.1355075e-06,2.6988555e-05,2.7214312e-05,4.080351829528809,112.78001403808594
1779209063.8792024,0.44168567657470703,figure8,0,0.0,1.8633036e-06,-2.4567491e-05,0.0,0.0021894816,0.010167809,-1.4100224e-06,1.5860423e-06,2.122190713658807e-06,0,0.0021880716,0.010169395,0.037714064,-0.001889884122647345,-0.019411444664001465,0.6452129483222961,0.7637538909912109,80.40349435125168,0.004221439361572266,44,-1.4100224e-06,1.5860423e-06,2.122190713658807e-06,2.3683679e-06,-8.0789505e-06,8.418943433587061e-06,-1.3287847e-06,-1.6546977e-06,-7.5710677e-06,-3.682056e-06,4.080351829528809,112.78001403808594
1779209063.9626813,0.5251646041870117,figure8,0,0.0,-0.00014742173,-6.99016e-05,0.0,0.0021894816,0.010167809,-6.509945e-06,5.112961e-07,6.529992655594407e-06,0,0.0021829717,0.0101683205,0.0377144,-0.0019699917174875736,-0.019746752455830574,0.6450490355491638,0.7638834118843079,80.38031999137586,0.01136922836303711,45,-6.509945e-06,5.112961e-07,6.529992655594407e-06,-1.8386083e-05,-9.879281e-06,2.087218752190132e-05,5.837533e-07,-6.503848e-06,-1.2812815e-05,1.647665e-05,4.080351829528809,112.78414154052734
1779209064.0254126,0.5878958702087402,figure8,0,0.0,-0.00078783114,-0.0012919082,0.0,0.0021894816,0.010167809,-3.430061e-05,-3.531389e-05,4.923009904420264e-05,0,0.002155181,0.010132495,0.037728757,-0.0018561462638899684,-0.01935497112572193,0.645078718662262,0.7638686895370483,80.38311218168847,0.0028700828552246094,46,-3.430061e-05,-3.531389e-05,4.923009904420264e-05,-0.00012991577,-0.00015779986,0.00020439888427290672,4.0547857e-05,-2.7919063e-05,-0.00017728593,0.0001017281,4.080351829528809,112.80219268798828
1779209064.1104054,0.6728887557983398,figure8,0,0.0,-0.0005236138,0.00066214043,0.0,0.0021894816,0.010167809,-2.0876527e-05,2.1032989e-05,2.9634709378060468e-05,0,0.002168605,0.010188842,0.03774702,-0.0021433073561638594,-0.018571335822343826,0.6450928449630737,0.7638754844665527,80.38217788374068,0.00976872444152832,47,-2.0876527e-05,2.1032989e-05,2.9634709378060468e-05,-3.9372255e-05,0.00010599732,0.00011307345555623861,-1.7249396e-05,-2.4097184e-05,9.7929296e-05,5.652839e-05,4.080351829528809,112.77861022949219
1779209064.2154849,0.777968168258667,figure8,0,0.0,-0.0009863101,-7.6769444e-05,0.0,0.0021894816,0.010167809,-4.5695342e-05,1.899898e-06,4.5734822019543274e-05,0,0.0021437863,0.010169709,0.037758134,-0.0017311415867879987,-0.019408412277698517,0.6451386213302612,0.7638170719146729,80.39227563230527,0.019521236419677734,48,-4.5695342e-05,1.899898e-06,4.5734822019543274e-05,-0.00010566702,1.39850345e-05,0.00010658846744837184,5.75338e-06,-4.5371497e-05,-3.847129e-06,0.000106519015,4.080351829528809,112.72815704345703
1779209064.2999187,0.8624019622802734,figure8,0,0.0,0.00020380208,0.0002452647,0.0,0.0021894816,0.010167809,-5.001202e-06,7.226132e-06,8.788003241468893e-06,0,0.0021844804,0.010175035,0.03771836,-0.0019089854322373867,-0.019626958295702934,0.6451448798179626,0.7638057470321655,80.39417828323664,0.011708498001098633,49,-5.001202e-06,7.226132e-06,8.788003241468893e-06,5.8376732e-05,2.7111262e-05,6.436507893012358e-05,-6.29027e-06,-6.1368974e-06,3.64724e-05,-5.303421e-05,4.080351829528809,112.72815704345703
1779209064.4037786,0.9662618637084961,figure8,0,0.0,5.2744945e-06,-0.00018431709,0.0,0.0021894816,0.010167809,-1.2401491e-05,-7.166527e-06,1.4323271289801452e-05,0,0.0021770801,0.010160643,0.037715003,-0.00174262176733464,-0.020198168233036995,0.645176887512207,0.7637642025947571,80.40132929718472,0.010686159133911133,50,-1.2401491e-05,-7.166527e-06,1.4323271289801452e-05,1.969629e-05,-2.2190172e-05,2.967065170531706e-05,9.134093e-06,-1.103288e-05,-1.8595232e-05,-2.312066e-05,4.080351829528809,112.73178100585938
1779209064.5656111,1.1280944347381592,figure8,0,0.0,-0.00031375574,-0.00017062735,0.0,0.0021894816,0.010167809,-2.7190894e-05,-5.4147094e-06,2.7724786730967774e-05,0,0.0021622907,0.0101623945,0.03770711,-0.0019839880988001823,-0.01974313333630562,0.6450941562652588,0.7638453841209412,80.3870786573973,0.008035421371459961,51,-2.7190894e-05,-5.4147094e-06,2.7724786730967774e-05,-1.3186889e-05,-1.2337991e-05,1.8058794959493106e-05,9.879315e-06,-2.5904881e-05,-1.4366839e-05,1.09413895e-05,4.0750732421875,112.71315002441406
1779209064.586101,1.1485843658447266,figure8,0,0.0,0.0007836563,0.0017513453,0.0,0.0021894816,0.010167809,-1.8411316e-05,5.3364784e-06,1.9169104485453356e-05,0,0.0021710703,0.010173146,0.0377293,-0.0021142081823199987,-0.01887812279164791,0.6451897025108337,0.7637861967086792,80.39791658020083,0.0183565616607666,52,-1.8411316e-05,5.3364784e-06,1.9169104485453356e-05,0.00024978456,0.00030854534,0.0003969792845239623,-2.1906221e-06,-1.9043522e-05,0.00034588782,-0.0001948183,4.0750732421875,112.71315002441406
1779209064.6679032,1.23038649559021,figure8,0,0.0,0.00011407293,0.0018783205,0.0,0.0021894816,0.010167809,-2.843421e-05,3.189128e-05,4.2726548269767223e-05,0,0.0021610474,0.0101997005,0.03773334,-0.0022378377616405487,-0.018624447286128998,0.6451395153999329,0.763834536075592,80.3894193253262,0.008399009704589844,53,-2.843421e-05,3.189128e-05,4.2726548269767223e-05,0.00014208024,0.00030280027,0.00033447690118456,-2.6696576e-05,-3.3359418e-05,0.00032227096,-8.953342e-05,4.080351829528809,112.68843078613281
1779209064.770682,1.3331654071807861,figure8,0,0.0,0.00046284817,0.00052113313,0.0,0.0021894816,0.010167809,-1.5883707e-05,-3.8985163e-06,1.635513856504323e-05,0,0.002173598,0.010163911,0.03770596,-0.0019939623307436705,-0.0196453258395195,0.6451507210731506,0.7638000845909119,80.39515976516869,0.019285917282104492,54,-1.5883707e-05,-3.8985163e-06,1.635513856504323e-05,0.00014042982,9.511717e-05,0.00016961076393990764,6.4940955e-06,-1.50105725e-05,0.00011721482,-0.00012259078,4.080351829528809,112.71089172363281
1779209064.8325613,1.3950445652008057,figure8,0,0.0,0.001440115,-0.0023519315,0.0,0.0021894816,0.010167809,6.625429e-06,-9.6227974e-05,9.645579076721488e-05,0,0.002196107,0.010071581,0.03768631,-0.0022051064297556877,-0.01745504140853882,0.645308792591095,0.7637192010879517,80.41032756606258,0.00939178466796875,55,6.625429e-06,-9.6227974e-05,9.645579076721488e-05,0.0001923852,-0.00031933922,0.0003728130974128274,9.377956e-05,2.2563561e-05,-0.00028282718,-0.00024289588,4.080351829528809,112.72071838378906
1779209064.9142892,1.4767725467681885,figure8,0,0.0,-0.0011734965,0.00031174897,0.0,0.0021894816,0.010167809,-5.8175065e-05,-5.508773e-06,5.8435304030823424e-05,0,0.0021313066,0.0101623,0.037749037,-0.0017867563292384148,-0.01950310915708542,0.6453034281730652,0.7636752724647522,80.41741161557873,0.009904146194458008,56,-5.8175065e-05,-5.508773e-06,5.8435304030823424e-05,-0.00010469502,0.00011156754,0.00015299791909620123,1.51162585e-05,-5.644629e-05,9.258231e-05,0.00012180673,4.080351829528809,112.73887634277344
1779209064.9963977,1.5588810443878174,figure8,0,0.0,9.70859e-05,0.0005667963,0.0,0.0021894816,0.010167809,-1.7806888e-05,1.8402934e-06,1.790172971457048e-05,0,0.0021716747,0.0101696495,0.0377337,-0.0020227087661623955,-0.01921520009636879,0.6451730728149414,0.7637921571731567,80.39675319405659,0.009604215621948242,57,-1.7806888e-05,1.8402934e-06,1.790172971457048e-05,7.366997e-05,0.00010485085,0.0001281443167696511,1.1561227e-06,-1.7864359e-05,0.00011567149,-5.5145898e-05,4.080351829528809,112.73887634277344
1779209065.0582283,1.6207115650177002,figure8,0,0.0,-0.00016298078,-6.3285843e-06,0.0,0.0021894816,0.010167809,-2.556853e-05,-9.871088e-06,2.7407811144159792e-05,0,0.002163913,0.010157938,0.037713017,-0.0018354060593992472,-0.02000523917376995,0.6451691389083862,0.763775646686554,80.39937949855702,0.00040650367736816406,58,-2.556853e-05,-9.871088e-06,2.7407811144159792e-05,1.878634e-05,2.3930552e-05,3.0423640998960067e-05,1.399714e-05,-2.3564127e-05,2.6728561e-05,-1.45321e-05,4.0750732421875,112.70008850097656
1779209065.1624987,1.7249820232391357,figure8,0,0.0,-0.000693634,0.0005722374,0.0,0.0021894816,0.010167809,-4.0762126e-05,1.6641803e-05,4.402840527721457e-05,0,0.0021487195,0.010184451,0.03771746,-0.0022960437927395105,-0.018658457323908806,0.6450740098953247,0.7638888955116272,80.37974637546213,0.012175798416137695,59,-4.0762126e-05,1.6641803e-05,4.402840527721457e-05,-3.612547e-05,0.00010273806,0.00010890434931949535,-9.595715e-06,-4.2970023e-05,9.525606e-05,5.2786745e-05,4.080351829528809,112.69501495361328
1779209065.2854486,1.8479318618774414,figure8,0,0.0,-0.00027555617,0.00040606677,0.0,0.0021894816,0.010167809,-2.5904737e-05,1.305528e-05,2.9008546360696645e-05,0,0.002163577,0.0101808645,0.037711684,-0.0016768829664215446,-0.02046474628150463,0.6451775431632996,0.7637566924095154,80.40255032221228,0.012329578399658203,60,-2.5904737e-05,1.305528e-05,2.9008546360696645e-05,1.100989e-05,6.31545e-05,6.410700530646275e-05,-8.553588e-06,-2.77188e-05,6.410618e-05,-3.263649e-07,4.080351829528809,112.66753387451172
1779209065.3469353,1.9094185829162598,figure8,0,0.0,2.9860676e-05,0.000289327,0.0,0.0021894816,0.010167809,-1.6272068e-05,1.0752119e-05,1.9503545227292713e-05,0,0.0021732096,0.010178561,0.037718166,-0.002137228846549988,-0.018698036670684814,0.6451149582862854,0.7638537287712097,80.38599380967986,0.002268075942993164,61,-1.6272068e-05,1.0752119e-05,1.9503545227292713e-05,4.8096477e-05,3.455105e-05,5.922031922401955e-05,-7.883515e-06,-1.7839238e-05,4.2098367e-05,-4.1650612e-05,4.080351829528809,112.64775848388672
1779209065.4309757,1.9934589862823486,figure8,0,0.0,-0.0007731064,3.120843e-05,0.0,0.0021894816,0.010167809,-4.3400563e-05,8.310191e-06,4.418900346547654e-05,0,0.002146081,0.010176119,0.037730705,-0.0022338898852467537,-0.018550384789705276,0.6451626420021057,0.763816773891449,80.39259488234443,0.003496408462524414,62,-4.3400563e-05,8.310191e-06,4.418900346547654e-05,-6.460979e-05,1.533946e-05,6.640575382748478e-05,-9.502487e-07,-4.417879e-05,4.3411883e-06,6.62637e-05,4.080351829528809,112.6453628540039
1779209065.51703,2.0795133113861084,figure8,0,0.0,-0.00027476926,0.00022903408,0.0,0.0021894816,0.010167809,-2.7623959e-05,1.32909045e-05,3.065503517791791e-05,0,0.0021618577,0.0101811,0.037707996,-0.001923411968164146,-0.019899070262908936,0.6449780464172363,0.763939619064331,80.37029564150843,0.0018343925476074219,63,-2.7623959e-05,1.32909045e-05,3.065503517791791e-05,8.730956e-06,2.7772236e-05,2.911231114088856e-05,-8.482695e-06,-2.9458024e-05,2.8841423e-05,-3.962196e-06,4.080351829528809,112.65006256103516
1779209065.618974,2.181457281112671,figure8,0,0.0,-9.350387e-05,0.00028259834,0.0,0.0021894816,0.010167809,-1.947768e-05,1.5893951e-05,2.5139563966279165e-05,0,0.002170004,0.010183703,0.03769675,-0.002227372257038951,-0.01916266232728958,0.6450534462928772,0.7638940215110779,80.37866263142176,0.00131988525390625,64,-1.947768e-05,1.5893951e-05,2.5139563966279165e-05,2.9964101e-05,2.7062324e-05,4.037594258192506e-05,-1.2414965e-05,-2.1860154e-05,3.168974e-05,-2.5019535e-05,4.080351829528809,112.6791763305664
1779209065.7216237,2.284106969833374,figure8,0,0.0,-0.0009876001,-0.0006918424,0.0,0.0021894816,0.010167809,-5.741231e-05,-1.3389625e-05,5.895299569154642e-05,0,0.0021320693,0.01015442,0.0376979,-0.0019154063193127513,-0.01930943876504898,0.6452577710151672,0.7637184858322144,80.40980915735128,0.012164115905761719,65,-5.741231e-05,-1.3389625e-05,5.895299569154642e-05,-0.00010298715,-7.674865e-05,0.0001284395110533977,2.2767386e-05,-5.4379238e-05,-9.28337e-05,8.876153e-05,4.080351829528809,112.6589584350586
1779209065.8031423,2.3656256198883057,figure8,0,0.0,-0.00061852054,8.3055485e-05,0.0,0.0021894816,0.010167809,-4.4537708e-05,8.955598e-06,4.5429178220842525e-05,0,0.002144944,0.010176765,0.03770887,-0.0023460735101252794,-0.018661629408597946,0.6451177000999451,0.7638517022132874,80.38632808686239,0.0016636848449707031,66,-4.4537708e-05,8.955598e-06,4.5429178220842525e-05,-3.0117302e-05,1.9125702e-05,3.56769447325168e-05,-1.3918511e-06,-4.540785e-05,1.38273945e-05,3.288841e-05,4.0750732421875,112.6589584350586
1779209065.9050539,2.4675371646881104,figure8,0,0.0,-0.00066225533,4.7779755e-05,0.0,0.0021894816,0.010167809,-4.8121437e-05,9.007752e-06,4.895724976123538e-05,0,0.0021413602,0.010176817,0.037730943,-0.0023815922904759645,-0.01869886927306652,0.6450230479240417,0.76393061876297,80.37228882651895,0.011388063430786133,67,-4.8121437e-05,9.007752e-06,4.895724976123538e-05,-3.2744458e-05,1.3557714e-05,3.544024807965785e-05,-8.3278064e-07,-4.895017e-05,7.8903895e-06,3.455073e-05,4.0750732421875,112.66563415527344
1779209066.027781,2.590264320373535,figure8,0,0.0,0.0004330754,0.0003161421,0.0,0.0021894816,0.010167809,-1.6354024e-06,1.341477e-05,1.3514089132582679e-05,0,0.0021878462,0.010181224,0.037687637,-0.0019774551037698984,-0.01979496330022812,0.6451817750930786,0.7637701034545898,80.40043903849863,0.019934654235839844,68,-1.6354024e-06,1.341477e-05,1.3514089132582679e-05,9.921709e-05,2.1069478e-05,0.00010142955431391498,-1.2954206e-05,-3.8495655e-06,3.732001e-05,-9.431421e-05,4.0750732421875,112.59698486328125
1779209066.0720482,2.6345314979553223,figure8,0,0.0,-0.00090583623,0.0006290243,0.0,0.0021894816,0.010167809,-3.508944e-05,3.0267984e-05,4.6340258690401796e-05,0,0.0021543922,0.010198077,0.03772197,-0.0026084748096764088,-0.01773747429251671,0.6450992226600647,0.763888418674469,80.38006304673047,0.00022363662719726562,69,-3.508944e-05,3.0267984e-05,4.6340258690401796e-05,-8.7417306e-05,9.3775e-05,0.00012820115287764556,-2.3978493e-05,-3.9654147e-05,7.784787e-05,0.000101858954,4.0750732421875,112.59698486328125
1779209066.1548257,2.71730899810791,figure8,0,0.0,-0.001155603,0.0002977262,0.0,0.0021894816,0.010167809,-5.0428323e-05,2.5164336e-05,5.6358315266691684e-05,0,0.0021390533,0.010192974,0.0377071,-0.0026211035437881947,-0.017926355823874474,0.6449904441833496,0.7639758586883545,80.36446719473567,0.0005998611450195312,70,-5.0428323e-05,2.5164336e-05,5.6358315266691684e-05,-0.0001170367,4.706154e-05,0.0001261442783879984,-1.6368624e-05,-5.3928914e-05,2.6807991e-05,0.00012326277,4.0750732421875,112.61944580078125
1779209066.2404916,2.8029749393463135,figure8,0,0.0,-0.00048344047,-0.0007072233,0.0,0.0021894816,0.010167809,-3.945455e-05,-1.0322779e-05,4.0782609374712166e-05,0,0.002150027,0.010157486,0.037733134,-0.0018329040613025427,-0.019142556935548782,0.6453346014022827,0.7636579275131226,80.42062960153605,0.007800579071044922,71,-3.945455e-05,-1.0322779e-05,4.0782609374712166e-05,-3.9969113e-05,-0.00010273658,0.00011023763031824695,1.6744618e-05,-3.7186543e-05,-0.000107955435,2.231501e-05,4.080351829528809,112.69933319091797
1779209066.345424,2.907907247543335,figure8,0,0.0,-2.9538991e-05,-0.000718674,0.0,0.0021894816,0.010167809,-2.384372e-05,-2.0073727e-05,3.1168534855833875e-05,0,0.002165638,0.0101477355,0.03770505,-0.00200039055198431,-0.019717834889888763,0.6453242897987366,0.7636516094207764,80.42150733065415,0.010752677917480469,72,-2.384372e-05,-2.0073727e-05,3.1168534855833875e-05,1.7944734e-05,-0.000100600424,0.00010218834793408094,2.3761433e-05,-2.0171065e-05,-9.621193e-05,-3.443433e-05,4.0750732421875,112.69815063476562
1779209066.4300385,2.9925217628479004,figure8,0,0.0,-0.00091407774,2.5568148e-05,0.0,0.0021894816,0.010167809,-4.9768947e-05,6.1970204e-06,5.015327766569618e-05,0,0.0021397127,0.010174006,0.037694823,-0.0022891066037118435,-0.019011368975043297,0.6450194120407104,0.7639262080192566,80.37296332821624,0.011202812194824219,73,-4.9768947e-05,6.1970204e-06,5.015327766569618e-05,-7.984795e-05,2.3220557e-05,8.315581755918471e-05,2.2133117e-06,-5.0104412e-05,9.540253e-06,8.260673e-05,4.0750732421875,112.68975830078125
1779209066.5234296,3.0859129428863525,figure8,0,0.0,-0.00031655873,-0.00041391497,0.0,0.0021894816,0.010167809,-3.434252e-05,-1.3224781e-05,3.6800863552198784e-05,0,0.002155139,0.010154584,0.03769003,-0.0019492536084726453,-0.019677868112921715,0.6451931595802307,0.7637636065483093,80.40164809742805,0.008876562118530273,74,-3.434252e-05,-1.3224781e-05,3.6800863552198784e-05,-7.543662e-06,-4.461791e-05,4.525113177046254e-05,1.876593e-05,-3.1656647e-05,-4.5251134e-05,-1.5511432e-09,4.0750732421875,112.67597961425781
1779209066.6087878,3.1712710857391357,figure8,0,0.0,0.0006721274,0.00011007704,0.0,0.0021894816,0.010167809,5.93625e-06,-2.3059547e-06,6.368397929806785e-06,0,0.0021954179,0.010165503,0.037673928,-0.0020094935316592455,-0.019939905032515526,0.6451878547668457,0.7637611031532288,80.40197219157854,0.001013040542602539,75,5.93625e-06,-2.3059547e-06,6.368397929806785e-06,0.000124342,3.905734e-06,0.00012440332568981727,1.2838958e-06,6.237636e-06,2.45832e-05,-0.00012195021,4.0750732421875,112.69923400878906
1779209066.7108252,3.273308515548706,figure8,500,0.762951094834821,-0.0014864821,-0.0007499391,0.0,0.0021894816,0.010167809,-7.1942806e-05,-2.0319596e-05,7.475729756983728e-05,0,0.0021175388,0.01014749,0.037736766,-0.002130313543602824,-0.01852046512067318,0.6452544331550598,0.7637402415275574,80.40621534885726,0.013633489608764648,76,-7.1942806e-05,-2.0319596e-05,7.475729756983728e-05,-0.0001742501,-5.7702968e-05,0.00018355580121534387,3.2025524e-05,-6.755012e-05,-8.593677e-05,0.00016219619,4.0750732421875,112.6856918334961
1779209066.7959623,3.358445644378662,figure8,500,0.762951094834821,-0.00053662766,0.00022370354,0.0,0.0021894816,0.010167809,-4.126504e-05,5.8831647e-06,4.168231293606451e-05,0,0.0021482166,0.010173692,0.037713304,-0.002714906120672822,-0.017848901450634003,0.6450425386428833,0.7639333605766296,80.3720143826112,0.012089252471923828,77,-4.126504e-05,5.8831647e-06,4.168231293606451e-05,-1.5800812e-05,5.029441e-05,5.2718054970986306e-05,1.1012949e-06,-4.166776e-05,4.6943296e-05,2.3990006e-05,4.0750732421875,112.6856918334961
1779209066.877232,3.4397153854370117,figure8,1000,1.525902189669642,9.551222e-05,-0.001223529,0.0,0.0021894816,0.010167809,-2.8533861e-05,-4.5963563e-05,5.41001879261928e-05,0,0.0021609478,0.010121846,0.03769415,-0.0021687985863536596,-0.019159704446792603,0.6451116800308228,0.7638449668884277,80.3873654392802,0.010509729385375977,78,-2.8533861e-05,-4.5963563e-05,5.41001879261928e-05,3.503947e-05,-0.00015253268,0.00015650553897599663,5.008296e-05,-2.0457945e-05,-0.0001445399,-6.0018334e-05,4.0750732421875,112.68791961669922
1779209066.938491,3.500974416732788,figure8,1000,1.525902189669642,-0.0003218386,0.0011197876,0.0,0.0021894816,0.010167809,-2.7496368e-05,2.3094937e-05,3.590858314492445e-05,0,0.0021619853,0.010190904,0.03771106,-0.0022762236185371876,-0.01902143657207489,0.6451316475868225,0.7638312578201294,80.38983657334063,0.0008530616760253906,79,-2.7496368e-05,2.3094937e-05,3.590858314492445e-05,2.8916615e-05,0.0001853705,0.00018761234909558743,-1.818049e-05,-3.096605e-05,0.00018759654,2.435616e-06,4.0750732421875,112.69771575927734
1779209067.0459044,3.6083877086639404,figure8,1000,1.525902189669642,-0.0010440655,0.00036346694,0.0,0.0021894816,0.010167809,-5.893968e-05,9.37283e-06,5.968027978476487e-05,0,0.002130542,0.010177182,0.037725866,-0.002300646621733904,-0.018946414813399315,0.6450585722923279,0.7638946771621704,80.37857914534051,0.010096311569213867,80,-5.893968e-05,9.37283e-06,5.968027978476487e-05,-7.584669e-05,8.782567e-05,0.00011604339338647757,6.100354e-07,-5.967716e-05,7.391346e-05,8.945876e-05,4.0750732421875,112.71113586425781
1779209067.1483784,3.7108616828918457,figure8,1500,2.288853284504463,-0.0008391859,0.0007811039,0.0,0.0021894816,0.010167809,-5.249679e-05,3.014505e-05,6.0536245657207735e-05,0,0.0021369848,0.010197954,0.03773079,-0.0024587009102106094,-0.01863900199532509,0.6451073884963989,0.7638607025146484,80.38472860426802,0.009212493896484375,81,-5.249679e-05,3.014505e-05,6.0536245657207735e-05,-3.4391946e-05,0.000121770136,0.00012653367684282006,-2.0952937e-05,-5.6794466e-05,0.00011431491,5.4248245e-05,4.0750732421875,112.76280212402344
1779209067.20928,3.771763324737549,figure8,1500,2.288853284504463,-0.00038270396,-0.0010147077,0.0,0.0021894816,0.010167809,-4.9626455e-05,-1.8352643e-05,5.291128942094553e-05,0,0.0021398552,0.010149457,0.0376801,-0.002352434443309903,-0.019215958192944527,0.6450796127319336,0.7638700604438782,80.38284425248476,0.008421659469604492,82,-4.9626455e-05,-1.8352643e-05,5.291128942094553e-05,-1.0116405e-05,-0.00015059691,0.000150936314835886,2.6385507e-05,-4.586294e-05,-0.00015017053,-1.5185087e-05,4.0750732421875,112.76388549804688
1779209067.2931764,3.8556597232818604,figure8,2000,3.051804379339284,1.713814e-05,-0.0005760161,0.0,0.0021894816,0.010167809,-3.3628196e-05,-1.3405457e-05,3.620168187001874e-05,0,0.0021558534,0.010154404,0.03776411,-0.0034305306617170572,-0.015159215778112411,0.6451079249382019,0.7639333605766296,80.3725400338241,0.010206222534179688,83,-3.3628196e-05,-1.3405457e-05,3.620168187001874e-05,5.1369017e-05,-8.7343025e-05,0.00010132907067347419,1.8840678e-05,-3.0912634e-05,-7.7521865e-05,-6.52529e-05,4.0750732421875,112.76388549804688
1779209067.3822012,3.9446845054626465,figure8,2000,3.051804379339284,-0.00018729507,-0.00048302865,0.0,0.0021894816,0.010167809,-3.7599355e-05,-1.359731e-05,3.998247572116692e-05,0,0.0021518823,0.010154212,0.037710577,-0.002037981990724802,-0.01958935335278511,0.6451564431190491,0.7637966275215149,80.39580134637289,0.012972593307495117,84,-3.7599355e-05,-1.359731e-05,3.998247572116692e-05,2.2146927e-05,-6.180737e-05,6.565544288585618e-05,1.9679841e-05,-3.4803765e-05,-5.724605e-05,-3.2148513e-05,4.0750732421875,112.73698425292969
1779209067.4669673,4.0294506549835205,figure8,2000,3.051804379339284,0.001537792,-0.00051356107,0.0,0.0021894816,0.010167809,2.8359704e-05,-2.9238872e-05,4.07330879813061e-05,0,0.0022178413,0.01013857,0.03764495,-0.0017051991308107972,-0.021587444469332695,0.6452429890632629,0.7636704444885254,80.41737321833834,0.005249500274658203,85,2.8359704e-05,-2.9238872e-05,4.07330879813061e-05,0.00022944903,-9.4000454e-05,0.0002479575287739072,2.4109857e-05,3.2831376e-05,-5.44925e-05,-0.00024189564,4.080351829528809,112.75411987304688
1779209067.6558733,4.218356609344482,figure8,2500,3.8147554741741057,0.00027399827,-0.00069073273,0.0,0.0021894816,0.010167809,-2.3094937e-05,-3.505498e-05,4.1978897176104605e-05,0,0.0021663867,0.010132754,0.03766564,-0.0012896034168079495,-0.02191036194562912,0.645380437374115,0.7635459899902344,80.4393225672719,0.008913516998291016,87,-2.3094937e-05,-3.505498e-05,4.1978897176104605e-05,7.728334e-05,-7.5219534e-05,0.00010784569000780448,3.8403963e-05,-1.6951803e-05,-6.1338615e-05,-8.870326e-05,4.0750732421875,112.75263977050781
1779209067.9463093,4.5087926387786865,figure8,3500,5.340657663843747,-6.7391404e-05,-0.0002813635,0.0,0.0021894816,0.010167809,-3.322959e-05,-1.2022443e-05,3.5337583027868785e-05,0,0.002156252,0.010155787,0.037665013,-0.0024122996255755424,-0.019178029149770737,0.6451042890548706,0.7638500332832336,80.38641171965764,0.004904031753540039,88,-3.322959e-05,-1.2022443e-05,3.5337583027868785e-05,4.37725e-05,-2.918664e-05,5.261075644411948e-05,1.7403032e-05,-3.075515e-05,-2.1466636e-05,-4.803202e-05,4.0750732421875,112.65241241455078
1779209068.027457,4.589940309524536,figure8,3500,5.340657663843747,-0.00085371244,-0.000336561,0.0,0.0021894816,0.010167809,-5.7633966e-05,-1.0900199e-05,5.865567609932138e-05,0,0.0021318477,0.010156909,0.037714295,-0.0022618549410253763,-0.018711384385824203,0.6451426148414612,0.7638296484947205,80.39023544833088,0.008949756622314453,89,-5.7633966e-05,-1.0900199e-05,5.865567609932138e-05,-6.431552e-05,-1.606405e-05,6.629132554967743e-05,2.0368472e-05,-5.5005577e-05,-2.6575259e-05,6.0731338e-05,4.0750732421875,112.64517974853516
1779209068.109448,4.671931266784668,figure8,4000,6.103608758678568,-0.00029458984,-0.0007096308,0.0,0.0021894816,0.010167809,-4.4902787e-05,-2.6635826e-05,5.220849951443386e-05,0,0.0021445788,0.010141173,0.037702348,-0.0020433207973837852,-0.01958327367901802,0.6452277898788452,0.7637364864349365,80.40648211182425,0.018985271453857422,90,-4.4902787e-05,-2.6635826e-05,5.220849951443386e-05,8.0585705e-06,-7.685055e-05,7.727190493417006e-05,3.374669e-05,-3.9835766e-05,-7.443277e-05,-2.0753567e-05,4.0750732421875,112.67365264892578
1779209068.1905296,4.7530128955841064,figure8,4000,6.103608758678568,0.00032209346,-0.0013771204,0.0,0.0021894816,0.010167809,-2.656877e-05,-5.820021e-05,6.397784014750021e-05,0,0.0021629129,0.010109609,0.037708327,-0.0025524464435875416,-0.018213896080851555,0.6452723145484924,0.7637313008308411,80.40783578009254,0.015603780746459961,91,-2.656877e-05,-5.820021e-05,6.397784014750021e-05,7.076061e-05,-0.00016590723,0.0001803670528776346,6.1813764e-05,-1.649918e-05,-0.00015179654,-9.7417054e-05,4.0750732421875,112.67365264892578
1779209068.2730346,4.835517883300781,figure8,4000,6.103608758678568,-0.00085346063,-0.00026531742,0.0,0.0021894816,0.010167809,-5.7168305e-05,-2.1405518e-05,6.104433781791376e-05,0,0.0021323133,0.010146404,0.03771817,-0.002182203810662031,-0.0194778423756361,0.6451852321624756,0.7637746930122375,80.39970689754811,0.016398906707763672,92,-5.7168305e-05,-2.1405518e-05,6.104433781791376e-05,-6.281461e-05,1.8957675e-05,6.561301930140392e-05,3.0639912e-05,-5.2797794e-05,8.216344e-06,6.5096545e-05,4.0750732421875,112.65811157226562
1779209068.355605,4.91808819770813,figure8,4500,6.866559853513389,-0.0006108897,0.0007576191,0.0,0.0021894816,0.010167809,-4.608184e-05,1.3575889e-05,4.803999175007591e-05,0,0.0021433998,0.010181385,0.03769986,-0.0024400518741458654,-0.018708324059844017,0.6450448036193848,0.763911783695221,80.37560778925258,0.017865896224975586,93,-4.608184e-05,1.3575889e-05,4.803999175007591e-05,-2.9615549e-06,0.00014266609,0.00014269682469878435,-5.6804547e-06,-4.7702968e-05,0.00014016291,2.6771999e-05,4.0750732421875,112.68927764892578
1779209068.4188395,4.981322765350342,figure8,4500,6.866559853513389,-0.00069578446,1.8615334e-05,0.0,0.0021894816,0.010167809,-5.2191317e-05,-8.707866e-07,5.21985804932593e-05,0,0.0021372903,0.010166938,0.037711315,-0.0027105880435556173,-0.017848912626504898,0.6452465057373047,0.7637611031532288,80.40261071037625,0.020274877548217773,94,-5.2191317e-05,-8.707866e-07,5.21985804932593e-05,-3.220585e-05,2.86133e-05,4.3080597115754866e-05,9.5601345e-06,-5.131565e-05,2.2843336e-05,3.6525606e-05,4.0750732421875,112.68339538574219
1779209068.500416,5.062899351119995,figure8,5000,7.629510948348211,-0.00043544447,0.0003056447,0.0,0.0021894816,0.010167809,-4.232675e-05,1.0005198e-05,4.349318909105725e-05,0,0.0021471549,0.010177814,0.037719,-0.002478263573721051,-0.018518006429076195,0.6450895667076111,0.763878583908081,80.38158326938694,0.008042335510253906,95,-4.232675e-05,1.0005198e-05,4.349318909105725e-05,9.00263e-06,5.4810524e-05,5.554494532903767e-05,-2.792356e-06,-4.340346e-05,5.5544228e-05,2.8197792e-07,4.069794654846191,112.68339538574219
1779209068.6091828,5.171666145324707,figure8,5000,7.629510948348211,-9.999273e-05,-0.0009164591,0.0,0.0021894816,0.010167809,-3.684871e-05,-3.6153942e-05,5.162300784910969e-05,0,0.002152633,0.010131655,0.037695,-0.0027336401399224997,-0.018066585063934326,0.6450328230857849,0.763936460018158,80.37139533087935,0.020258188247680664,96,-3.684871e-05,-3.6153942e-05,5.162300784910969e-05,2.3323031e-05,-0.00010505685,0.00010761461802163853,4.180798e-05,-3.0282466e-05,-9.967585e-05,-4.0566385e-05,4.0750732421875,112.62405395507812
1779209068.6921206,5.254603862762451,figure8,5500,8.392462043183032,-7.904298e-05,-1.0484277e-05,0.0,0.0021894816,0.010167809,-2.8770417e-05,-7.607043e-06,2.9759099096569998e-05,0,0.0021607112,0.010160202,0.03769569,-0.002575984224677086,-0.018358591943979263,0.6451225280761719,0.7638542056083679,80.38593291933559,0.0073223114013671875,97,-2.8770417e-05,-7.607043e-06,2.9759099096569998e-05,4.160407e-05,1.5786885e-05,4.4498589964230246e-05,1.2305172e-05,-2.7095879e-05,2.251349e-05,-3.838316e-05,4.0750732421875,112.62405395507812
1779209068.8137155,5.376198768615723,figure8,5500,8.392462043183032,-0.0006269673,0.0008723262,0.0,0.0021894816,0.010167809,-4.3684617e-05,3.693439e-05,5.720572472836391e-05,0,0.002145797,0.010204744,0.03767954,-0.0027445757295936346,-0.017644235864281654,0.6450158357620239,0.763960599899292,80.3672456588013,0.005269050598144531,98,-4.3684617e-05,3.693439e-05,5.720572472836391e-05,-7.0625647e-06,0.00011911899,0.00011932817506341329,-2.9103785e-05,-4.9249003e-05,0.000116257674,2.689545e-05,4.069794654846191,112.55937957763672
1779209068.8746102,5.437093496322632,figure8,6000,9.155413138017853,-0.00056976255,-0.0022917641,0.0,0.0021894816,0.010167809,-5.7645142e-05,-4.8582442e-05,7.538710844656288e-05,0,0.0021318365,0.010119227,0.03768398,-0.002055214485153556,-0.019543075934052467,0.645297646522522,0.7636785507202148,80.4168021643012,0.004964351654052734,99,-5.7645142e-05,-4.8582442e-05,7.538710844656288e-05,-7.337839e-05,-0.0003358208,0.0003437440947437132,5.750121e-05,-4.8752714e-05,-0.0003433504,1.6447077e-05,4.069794654846191,112.55937957763672
1779209068.9814959,5.543979167938232,figure8,6000,9.155413138017853,-0.00034699615,-0.0009321771,0.0,0.0021894816,0.010167809,-4.473701e-05,-1.7805025e-05,4.814996378322615e-05,0,0.0021447446,0.010150004,0.037680432,-0.002644846448674798,-0.01807444356381893,0.6451581716537476,0.7638306617736816,80.39020078337421,0.01806473731994629,100,-4.473701e-05,-1.7805025e-05,4.814996378322615e-05,-1.0074393e-05,-0.00013662389,0.00013699481556061252,2.5023455e-05,-4.113692e-05,-0.00013638851,-1.287461e-05,4.069794654846191,112.55836486816406
1779209069.0642002,5.626683473587036,figure8,6500,9.918364232852674,-0.00047319484,-0.0010766047,0.0,0.0021894816,0.010167809,-5.0522387e-05,-2.9383227e-05,5.8445577885740874e-05,0,0.0021389592,0.010138426,0.037678123,-0.002248841105028987,-0.019131969660520554,0.6453125476837158,0.7636756896972656,80.41741529462826,0.01837921142578125,101,-5.0522387e-05,-2.9383227e-05,5.8445577885740874e-05,-2.8117936e-05,-0.00013779558,0.0001406351289351983,3.738365e-05,-4.4926033e-05,-0.00014055365,4.7869e-06,4.069794654846191,112.5837631225586
1779209069.1862144,5.748697757720947,figure8,6500,9.918364232852674,-0.00042241905,-0.00067843014,0.0,0.0021894816,0.010167809,-4.696101e-05,-2.084393e-05,5.137903957218999e-05,0,0.0021425206,0.010146965,0.037697263,-0.002206782577559352,-0.01920538768172264,0.6452370882034302,0.7637379169464111,80.40638014683113,0.001440286636352539,102,-4.696101e-05,-2.084393e-05,5.137903957218999e-05,-1.199354e-05,-7.802056e-05,7.893701642962347e-05,2.8378892e-05,-4.2830412e-05,-7.892824e-05,-1.1770189e-06,4.064516067504883,112.6579818725586
1779209069.2274845,5.789967775344849,figure8,6500,9.918364232852674,0.00063036534,-0.0005959879,0.0,0.0021894816,0.010167809,-2.7431175e-05,-2.4832785e-05,3.700184565512584e-05,0,0.0021620505,0.010142976,0.037671722,-0.0018477070843800902,-0.02004954032599926,0.6452420353889465,0.7637128233909607,80.41050829904565,0.007775783538818359,103,-2.7431175e-05,-2.4832785e-05,3.700184565512584e-05,0.00015931687,-8.886866e-05,0.0001824267123358981,2.9055487e-05,-2.2911026e-05,-6.10866e-05,-0.00017189512,4.064516067504883,112.6802749633789
1779209069.3293214,5.8918046951293945,figure8,7000,10.681315327687495,0.004125982,-0.0031982437,0.0,0.0021894816,0.010167809,9.736605e-05,-0.00015075598,0.0001794645176656292,0,0.0022868477,0.010017053,0.037647653,-0.0002066122688120231,-0.020374413579702377,0.645233690738678,0.763713538646698,80.41003552087716,0.01621270179748535,104,9.736605e-05,-0.00015075598,0.0001794645176656292,0.00051236944,-0.0004666723,0.000693040734304209,0.0001324284,0.00012112073,-0.00037479194,-0.00058295496,4.064516067504883,112.64100646972656
1779209069.3908248,5.95330810546875,figure8,7000,10.681315327687495,0.016949581,-0.006687764,0.0,0.0021894816,0.010167809,0.0005116882,-0.00035475194,0.0006226345129111847,0,0.0027011698,0.009813057,0.03769813,0.004634725861251354,-0.017778286710381508,0.6445477604866028,0.76434326171875,80.2949127210187,0.006029367446899414,105,0.0005116882,-0.00035475194,0.0006226345129111847,0.0020925445,-0.001180368,0.0024025009487758375,0.00026341612,0.0005641681,-0.0008107206,-0.00226158,4.064516067504883,112.64100646972656
1779209069.4719048,6.034388065338135,figure8,7500,11.444266422522317,0.029358044,-0.013519552,0.0,0.0021894816,0.010167809,0.0010099127,-0.0007266104,0.001244140793217022,0,0.0031993943,0.009441199,0.037795573,0.011213087476789951,-0.012392368167638779,0.6445272564888,0.7643986940383911,80.27285555268013,0.0061299800872802734,106,0.0010099127,-0.0007266104,0.001244140793217022,0.0033105277,-0.0022038624,0.003977009199383473,0.0005455332,0.0011181592,-0.001612844,-0.0036352905,4.064516067504883,112.62931060791016
1779209069.5559444,6.118427753448486,figure8,7500,11.444266422522317,0.018933665,-0.009262456,0.0,0.0021894816,0.010167809,0.000854549,-0.0006368235,0.0010657383024579013,0,0.0030440306,0.009530986,0.03777341,0.009432519786059856,-0.012600267305970192,0.6445339918136597,0.7644137740135193,80.27510122276972,0.013392210006713867,107,0.000854549,-0.0006368235,0.0010657383024579013,0.0017103015,-0.0011918705,0.002084631057973182,0.00048332394,0.00094984006,-0.0008858433,-0.0018870528,4.059237480163574,112.5899429321289
1779209069.661242,6.223725318908691,figure8,8000,12.207217517357137,0.019504866,-0.010918129,0.0,0.0021894816,0.010167809,0.0009706626,-0.0007784683,0.0012442663399677494,0,0.0031601442,0.009389341,0.037878513,0.011636125855147839,-0.013144150376319885,0.6449848413467407,0.7639936804771423,80.34315466353911,0.01649641990661621,108,0.0009706626,-0.0007784683,0.0012442663399677494,0.0015380753,-0.0012501236,0.001982040514851087,0.0006046119,0.001087494,-0.00097440206,-0.0017259852,4.064516067504883,112.56135559082031
1779209069.7426846,6.30516791343689,figure8,8000,12.207217517357137,0.01837818,-0.00882777,0.0,0.0021894816,0.010167809,0.0010250481,-0.00076577626,0.0012795064858847184,0,0.0032145297,0.009402033,0.03779104,0.011421228758990765,-0.013043752871453762,0.6446139812469482,0.764311671257019,80.2873662473291,0.01567840576171875,109,0.0010250481,-0.00076577626,0.0012795064858847184,0.0012749936,-0.00082879927,0.001520696197928729,0.0005818673,0.001139547,-0.0006018195,-0.0013965422,4.064516067504883,112.56575775146484
1779209069.9073284,6.469811677932739,figure8,8500,12.970168612191959,0.015661836,-0.007793037,0.0,0.0021894816,0.010167809,0.0009940406,-0.00075367186,0.001247452622382521,0,0.0031835223,0.009414137,0.037817657,0.011518632061779499,-0.012713774107396603,0.6445247530937195,0.7643909454345703,80.27312388789043,0.01588153839111328,110,0.0009940406,-0.00075367186,0.001247452622382521,0.0008359266,-0.0005580766,0.0010050984188675297,0.00057489245,0.0011070848,-0.00040882258,-0.0009181976,4.059237480163574,112.56568145751953
1779209069.9346058,6.497089147567749,figure8,8500,12.970168612191959,0.014681762,-0.0066776336,0.0,0.0021894816,0.010167809,0.0010002702,-0.0007480886,0.0012490704988348744,0,0.0031897519,0.009419721,0.037826728,0.011746515519917011,-0.013127382844686508,0.6444521546363831,0.7644416689872742,80.26316414572482,0.02050495147705078,111,0.0010002702,-0.0007480886,0.0012490704988348744,0.00066764536,-0.00031671615,0.0007389583764164859,0.00056814356,0.0011123803,-0.00019923961,-0.0007115919,4.059237480163574,112.56568145751953
1779209070.019644,6.582127332687378,figure8,9000,13.733119707026779,0.013559831,-0.006442852,0.0,0.0021894816,0.010167809,0.0009977343,-0.00075022224,0.0012483217038351609,0,0.003187216,0.009417587,0.037836995,0.011782767251133919,-0.013188363052904606,0.6444193720817566,0.764467716217041,80.2583868485596,0.010338306427001953,112,0.0009977343,-0.00075022224,0.0012483217038351609,0.0004593606,-0.00022842467,0.0005130204704733442,0.0005705828,0.0011102892,-0.00014740477,-0.0004913877,4.059237480163574,112.58348846435547
1779209070.1209745,6.683457851409912,figure8,9000,13.733119707026779,0.013314164,-0.0064871665,0.0,0.0021894816,0.010167809,0.0010145195,-0.0007631583,0.0012695118837157497,0,0.003204001,0.009404651,0.037767157,0.011360743083059788,-0.012045939452946186,0.6445611715316772,0.7643734216690063,80.27706683031143,0.019907712936401367,113,0.0010145195,-0.0007631583,0.0012695118837157497,0.00037642935,-0.00020218993,0.00042729360519033646,0.00058086024,0.001128832,-0.00013571279,-0.00040516892,4.059237480163574,112.61843872070312
1779209070.2040713,6.766554594039917,figure8,9500,14.4960708018616,0.012952272,-0.006295692,0.0,0.0021894816,0.010167809,0.0010237875,-0.00076510385,0.0012780942020105444,0,0.0032132692,0.009402705,0.037820555,0.01167098805308342,-0.012587166391313076,0.64463871717453,0.7642946243286133,80.28984102142871,0.009998798370361328,114,0.0010237875,-0.00076510385,0.0012780942020105444,0.0002933957,-0.00014780847,0.0003285245379227262,0.0005814664,0.001138166,-9.620558e-05,-0.0003141224,4.059237480163574,112.6220932006836
1779209070.3060548,6.86853814125061,figure8,9500,14.4960708018616,0.011522314,-0.006025895,0.0,0.0021894816,0.010167809,0.0009882641,-0.0007543452,0.0012432628911729503,0,0.0031777457,0.009413464,0.03782021,0.011489168740808964,-0.012231203727424145,0.6444758176803589,0.7644405364990234,80.26464443056335,0.018843889236450195,115,0.0009882641,-0.0007543452,0.0012432628911729503,9.095558e-05,-6.881224e-05,0.00011405280248577134,0.00057636906,0.0011015905,-5.2440926e-05,-0.00010128175,4.059237480163574,112.60188293457031
1779209070.3679616,6.930444955825806,figure8,10000,15.259021896696423,0.011734905,-0.0047497647,0.0,0.0021894816,0.010167809,0.0010065641,-0.00071789976,0.0012363459732136833,0,0.0031960458,0.009449909,0.037815664,0.011600395664572716,-0.012348870746791363,0.6444475054740906,0.7644608020782471,80.2606281785606,0.008186578750610352,116,0.0010065641,-0.00071789976,0.0012363459732136833,0.00013932624,0.00010250691,0.0001729724429376726,0.0005372759,0.0011135017,0.00012459888,-0.000119977434,4.059237480163574,112.60188293457031
1779209070.4502225,7.0127058029174805,figure8,10000,15.259021896696423,0.012493014,-0.005951905,0.0,0.0021894816,0.010167809,0.0010335254,-0.000759162,0.001282381264734612,0,0.003223007,0.009408647,0.037824962,0.01182323507964611,-0.01273360662162304,0.6445586681365967,0.7643573880195618,80.27812537714665,0.007170677185058594,117,0.0010335254,-0.000759162,0.001282381264734612,0.00019465508,-7.689019e-05,0.00020929094613410885,0.0005737328,0.0011468795,-4.291541e-05,-0.00020484377,4.053958892822266,112.56385040283203
1779209070.5318203,7.094303607940674,figure8,10000,15.259021896696423,0.012008357,-0.006713629,0.0,0.0021894816,0.010167809,0.0010231687,-0.00078474823,0.0012894587548100466,0,0.0032126503,0.009383061,0.037805963,0.01153658702969551,-0.012342102825641632,0.6442882418632507,0.7645961046218872,80.23676143786213,0.017184019088745117,118,0.0010231687,-0.00078474823,0.0012894587548100466,9.2854825e-05,-0.00016105126,0.00018590192789714221,0.00059987657,0.0011414255,-0.00014297267,-0.00011882062,4.053958892822266,112.51052856445312
1779209070.5935624,7.15604567527771,figure8,10500,16.021972991531243,0.0113312425,-0.0054771174,0.0,0.0021894816,0.010167809,0.0010128664,-0.0007487908,0.0012595975528033327,0,0.003202348,0.009419018,0.037811067,0.011407182551920414,-0.011967903934419155,0.6444991827011108,0.7644262313842773,80.26757293204817,0.005820274353027344,119,0.0010128664,-0.0007487908,0.0012595975528033327,2.2721477e-05,3.4820514e-05,4.157804496075969e-05,0.0005667919,0.0011248703,3.816038e-05,-1.6508156e-05,4.053958892822266,112.51052856445312
1779209070.678629,7.241112232208252,figure8,10500,16.021972991531243,0.011098418,-0.007903874,0.0,0.0021894816,0.010167809,0.0009930739,-0.0008252235,0.0012911969725461167,0,0.0031825555,0.009342586,0.037841868,0.012394827790558338,-0.01406174711883068,0.6449984312057495,0.7639540433883667,80.34725590185649,0.015586137771606445,120,0.0009930739,-0.0008252235,0.0012911969725461167,-6.29487e-05,-0.00028013563,0.0002871210739891055,0.00064702507,0.0011173845,-0.0002867245,1.5085359e-05,4.053958892822266,112.4428939819336
1779209070.824811,7.387294292449951,figure8,11000,16.784924086366065,0.010694885,-0.0058322917,0.0,0.0021894816,0.010167809,0.0009855404,-0.0007436145,0.0012346062226827315,0,0.003175022,0.009424195,0.037821226,0.011625789105892181,-0.012792116962373257,0.6445155143737793,0.7643958330154419,80.27188402647016,0.01959967613220215,121,0.0009855404,-0.0007436145,0.0012346062226827315,-5.9961e-05,-2.3885921e-05,6.45434641854331e-05,0.00056639203,0.0010970199,-3.3674252e-05,5.5062723e-05,4.053958892822266,112.5039291381836
1779209070.8660104,7.4284937381744385,figure8,11000,16.784924086366065,0.011738119,-0.0065633724,0.0,0.0021894816,0.010167809,0.0010033064,-0.00076385215,0.001260989170738277,0,0.003192788,0.009403957,0.037829567,0.011705340817570686,-0.012568376027047634,0.6446061134338379,0.7643219232559204,80.28489134274476,0.01909637451171875,122,0.0010033064,-0.00076385215,0.001260989170738277,8.583118e-05,-0.00016230509,0.000183602653574069,0.0005835905,0.0011178174,-0.00014549351,-0.00011198915,4.053958892822266,112.5039291381836
1779209070.952159,7.514642238616943,figure8,11000,16.784924086366065,0.012159849,-0.006327766,0.0,0.0021894816,0.010167809,0.0010256432,-0.0007671453,0.0012808028033079511,0,0.0032151248,0.009400664,0.037802584,0.01148230116814375,-0.012138274498283863,0.6444948315620422,0.764426052570343,80.267281200023,0.011725187301635742,123,0.0010256432,-0.0007671453,0.0012808028033079511,0.00013173575,-0.00012417762,0.00018103697867634673,0.00058271654,0.0011405688,-0.000100120116,-0.0001508322,4.048680305480957,112.49735260009766
1779209071.0402262,7.602709531784058,figure8,11000,16.784924086366065,0.012364731,-0.008028276,0.0,0.0021894816,0.010167809,0.0010306267,-0.00084119104,0.0013303359343634154,0,0.0032201083,0.009326618,0.03783448,0.012332483194768429,-0.013621735386550426,0.645028829574585,0.7639372944831848,80.3506719175427,0.0024242401123046875,124,0.0010306267,-0.00084119104,0.0013303359343634154,0.00010756965,-0.00031506567,0.0003329228305316557,0.0006565388,0.001157044,-0.0002925776,-0.00015885831,4.053958892822266,112.5146255493164
1779209071.142492,7.704975366592407,figure8,11000,16.784924086366065,0.011984719,-0.0054140766,0.0,0.0021894816,0.010167809,0.0010389742,-0.000757643,0.0012858811159201168,0,0.0032284558,0.009410166,0.03780383,0.011456874199211597,-0.012160569429397583,0.6445463299751282,0.7643826603889465,80.2750660703846,0.009637117385864258,125,0.0010389742,-0.000757643,0.0012858811159201168,0.00010164442,4.3142893e-05,0.00011042145736499851,0.00057125394,0.0011520239,5.969254e-05,-9.289617e-05,4.048680305480957,112.46484375
1779209071.2441301,7.806613445281982,figure8,11000,16.784924086366065,0.010941721,-0.0056989132,0.0,0.0021894816,0.010167809,0.0010040151,-0.00075915735,0.001258716070380764,0,0.0031934967,0.009408652,0.03781436,0.011500412598252296,-0.012632930651307106,0.6445323824882507,0.7643861174583435,80.27407893039448,0.019950151443481445,126,0.0010040151,-0.00075915735,0.001258716070380764,-4.3688342e-05,2.5225494e-05,5.044795989790435e-05,0.0005786325,0.001117833,1.7482427e-05,4.7321893e-05,4.048680305480957,112.42498016357422
1779209071.3259666,7.8884499073028564,figure8,11000,16.784924086366065,0.011462102,-0.0057107913,0.0,0.0021894816,0.010167809,0.0010209163,-0.00076151174,0.0012736444569065128,0,0.003210398,0.0094062975,0.037799336,0.011214692145586014,-0.011483733542263508,0.644540548324585,0.7644016742706299,80.2727712262958,0.00999140739440918,127,0.0010209163,-0.00076151174,0.0012736444569065128,2.4653651e-05,9.963379e-06,2.6590815274078304e-05,0.0005780719,0.0011349022,1.3985565e-05,-2.2615823e-05,4.048680305480957,112.42306518554688
1779209071.4081185,7.970601797103882,figure8,11000,16.784924086366065,0.011712,-0.005750474,0.0,0.0021894816,0.010167809,0.001031246,-0.000764044,0.0012834451902943556,0,0.0032207277,0.009403765,0.03778794,0.01140038762241602,-0.012342371977865696,0.6444846391677856,0.7644326686859131,80.26626698156163,0.0022754669189453125,128,0.001031246,-0.000764044,0.0012834451902943556,5.1740746e-05,-1.4789362e-06,5.1761879037560916e-05,0.0005786925,0.0011455769,7.2901466e-06,-5.1245934e-05,4.048680305480957,112.3978042602539
1779209071.5103767,8.0728600025177,figure8,11000,16.784924086366065,0.0114101,-0.0057177786,0.0,0.0021894816,0.010167809,0.0010231417,-0.00076096505,0.001275102594042458,0,0.0032126233,0.009406844,0.037798904,0.011480518616735935,-0.012556517496705055,0.6444934010505676,0.7644205093383789,80.26805691868617,0.013223409652709961,129,0.0010231417,-0.00076096505,0.001275102594042458,9.591602e-06,9.080648e-06,1.320821730583733e-05,0.00057706353,0.0011370507,1.0571325e-05,-7.91859e-06,4.048680305480957,112.38814544677734
1779209071.5921807,8.154664039611816,figure8,11000,16.784924086366065,0.011196988,-0.0051103104,0.0,0.0021894816,0.010167809,0.0010198718,-0.00073782355,0.0012587780281591136,0,0.0032093534,0.009429986,0.03781385,0.011266120709478855,-0.012042632326483727,0.6445629000663757,0.7643734216690063,80.27735801583874,0.012104511260986328,130,0.0010198718,-0.00073782355,0.0012587780281591136,-5.1156826e-06,9.0078174e-05,9.022332063888635e-05,0.00055499125,0.0011298261,8.792043e-05,2.0254509e-05,4.048680305480957,112.38814544677734
1779209071.6540263,8.216509580612183,figure8,11000,16.784924086366065,0.00934593,-0.008438321,0.0,0.0021894816,0.010167809,0.0009508347,-0.0008196216,0.0012553351089353384,0,0.0031403163,0.009348188,0.03782481,0.011575874872505665,-0.013009408488869667,0.6449596881866455,0.764018177986145,80.33906824010263,0.012788534164428711,131,0.0009508347,-0.0008196216,0.0012553351089353384,-0.00034221096,-0.00033816844,0.0004811093753721223,0.00064843136,0.0010748967,-0.0003908015,0.0002806073,4.048680305480957,112.36627960205078
1779209071.7208905,8.283373832702637,figure8,11000,16.784924086366065,0.008217249,-0.0066841654,0.0,0.0021894816,0.010167809,0.00090657827,-0.00077260844,0.0011911372645921725,0,0.00309606,0.009395201,0.037837483,0.010476519353687763,-0.012918451800942421,0.6450352668762207,0.7639718055725098,80.35065059818889,0.004848003387451172,132,0.00090657827,-0.00077260844,0.0011911372645921725,-0.00041703545,-4.8174465e-05,0.000419808694010217,0.0006097188,0.001023255,-0.00011739551,0.00040306032,4.048680305480957,112.38146209716797
1779209071.8070335,8.369516849517822,figure8,11000,16.784924086366065,0.004090724,-0.0028820394,0.0,0.0021894816,0.010167809,0.0007751072,-0.00063136034,0.0009997034594967083,0,0.0029645888,0.009536449,0.03771689,0.007592672947794199,-0.012591646984219551,0.6445282101631165,0.7644391059875488,80.27491534032596,0.019184112548828125,133,0.0007751072,-0.00063136034,0.0009997034594967083,-0.00084119407,0.0005563942,0.001008554439628471,0.00049135566,0.0008706186,0.00040630338,0.0009230924,4.048680305480957,112.38091278076172
1779209071.8880777,8.450561046600342,figure8,11000,16.784924086366065,0.0012161112,0.0027255889,0.0,0.0021894816,0.010167809,0.0006530797,-0.00036577228,0.0007485335731724838,0,0.0028425613,0.009802037,0.037681848,0.006628778297454119,-0.015962157398462296,0.6440575122833252,0.7647818326950073,80.21435762448795,0.005139589309692383,134,0.0006530797,-0.00036577228,0.0007485335731724838,-0.0009738263,0.0012273926,0.0015667898190977903,0.00024945138,0.0007057453,0.0010440205,0.0011682684,4.048680305480957,112.38091278076172
1779209071.98997,8.55245327949524,figure8,11000,16.784924086366065,0.0017198031,0.0013096437,0.0,0.0021894816,0.010167809,0.00060512894,-0.00035143457,0.0006997766037512522,0,0.0027946106,0.009816375,0.037646886,0.004763933829963207,-0.017479749396443367,0.644060492515564,0.7647600173950195,80.22073529934308,0.007910490036010742,135,0.00060512894,-0.00035143457,0.0006997766037512522,-0.0008268059,0.00090256927,0.0012240258458519782,0.00024354516,0.0006560283,0.0007490191,0.0009680959,4.048680305480957,112.39691925048828
1779209072.0724487,8.634932041168213,figure8,11000,16.784924086366065,0.00014466932,-0.0010906179,0.0,0.0021894816,0.010167809,0.00049087964,-0.00037800334,0.0006195557830337893,0,0.0026803613,0.009789806,0.037677404,0.00498673552647233,-0.019281767308712006,0.6442812085151672,0.7645293474197388,80.26049529399303,0.0070722103118896484,136,0.00049087964,-0.00037800334,0.0006195557830337893,-0.0009901421,0.0005361322,0.0011259747464663638,0.00028951358,0.000547751,0.00036090362,0.0010665682,4.048680305480957,112.40752410888672
1779209072.2572846,8.819767951965332,figure8,11000,16.784924086366065,0.0020685848,-0.0014518138,0.0,0.0021894816,0.010167809,0.0005101301,-0.0003712466,0.0006309173694990129,0,0.0026996117,0.009796563,0.0376797,0.0048440853133797646,-0.018545564264059067,0.6443194150924683,0.7645162343978882,80.26343712447306,0.008519887924194336,137,0.0005101301,-0.0003712466,0.0006309173694990129,-0.0006616082,0.0003863457,0.000766151676964175,0.0002796267,0.0005655667,0.0002688906,0.0007174164,4.048680305480957,112.39537048339844
1779209072.2784553,8.840938568115234,figure8,11000,16.784924086366065,-0.011904942,0.008781768,0.0,0.0021894816,0.010167809,0.0004274035,-0.00028859545,0.0005157141566531273,0,0.0026168851,0.009879214,0.03770629,0.003079785266891122,-0.01709156297147274,0.6444740891456604,0.7644289135932922,80.28202925337567,0.019527673721313477,138,0.0004274035,-0.00028859545,0.0005157141566531273,-0.0029051597,0.0027102493,0.003973085033663458,0.00021230918,0.00046998498,0.0021809721,0.0033209585,4.048680305480957,112.39537048339844
1779209072.3607645,8.923247814178467,figure8,11000,16.784924086366065,-0.0073904153,0.003806727,0.0,0.0021894816,0.010167809,0.00039878394,-0.00034957845,0.0005303147407988481,0,0.0025882656,0.009818231,0.037675995,0.0032431622967123985,-0.01966909132897854,0.6450748443603516,0.7638594508171082,80.38185200328529,0.010551691055297852,139,0.00039878394,-0.00034957845,0.0005303147407988481,-0.0021276672,0.0016967598,0.002721389662718213,0.00027803524,0.0004515862,0.0013174159,0.0023812554,4.048680305480957,112.3625259399414
1779209072.4633722,9.025855541229248,figure8,11000,16.784924086366065,-0.0007214751,0.0027518224,0.0,0.0021894816,0.010167809,0.00052184425,-0.00033459254,0.00061989804865443,0,0.002711326,0.009833217,0.037664805,0.004676573909819126,-0.018445324152708054,0.6442478895187378,0.7645800113677979,80.25240845633164,0.020084142684936523,140,0.00052184425,-0.00033459254,0.00061989804865443,-0.0010927193,0.0012360344,0.001649792895990308,0.00024140964,0.0005709597,0.0010331838,0.0012862145,4.043401718139648,112.3759765625
1779209072.5451584,9.107641696929932,figure8,11000,16.784924086366065,0.0032058023,0.00069583557,0.0,0.0021894816,0.010167809,0.00059392815,-0.00036675297,0.0006980389501093149,0,0.0027834098,0.009801056,0.03766872,0.0038146714214235544,-0.01443382166326046,0.6439653635025024,0.7649089694023132,80.1969127787186,0.008875131607055664,141,0.00059392815,-0.00036675297,0.0006980389501093149,-0.00053236267,0.0007614754,0.0009291150920453372,0.00026027416,0.00064770033,0.00065971544,0.00065424026,4.043401718139648,112.3851089477539
1779209072.6271532,9.189636468887329,figure8,11000,16.784924086366065,0.0011367914,0.00024340674,0.0,0.0021894816,0.010167809,0.0004998706,-0.00033286866,0.0006005599080979038,0,0.0026893523,0.009834941,0.037693042,0.004557081498205662,-0.018355414271354675,0.6442940831184387,0.7645439505577087,80.25904606707103,0.01939225196838379,142,0.0004998706,-0.00033286866,0.0006005599080979038,-0.00076742424,0.00067524915,0.0010222041918527135,0.00024349455,0.0005489832,0.00053567044,0.00087060814,4.048680305480957,112.41161346435547
1779209072.7119105,9.274393796920776,figure8,11500,17.547875181200887,-0.001366247,-0.0017775206,0.0,0.0021894816,0.010167809,0.00036050193,-0.00035253074,0.0005042217572650111,0,0.0025499836,0.009815278,0.037682377,0.0025840485468506813,-0.01765802875161171,0.6449751853942871,0.7639951109886169,80.3594005979522,0.022604942321777344,143,0.00036050193,-0.00035253074,0.0005042217572650111,-0.0010499298,0.00040033826,0.0011236650686253283,0.00028717986,0.0004144482,0.00021885558,0.0011021459,4.043401718139648,112.42841339111328
1779209072.7802575,9.342740774154663,figure8,11500,17.547875181200887,-0.00030245492,0.0005323645,0.0,0.0021894816,0.010167809,0.00035597663,-0.00026510563,0.0004438472269971729,0,0.0025454583,0.009902704,0.037723117,0.0023106231819838285,-0.01854046806693077,0.6452405452728271,0.7637510299682617,80.4026310545384,0.01910400390625,144,0.00035597663,-0.00026510563,0.0004438472269971729,-0.00075384614,0.0006452791,0.0009923050003510236,0.00020204546,0.00039519364,0.0005105638,0.00085087825,4.043401718139648,112.42841339111328
1779209072.8442793,9.406762599945068,figure8,12000,18.310826276035705,0.007712763,-0.00094012264,0.0,0.0021894816,0.010167809,0.0005868594,-0.0003304463,0.0006734973974287155,0,0.002776341,0.009837363,0.037624046,0.004147189669311047,-0.01711995340883732,0.6440113186836243,0.7648131251335144,80.21234524008534,0.0008742809295654297,145,0.0005868594,-0.0003304463,0.0006734973974287155,0.00031441753,0.00021337527,0.0003799834017470962,0.00022587206,0.0006344923,0.0002637196,-0.00027356786,4.043401718139648,112.41149139404297
1779209072.926406,9.488889217376709,figure8,12000,18.310826276035705,0.007042463,-0.001626973,0.0,0.0021894816,0.010167809,0.0005768244,-0.0003384007,0.0006687611394533842,0,0.002766306,0.0098294085,0.0376298,0.004046923015266657,-0.016707325354218483,0.6440669298171997,0.7647759318351746,80.21928907417453,0.009570598602294922,146,0.0005768244,-0.0003384007,0.0006687611394533842,0.00017909419,0.00011686483,0.00021385069215818422,0.00023549248,0.0006259271,0.00014559034,-0.00015663836,4.03812313079834,112.4232177734375
1779209073.0288796,9.591362953186035,figure8,12500,19.073777370870527,0.0038076502,-0.0017036116,0.0,0.0021894816,0.010167809,0.00046604965,-0.00031383615,0.0005618677674092254,0,0.0026555313,0.009853973,0.037692137,0.0034184486139565706,-0.016485042870044708,0.6441588401794434,0.7647064328193665,80.23254832395722,0.02094101905822754,147,0.00046604965,-0.00031383615,0.0005618677674092254,-0.00023941147,0.00016269562,0.0002894610821803652,0.00023022175,0.0005125362,0.00011972118,0.00026354234,4.032844543457031,112.44364166259766
1779209073.1147168,9.677200078964233,figure8,12500,19.073777370870527,0.005251189,-0.0024194038,0.0,0.0021894816,0.010167809,0.00050085224,-0.00033979863,0.0006052405080514807,0,0.0026903339,0.009828011,0.037688993,0.0042262268252670765,-0.01804910972714424,0.6443094611167908,0.7645401358604431,80.26034856875296,0.019132614135742188,148,0.00050085224,-0.00033979863,0.0006052405080514807,-4.8462978e-05,2.502052e-05,5.4540686621327425e-05,0.00025017106,0.0005511175,1.6461336e-05,5.1997224e-05,4.03812313079834,112.42182159423828
1779209073.2175019,9.779985189437866,figure8,13000,19.83672846570535,0.0059575657,-0.00010992214,0.0,0.0021894816,0.010167809,0.000541952,-0.0002510706,0.0005972841763145323,0,0.0027314336,0.009916739,0.037668347,0.0037790248170495033,-0.017655888572335243,0.643791675567627,0.7649877667427063,80.18149407953955,0.01945185661315918,149,0.000541952,-0.0002510706,0.0005972841763145323,8.640789e-05,0.00027729268,0.0002904437280442685,0.00015497526,0.0005768285,0.0002879661,-3.7856164e-05,4.032844543457031,112.38036346435547
1779209073.3022459,9.864729166030884,figure8,13000,19.83672846570535,0.002810278,-0.00167413,0.0,0.0021894816,0.010167809,0.000414629,-0.0002740249,0.0004969978393366272,0,0.0026041106,0.009893784,0.037640747,0.0024366946890950203,-0.018412360921502113,0.6446492671966553,0.7642528414726257,80.31339260613711,0.006764411926269531,150,0.000414629,-0.0002740249,0.0004969978393366272,-0.00033155322,0.00012342652,0.0003537819217495303,0.00020035301,0.0004548247,6.588001e-05,0.00034759383,4.032844543457031,112.38036346435547
1779209073.3837793,9.94626259803772,figure8,13000,19.83672846570535,0.0047236905,-0.0030825722,0.0,0.0021894816,0.010167809,0.00045503955,-0.00032798946,0.0005609260842935608,0,0.0026445212,0.00983982,0.037680376,0.003938344772905111,-0.01886819116771221,0.6441059708595276,0.7646934390068054,80.23307383929492,0.006642341613769531,151,0.00045503955,-0.00032798946,0.0005609260842935608,-8.3620034e-05,-0.000111865695,0.00013966475479293582,0.0002460424,0.0005040846,-0.00012442967,6.343108e-05,4.032844543457031,112.3732681274414
1779209073.48505,10.0475332736969,figure8,13000,19.83672846570535,0.001328421,-0.0022017795,0.0,0.0021894816,0.010167809,0.00032917596,-0.00027945265,0.00043179924948375783,0,0.0025186576,0.009888357,0.03765257,0.001957674277946353,-0.02028222382068634,0.6450649499893188,0.7638559937477112,80.38345191800549,0.01613783836364746,152,0.00032917596,-0.00027945265,0.00043179924948375783,-0.0004699642,8.035392e-05,0.0004767841369237817,0.00022053573,0.0003712339,7.155977e-07,0.0004767836,4.032844543457031,112.33819580078125
