wall_time_s,elapsed_s,mode,thrust_raw,thrust_percent,roll_cmd_deg,pitch_cmd_deg,yawrate_cmd_deg_s,target_x,target_y,figure8_active,mocap_x,mocap_y,mocap_z,mocap_qx,mocap_qy,mocap_qz,mocap_qw,yaw_deg,mocap_age_s,mocap_frame_count,drift_x_m,drift_y_m,horizontal_drift_m,velocity_x_m_s,velocity_y_m_s,horizontal_speed_m_s,body_error_x_m,body_error_y_m,body_velocity_x_m_s,body_velocity_y_m_s,battery_v,estimate_z
1779208337.368615,0.001842498779296875,figure8,0,0.0,0.0,-0.0,0.0,0.0034829527,0.006508152,0,0.0034829527,0.006508152,0.03704864,0.007475323509424925,0.015500848181545734,-0.6506745219230652,-0.7591617703437805,81.211972491618,0.04265713691711426,62,0.0,0.0,0.0,0.0,0.0,0.0,0.0,0.0,0.0,0.0,4.096187591552734,112.22566986083984
1779208337.4364917,0.06971931457519531,figure8,0,0.0,7.548612e-05,-7.6379154e-05,0.0,0.0034829527,0.006508152,0,0.0034863893,0.0065033967,0.037051685,0.007781399413943291,0.01453548762947321,-0.6505615711212158,-0.7592745423316956,81.19177768561886,0.012997627258300781,63,3.4365803e-06,-4.755333e-06,5.867135308571785e-06,1.0570156e-05,-1.4626346e-05,1.804600141581559e-05,4.1730154e-06,4.124224e-06,-1.2835266e-05,-1.2685194e-05,4.096187591552734,112.22566986083984
1779208337.5006306,0.13385820388793945,figure8,0,0.0,0.00046740242,0.0009720152,0.0,0.0034829527,0.006508152,0,0.0035112668,0.006545919,0.03711554,0.006912533193826675,0.01576692797243595,-0.6504654884338379,-0.7593406438827515,81.18124852879683,0.004574775695800781,64,2.8314069e-05,3.7766993e-05,4.72020360066976e-05,0.000110252855,0.0001655663,0.00019891680132731295,-4.1661333e-05,2.2189317e-05,0.00018051181,-8.356663e-05,4.090909004211426,112.19562530517578
1779208337.5851965,0.21842408180236816,figure8,0,0.0,-0.00016023916,0.001167094,0.0,0.0034829527,0.006508152,0,0.0034891423,0.0065695182,0.037109464,0.007136719301342964,0.015209713019430637,-0.6502118110656738,-0.759567141532898,81.14112278596096,0.0073089599609375,65,6.18957e-06,6.136624e-05,6.167760004460393e-05,-3.9327715e-06,0.00020241272,0.0002024509116550717,-6.158739e-05,-3.334746e-06,0.00019939242,3.505767e-05,4.090909004211426,112.24188995361328
1779208337.6873071,0.32053470611572266,figure8,0,0.0,0.00043018328,0.00076238875,0.0,0.0034829527,0.006508152,0,0.003516281,0.0065564937,0.03708825,0.0068761748261749744,0.015692690387368202,-0.6503909826278687,-0.7594063878059387,81.16974595937354,0.017204761505126953,66,3.332831e-05,4.8341695e-05,5.871708360046817e-05,8.553679e-05,9.931649e-05,0.00013107366995264896,-5.2884872e-05,2.5512465e-05,0.00011126988,-6.927712e-05,4.090909004211426,112.22097778320312
1779208337.7714314,0.4046590328216553,figure8,0,0.0,-0.0010311343,0.0014073495,0.0,0.0034829527,0.006508152,0,0.0034563616,0.0066039567,0.037128083,0.006837864872068167,0.015804896131157875,-0.6497780680656433,-0.7599288821220398,81.07768819400057,0.019652366638183594,67,-2.6591122e-05,9.580469e-05,9.942648365202717e-05,-0.00016020934,0.00024385394,0.0002917734971353028,-9.052126e-05,-4.1128194e-05,0.0002160555,0.00019609128,4.090909004211426,112.22191619873047
1779208337.8327973,0.46602487564086914,figure8,0,0.0,0.0004016974,0.00041362166,0.0,0.0034829527,0.006508152,0,0.0035036132,0.0065636863,0.037076622,0.007009773515164852,0.015521032735705376,-0.6501078605651855,-0.7596510648727417,81.12647392300421,0.008815526962280273,68,2.066046e-05,5.55343e-05,5.925295683546049e-05,8.4182386e-05,3.3754914e-06,8.425003211403166e-05,-5.805658e-05,1.1846801e-05,1.632055e-05,-8.265415e-05,4.090909004211426,112.22191619873047
1779208337.9211988,0.5544264316558838,figure8,0,0.0,0.0003539647,0.0006360521,0.0,0.0034829527,0.006508152,0,0.003507983,0.0065752007,0.037109625,0.006758920382708311,0.016303658485412598,-0.6503115892410278,-0.7594625353813171,81.15988697633577,0.01211237907409668,69,2.5030226e-05,6.7048706e-05,7.156843587469242e-05,7.4331394e-05,4.2951928e-05,8.584884734586636e-05,-7.0098824e-05,1.4429003e-05,5.386478e-05,-6.6847664e-05,4.090909004211426,112.20964050292969
1779208338.0079603,0.6411879062652588,figure8,0,0.0,0.00046410653,-0.0011768691,0.0,0.0034829527,0.006508152,0,0.0035039596,0.006486316,0.03705601,0.007777970749884844,0.014656436629593372,-0.6506755948066711,-0.7591745853424072,81.20937396903216,0.011676788330078125,70,2.1006912e-05,-2.1835789e-05,3.0300033776070622e-05,3.818983e-05,-0.00027573924,0.0002783713039078305,1.836893e-05,2.409719e-05,-0.0002666639,-7.988085e-05,4.096187591552734,112.23674011230469
1779208338.091527,0.7247545719146729,figure8,0,0.0,4.7733294e-05,-0.00033488037,0.0,0.0034829527,0.006508152,0,0.0034915283,0.0065159174,0.037078984,0.006882119923830032,0.01612752489745617,-0.6503804922103882,-0.7594062089920044,81.16967966767244,0.0035135746002197266,71,8.575618e-06,7.765368e-06,1.1569017226090058e-05,-1.3923318e-05,-9.620771e-05,9.720999069028481e-05,-8.989759e-06,7.281922e-06,-9.7204735e-05,-1.0104404e-06,4.090909004211426,112.1802978515625
1779208338.1939385,0.8271660804748535,figure8,0,0.0,0.0006991175,-9.139649e-05,0.0,0.0034829527,0.006508152,0,0.0035289712,0.0065173595,0.037027895,0.007565480191260576,0.015218548476696014,-0.6506455540657043,-0.7591913938522339,81.20666047100511,0.0037622451782226562,72,4.601851e-05,9.207521e-06,4.693060571240753e-05,0.000100204314,-6.311053e-05,0.00011842230963743117,-1.613419e-05,4.4070053e-05,-4.705041e-05,-0.00010867429,4.090909004211426,112.18084716796875
1779208338.2842739,0.9175014495849609,figure8,0,0.0,-0.00055575266,0.00053641887,0.0,0.0034829527,0.006508152,0,0.0034745373,0.0065565645,0.037108492,0.006995631847530603,0.01586606539785862,-0.6502529382705688,-0.7595199346542358,81.14954162523989,0.0003380775451660156,73,-8.415431e-06,4.8412476e-05,4.913845153133583e-05,-0.000104027895,8.126572e-05,0.00013200727352053805,-4.6541278e-05,-1.5763784e-05,6.429279e-05,0.00011529249,4.096187591552734,112.13446807861328
1779208338.3858683,1.0190958976745605,figure8,0,0.0,0.00030748046,0.0010251465,0.0,0.0034829527,0.006508152,0,0.0035136342,0.006578342,0.037075844,0.007126504089683294,0.015491222962737083,-0.6502024531364441,-0.7595696449279785,81.14065939515784,0.019461631774902344,74,3.068149e-05,7.019006e-05,7.66028566265616e-05,6.940128e-05,0.00013610517,0.00015277812273604171,-7.407788e-05,1.9505525e-05,0.00014516979,-4.7611826e-05,4.090909004211426,112.1673583984375
1779208338.4682362,1.101463794708252,figure8,0,0.0,0.0006356789,-0.0015634215,0.0,0.0034829527,0.006508152,0,0.0035142452,0.0064493287,0.0370377,0.007584271486848593,0.014679490588605404,-0.6508380770683289,-0.7590367197990417,81.23394298999456,0.009135961532592773,75,3.129244e-05,-5.8823265e-05,6.662877229408765e-05,5.0558207e-05,-0.00032227422,0.0003262158995807473,5.3367163e-05,3.9891594e-05,-0.0003108046,-9.908233e-05,4.090909004211426,112.1963882446289
1779208338.5537734,1.1870009899139404,figure8,0,0.0,-0.00015008678,-0.00080432155,0.0,0.0034829527,0.006508152,0,0.0034824125,0.0064749494,0.037028287,0.007609377149492502,0.015026063658297062,-0.6506620645523071,-0.7591806054115295,81.2085170989423,0.0014083385467529297,76,-5.401671e-07,-3.320258e-05,3.3206974433279265e-05,-6.7003515e-05,-0.00014317926,0.00015808154163541045,3.289505e-05,4.5408265e-06,-0.00015173781,4.4332934e-05,4.090909004211426,112.19515228271484
1779208338.740324,1.373551607131958,figure8,0,0.0,4.4600496e-05,0.0002878579,0.0,0.0034829527,0.006508152,0,0.0035041142,0.006543189,0.037075873,0.006950822193175554,0.01607501320540905,-0.650353729724884,-0.7594295740127563,81.16546880199753,0.013088464736938477,77,2.1161512e-05,3.503682e-05,4.0931508444984444e-05,-9.672025e-06,1.6842998e-05,1.9422528991366015e-05,-3.787116e-05,1.5529447e-05,1.515773e-05,1.2144047e-05,4.090909004211426,112.2189712524414
1779208338.83052,1.463747501373291,figure8,0,0.0,-0.00041143855,-0.000113245,0.0,0.0034829527,0.006508152,0,0.0034773499,0.006527549,0.037076667,0.007488153409212828,0.014991848729550838,-0.6503857970237732,-0.7594192028045654,81.16670078150625,0.014868021011352539,78,-5.6028366e-06,1.9397121e-05,2.019009877022046e-05,-9.758287e-05,-4.1276e-05,0.0001059534133793207,-1.8306686e-05,-8.515008e-06,-5.5771277e-05,9.0087124e-05,4.090909004211426,112.26038360595703
1779208338.8919754,1.525202989578247,figure8,0,0.0,0.00013423308,0.0011380839,0.0,0.0034829527,0.006508152,0,0.0035047866,0.0065767677,0.037089914,0.007133678533136845,0.015287899412214756,-0.6501708030700684,-0.7596008777618408,81.13520079687555,0.003197908401489258,79,2.1833926e-05,6.8615656e-05,7.200575370402432e-05,4.4252156e-05,0.00017302734,0.00017859650346575777,-7.1160706e-05,1.099921e-05,0.00017777989,-1.7059456e-05,4.090909004211426,112.25890350341797
1779208338.9758272,1.6090548038482666,figure8,0,0.0,0.00030380173,0.00013110253,0.0,0.0034829527,0.006508152,0,0.0035079848,0.006537011,0.037095428,0.007233139593154192,0.014919976703822613,-0.6503777503967285,-0.7594299912452698,81.165211561369,0.004041910171508789,80,2.5032088e-05,2.8858893e-05,3.8202632415948024e-05,4.2535044e-05,-2.2566492e-05,4.8150560971588536e-05,-3.2361066e-05,2.0302774e-05,-1.5765967e-05,-4.5496276e-05,4.090909004211426,112.28396606445312
1779208339.0571318,1.690359354019165,figure8,0,0.0,0.000829071,0.000567429,0.0,0.0034829527,0.006508152,0,0.0035360288,0.0065512345,0.03710009,0.0070799970999360085,0.015403362922370434,-0.6502765417098999,-0.7595084309577942,81.15152935945957,0.01358175277709961,81,5.3076074e-05,4.3082517e-05,6.836060970846224e-05,0.0001470076,4.366287e-05,0.00015335475293470506,-5.0734034e-05,4.5817367e-05,6.575619e-05,-0.0001385417,4.090909004211426,112.29994201660156
1779208339.1386678,1.771895408630371,figure8,0,0.0,0.00012719099,0.00012003001,0.0,0.0034829527,0.006508152,0,0.0035048742,0.0065362575,0.037071176,0.007369163446128368,0.014865661039948463,-0.6503567695617676,-0.7594476938247681,81.16188880928259,0.0014262199401855469,82,2.192147e-05,2.8105453e-05,3.564361495315863e-05,3.1484306e-06,-1.7392478e-05,1.767515008305841e-05,-3.113982e-05,1.7342974e-05,-1.6702232e-05,-5.783282e-06,4.090909004211426,112.29994201660156
1779208339.239855,1.8730826377868652,figure8,0,0.0,-0.0007551748,0.0007457798,0.0,0.0034829527,0.006508152,0,0.0034645386,0.006574592,0.03708368,0.00728741055354476,0.01506818551570177,-0.650179922580719,-0.7595959305763245,81.13586711319711,0.011213064193725586,83,-1.841411e-05,6.644009e-05,6.894464713653538e-05,-0.00013018804,0.00011364958,0.00017281537006037657,-6.28091e-05,-2.843206e-05,9.223129e-05,0.00014614561,4.090909004211426,112.24465942382812
1779208339.3216732,1.9549007415771484,figure8,0,0.0,0.00037062826,0.00028696764,0.0,0.0034829527,0.006508152,0,0.0035109296,0.0065489006,0.037052386,0.007290723267942667,0.015158827416598797,-0.6502785682678223,-0.7595095634460449,81.15104743209884,0.0013229846954345703,84,2.797693e-05,4.0748622e-05,4.942831968003327e-05,6.0624872e-05,-4.4883927e-06,6.079079517722741e-05,-4.45673e-05,2.1375565e-05,4.890962e-06,-6.059372e-05,4.090909004211426,112.23226928710938
1779208339.4251423,2.0583698749542236,figure8,0,0.0,0.00032496362,-0.00053380086,0.0,0.0034829527,0.006508152,0,0.00350569,0.006505618,0.037054975,0.007486504036933184,0.015047440305352211,-0.650732696056366,-0.7591208219528198,81.21922851934836,0.010250329971313477,85,2.273731e-05,-2.5341287e-06,2.2878090827947407e-05,2.5811043e-05,-0.0001404867,0.00014283810711059695,-9.665173e-07,2.2857665e-05,-0.0001349,-4.695441e-05,4.090909004211426,112.19188690185547
1779208339.5271847,2.160412311553955,figure8,0,0.0,-0.00017174566,0.00041074428,0.0,0.0034829527,0.006508152,0,0.0034890156,0.0065501044,0.037093483,0.00708152586594224,0.015292891301214695,-0.6502377986907959,-0.759543776512146,81.14531277161072,0.019279003143310547,86,6.06291e-06,4.1952357e-05,4.238819630367848e-05,-3.5712696e-05,4.5142864e-05,5.75610525065296e-05,-4.2385625e-05,-4.670328e-07,3.910763e-05,4.2235868e-05,4.090909004211426,112.26599884033203
1779208339.6301012,2.263328790664673,figure8,0,0.0,0.0006026089,-0.0005730512,0.0,0.0034829527,0.006508152,0,0.0035211686,0.0064918054,0.037048128,0.007721966132521629,0.01431738119572401,-0.6507201790809631,-0.7591433525085449,81.21500916859713,0.020316362380981445,87,3.821589e-05,-1.6346574e-05,4.156518722450968e-05,6.9680915e-05,-0.00014007089,0.00015644578052910853,1.03182065e-05,4.026412e-05,-0.00012778549,-9.025604e-05,4.090909004211426,112.28995513916016
1779208339.7199643,2.35319185256958,figure8,0,0.0,5.285861e-05,0.000989612,0.0,0.0034829527,0.006508152,0,0.0035102163,0.006564436,0.03711402,0.007187984883785248,0.015471210703253746,-0.6503598093986511,-0.759434700012207,81.16433794935321,0.0250856876373291,88,2.7263537e-05,5.6284014e-05,6.253951137159011e-05,1.0163858e-05,0.00015801127,0.00015833782325112175,-5.980379e-05,1.8294722e-05,0.00015769732,1.4227431e-05,4.090909004211426,112.23915100097656
1779208339.7955406,2.4287681579589844,figure8,0,0.0,-0.0004493122,0.00014044865,0.0,0.0034829527,0.006508152,0,0.003479803,0.006536108,0.037087128,0.006704007275402546,0.016184929758310318,-0.6503103375434875,-0.7594665884971619,81.15926568718064,0.016170740127563477,89,-3.149733e-06,2.7955975e-05,2.8132852674731855e-05,-0.000100872596,1.002456e-05,0.00010136948373704396,-2.7139764e-05,-7.4088202e-06,-5.5974833e-06,0.00010121482,4.090909004211426,112.2333984375
1779208339.8768399,2.5100674629211426,figure8,0,0.0,0.0005895829,0.00042659295,0.0,0.0034829527,0.006508152,0,0.0035277214,0.0065429346,0.037081517,0.006936267949640751,0.01616225205361843,-0.6503968238830566,-0.7593910098075867,81.17227633950098,0.010595321655273438,90,4.4768676e-05,3.478257e-05,5.669269319251529e-05,9.486336e-05,3.0591116e-05,9.967383937925125e-05,-4.1240924e-05,3.8900485e-05,4.478685e-05,-8.9044996e-05,4.090909004211426,112.27687072753906
1779208339.9580598,2.59128737449646,figure8,0,0.0,0.00010451152,0.00053305435,0.0,0.0034829527,0.006508152,0,0.0035113972,0.006553049,0.037134465,0.00672998046502471,0.015823567286133766,-0.6504439115524292,-0.75935959815979,81.1781571520016,0.013851404190063477,91,2.8444454e-05,4.48972e-05,5.314927533515312e-05,3.5897538e-06,6.033425e-05,6.0440944865614736e-05,-4.872838e-05,2.1222406e-05,6.0171027e-05,5.7057287e-06,4.090909004211426,112.28833770751953
1779208340.0190005,2.6522281169891357,figure8,0,0.0,-0.00025115765,5.689118e-05,0.0,0.0034829527,0.006508152,0,0.0034929812,0.006537992,0.037130207,0.0068603032268583775,0.015087566338479519,-0.6503709554672241,-0.7594359517097473,81.16467988651301,0.0034265518188476562,92,1.00284815e-05,2.9840041e-05,3.148012873987355e-05,-7.490251e-05,-2.1061896e-05,7.780738881334682e-05,-3.102628e-05,5.326201e-06,-3.2316624e-05,7.077871e-05,4.090909004211426,112.28833770751953
1779208340.1026099,2.735837459564209,figure8,0,0.0,-0.0003777315,0.0005086863,0.0,0.0034829527,0.006508152,0,0.003486555,0.0065574693,0.037084397,0.007173649501055479,0.015223506838083267,-0.6502557396888733,-0.7595289945602417,81.14780196069205,0.01485896110534668,93,3.6023557e-06,4.9317256e-05,4.944864744515612e-05,-7.9141646e-05,6.62128e-05,0.00010318689068730313,-4.928417e-05,-4.0297923e-06,5.324532e-05,8.838819e-05,4.090909004211426,112.29879760742188
1779208340.1867867,2.820014238357544,figure8,0,0.0,0.0003524885,-2.1947897e-05,0.0,0.0034829527,0.006508152,0,0.0035126675,0.0065307673,0.03704696,0.007286778185516596,0.015255363658070564,-0.6502838730812073,-0.759503185749054,81.15217042754975,0.01832270622253418,94,2.9714778e-05,2.2615306e-05,3.734193533970559e-05,4.165738e-05,-5.289877e-05,6.733213970563314e-05,-2.6916645e-05,2.5882706e-05,-4.586194e-05,-4.929807e-05,4.090909004211426,112.27774047851562
1779208340.2703435,2.903571128845215,figure8,0,0.0,0.00037439377,0.00060009246,0.0,0.0034829527,0.006508152,0,0.0035217796,0.0065605785,0.037074782,0.00729402806609869,0.014790432527661324,-0.6502225995063782,-0.7595647573471069,81.14139262540849,0.004889726638793945,95,3.8826838e-05,5.2426476e-05,6.523847497180901e-05,5.734474e-05,5.517999e-05,7.95817213220739e-05,-5.77803e-05,3.0290188e-05,6.3352665e-05,-4.8163165e-05,4.090909004211426,112.28834533691406
1779208340.3722713,3.0054988861083984,figure8,0,0.0,0.00014725412,0.00013522024,0.0,0.0034829527,0.006508152,0,0.0035103187,0.006542517,0.03710827,0.0070115444250404835,0.01538399513810873,-0.6502885818481445,-0.7594991326332092,81.15326867998037,0.02002739906311035,96,2.7365983e-05,3.436487e-05,4.392996013879815e-05,5.255388e-07,-2.3806038e-05,2.3811837617657722e-05,-3.8164708e-05,2.175538e-05,-2.3442e-05,-4.18046e-06,4.090909004211426,112.26506805419922
1779208340.4624033,3.0956308841705322,figure8,0,0.0,-1.8837862e-05,0.00016736082,0.0,0.0034829527,0.006508152,0,0.0035019182,0.006544039,0.03709479,0.0070554898120462894,0.015270552597939968,-0.6503778100013733,-0.75942462682724,81.16635518528823,0.016973495483398438,97,1.8965453e-05,3.588712e-05,4.059031452303605e-05,-2.6676546e-05,-1.1763548e-05,2.9155088169397447e-05,-3.8373888e-05,1.3229446e-05,-1.5720627e-05,2.4553636e-05,4.090909004211426,112.28608703613281
1779208340.5481749,3.1814024448394775,figure8,0,0.0,-0.000280298,0.0002025115,0.0,0.0034829527,0.006508152,0,0.0034868792,0.0065472513,0.037112415,0.006989394314587116,0.01546689122915268,-0.6502490639686584,-0.7595314383506775,81.14758382377171,0.010035276412963867,98,3.926456e-06,3.909925e-05,3.929590753174972e-05,-6.733834e-05,2.1596688e-06,6.737296337570787e-05,-3.9237744e-05,-2.137293e-06,-8.228743e-06,6.686856e-05,4.090909004211426,112.29766845703125
1779208340.6498606,3.283088207244873,figure8,0,0.0,-0.00016852633,-0.0006548136,0.0,0.0034829527,0.006508152,0,0.0034814999,0.0065017277,0.037035756,0.007944312877953053,0.014800120145082474,-0.6505382657051086,-0.7592877745628357,81.18914183796608,0.018938064575195312,99,-1.4528632e-06,-6.424263e-06,6.586498930135413e-06,-6.453007e-05,-0.00014568177,0.00015933395198648362,6.5709924e-06,-4.5169406e-07,-0.00015384691,4.145404e-05,4.090909004211426,112.22843170166016
1779208340.7349842,3.3682117462158203,figure8,0,0.0,0.00026335655,-0.00011502871,0.0,0.0034829527,0.006508152,0,0.0035045315,0.0065173176,0.037082534,0.0072272601537406445,0.015019330196082592,-0.6505162119865417,-0.7593094706535339,81.18642796862046,0.010001897811889648,100,2.1578744e-05,9.165611e-06,2.3444628442570875e-05,2.828742e-05,-5.22539e-05,5.941925984287659e-05,-1.2363678e-05,1.9919591e-05,-4.7302696e-05,-3.5959747e-05,4.090909004211426,112.22843170166016
1779208340.8199887,3.453216314315796,figure8,0,0.0,-5.387662e-05,0.0009721873,0.0,0.0034829527,0.006508152,0,0.0034988262,0.0065712887,0.037095644,0.007080938201397657,0.015685580670833588,-0.6501540541648865,-0.7596075534820557,81.13401688687736,0.007053852081298828,101,1.5873462e-05,6.3136686e-05,6.51015207715474e-05,3.4088953e-07,0.0001475137,0.00014751409020764714,-6.4828775e-05,5.952932e-06,0.00014580367,2.2398553e-05,4.090909004211426,112.17718505859375
1779208340.9897404,3.6229679584503174,figure8,0,0.0,-0.00015440222,0.0002196276,0.0,0.0034829527,0.006508152,0,0.0034820344,0.006528248,0.0370611,0.007137964013963938,0.015401634387671947,-0.6503274440765381,-0.75946444272995,81.15921294461232,0.0004496574401855469,102,-9.1828406e-07,2.0096079e-05,2.0117047754491663e-05,-2.832592e-05,3.0042938e-05,4.129086895621363e-05,-1.9716192e-05,-3.995926e-06,2.5332614e-05,3.2606666e-05,4.090909004211426,112.28370666503906
1779208341.0103765,3.643604040145874,figure8,0,0.0,0.00037868277,-0.0012064916,0.0,0.0034829527,0.006508152,0,0.0034855623,0.006509511,0.037092593,0.007000998128205538,0.015548471361398697,-0.6504353284835815,-0.7593702077865601,81.17596357296341,0.004338264465332031,103,2.6095659e-06,1.3587996e-06,2.942137046183335e-06,4.336676e-05,-0.00031461363,0.00031758843698836265,-1.7430255e-06,2.370239e-06,-0.00030423744,-9.111533e-05,4.090909004211426,112.28370666503906
1779208341.1120872,3.745314836502075,figure8,0,0.0,0.0009147534,4.462796e-05,0.0,0.0034829527,0.006508152,0,0.003526032,0.0065501127,0.037072286,0.007293431553989649,0.015000014565885067,-0.6502954959869385,-0.7594982385635376,81.15307520724,0.01456308364868164,104,4.3079257e-05,4.196074e-05,6.013755870990176e-05,0.0001630646,-8.708802e-05,0.00018486314995526517,-4.8086902e-05,3.6113375e-05,-6.097336e-05,-0.0001745183,4.090909004211426,112.32303619384766
1779208341.1941273,3.827354907989502,figure8,0,0.0,-0.00037285296,-0.00024297142,0.0,0.0034829527,0.006508152,0,0.0034699962,0.0065405765,0.037061565,0.007144429720938206,0.015411489643156528,-0.6503657102584839,-0.7594313025474548,81.16501889172855,0.010898351669311523,105,-1.295656e-05,3.242446e-05,3.491730315824386e-05,-8.2001854e-05,-9.434228e-05,0.00012499907613323206,-3.004975e-05,-1.7782873e-05,-0.00010581748,6.653893e-05,4.090909004211426,112.3574447631836
1779208341.275404,3.9086315631866455,figure8,0,0.0,0.00017480119,-0.00023921402,0.0,0.0034829527,0.006508152,0,0.003491018,0.0065313964,0.037101615,0.007149421609938145,0.015312634408473969,-0.6503872871398926,-0.759414792060852,81.16794157143383,0.012650728225708008,106,8.0652535e-06,2.3244414e-05,2.4603883892148226e-05,2.1902088e-05,-0.0001006707,0.00010302568450547129,-2.4207126e-05,4.400703e-06,-9.611419e-05,-3.7099242e-05,4.090909004211426,112.2718276977539
1779208341.3373911,3.970618724822998,figure8,0,0.0,0.0002481786,0.000112200534,0.0,0.0034829527,0.006508152,0,0.0034979265,0.006541132,0.037129454,0.00681840255856514,0.015742512419819832,-0.650454580783844,-0.759351372718811,81.17950247989687,0.0001385211944580078,107,1.4973804e-05,3.2979995e-05,3.622008855598936e-05,4.3151365e-05,-3.1265477e-05,5.3287619168316377e-05,-3.4886034e-05,9.739587e-06,-2.4278917e-05,-4.743527e-05,4.090909004211426,112.2718276977539
1779208341.42582,4.059047698974609,figure8,0,0.0,-0.00020830118,0.00018762294,0.0,0.0034829527,0.006508152,0,0.0034789834,0.006546366,0.03709039,0.007317224983125925,0.014940259978175163,-0.6502733826637268,-0.7595181465148926,81.14954663859311,0.005593538284301758,108,-3.969297e-06,3.8214028e-05,3.841961943318823e-05,-3.8284576e-05,-2.961704e-06,3.839896387461803e-05,-3.7148322e-05,-9.8014925e-06,-8.816751e-06,3.7373055e-05,4.090909004211426,112.26416015625
1779208341.5092497,4.14247727394104,figure8,0,0.0,-0.0010117701,0.0003596595,0.0,0.0034829527,0.006508152,0,0.0034391098,0.006560598,0.037086543,0.007059450261294842,0.015260331332683563,-0.6501778364181519,-0.7595959901809692,81.13615580335326,0.00566554069519043,109,-4.384294e-05,5.2446034e-05,6.83578097572897e-05,-0.00017030258,4.914713e-05,0.00017725238843981065,-4.5064062e-05,-5.1400588e-05,2.2318782e-05,0.00017584165,4.090909004211426,112.36430358886719
1779208341.5728514,4.206079006195068,figure8,0,0.0,0.00032437113,-0.00070443144,0.0,0.0034829527,0.006508152,0,0.0034796838,0.0065095746,0.037112728,0.006728497799485922,0.016069136559963226,-0.6505849957466125,-0.7592337131500244,81.20030379074194,0.0006189346313476562,110,-3.2689422e-06,1.4225952e-06,3.565075080208382e-06,5.810058e-05,-0.00018857446,0.00019732208351490858,-9.0576543e-07,-3.4480936e-06,-0.00017746651,-8.6264925e-05,4.090909004211426,112.3746337890625
1779208341.67418,4.30740761756897,figure8,0,0.0,-7.2090334e-06,0.0010354458,0.0,0.0034829527,0.006508152,0,0.0034801923,0.006591567,0.037088647,0.00706977816298604,0.015571600757539272,-0.6500908732414246,-0.759663999080658,81.12409431879561,0.008391618728637695,111,-2.76044e-06,8.341484e-05,8.346050062024553e-05,4.2300988e-05,0.00013091735,0.00013758171037693548,-8.199001e-05,-1.5597869e-05,0.00013587643,-2.1594544e-05,4.085630416870117,112.3857650756836
1779208341.7762325,4.409460067749023,figure8,0,0.0,0.00020037535,0.00061594043,0.0,0.0034829527,0.006508152,0,0.0034910142,0.0065751667,0.03710449,0.007183347828686237,0.015242612920701504,-0.650255024433136,-0.7595291137695312,81.14775935219147,0.007346391677856445,112,8.061528e-06,6.701471e-05,6.749785221519923e-05,6.110113e-05,4.392005e-05,7.524837947747391e-05,-6.745703e-05,-2.3471775e-06,5.279955e-05,-5.3614604e-05,4.090909004211426,112.43414306640625
1779208341.8572907,4.49051833152771,figure8,0,0.0,0.0002516078,-0.00068153633,0.0,0.0034829527,0.006508152,0,0.003487382,0.006515434,0.037128106,0.0067024677991867065,0.016315102577209473,-0.6504959464073181,-0.7593048810958862,81.18773176179612,0.006830930709838867,113,4.42937e-06,7.282011e-06,8.523321328333878e-06,2.9412964e-05,-0.00018893223,0.00019120802156376797,-7.87462e-06,3.261499e-06,-0.00018219602,-5.8009697e-05,4.085630416870117,112.44728088378906
1779208341.9605408,4.593768358230591,figure8,0,0.0,8.175637e-05,0.00021282959,0.0,0.0034829527,0.006508152,0,0.0034876242,0.0065514324,0.037086386,0.007152479607611895,0.015000375919044018,-0.6502742767333984,-0.7595177888870239,81.14985418150837,0.01758861541748047,114,4.671514e-06,4.3280423e-05,4.35318035505238e-05,2.137447e-05,-1.5491285e-05,2.639787704923909e-05,-4.3483844e-05,-2.0428274e-06,-1.201837e-05,-2.3503333e-05,4.090909004211426,112.3626937866211
1779208342.051301,4.684528589248657,figure8,0,0.0,0.00026876474,0.00038921103,0.0,0.0034829527,0.006508152,0,0.0035006087,0.0065583815,0.037110787,0.006737936288118362,0.016133012250065804,-0.6504141688346863,-0.7593786120414734,81.17475455477555,0.010666847229003906,115,1.7656013e-05,5.0229486e-05,5.324224097024557e-05,5.484e-05,1.0497996e-05,5.5835770458205884e-05,-5.2343617e-05,9.74071e-06,1.878733e-05,-5.2580122e-05,4.090909004211426,112.30756378173828
1779208342.135024,4.768251657485962,figure8,0,0.0,0.00036840743,0.0002979814,0.0,0.0034829527,0.006508152,0,0.0035084747,0.006553519,0.037079494,0.007210588548332453,0.015309658832848072,-0.6503533720970154,-0.7594432830810547,81.1628244922709,0.0028617382049560547,116,2.5521964e-05,4.536705e-05,5.20532433937118e-05,6.417006e-05,-8.588906e-06,6.474230614703253e-05,-4.874936e-05,1.8249386e-05,1.3713079e-06,-6.472778e-05,4.090909004211426,112.30756378173828
1779208342.2410588,4.874286413192749,figure8,0,0.0,-0.00081410684,0.00083401904,0.0,0.0034829527,0.006508152,0,0.0034539495,0.0065914276,0.037098303,0.007038879208266735,0.01532536931335926,-0.6501948833465576,-0.7595803141593933,81.13894237260622,0.012897968292236328,117,-2.9003248e-05,8.3275605e-05,8.81817129509995e-05,-0.00012547488,0.00011245382,0.00016849274780110976,-7.781407e-05,-4.1484767e-05,9.178365e-05,0.00014129956,4.090909004211426,112.29393005371094
1779208342.3451889,4.978416442871094,figure8,0,0.0,0.000660247,-0.00042215892,0.0,0.0034829527,0.006508152,0,0.0035163928,0.006516653,0.037048645,0.007814964279532433,0.014577263034880161,-0.6505027413368225,-0.75932377576828,81.18303970037825,0.015552759170532227,118,3.344007e-05,8.5011125e-06,3.450372481767853e-05,9.677416e-05,-0.00014234462,0.0001721256188671299,-1.35262935e-05,3.1741874e-05,-0.00012582917,-0.00011744894,4.090909004211426,112.31639862060547
1779208342.406832,5.040059566497803,figure8,0,0.0,-0.0003153055,-0.00092490023,0.0,0.0034829527,0.006508152,0,0.0034814775,0.0064970916,0.037046894,0.007841825485229492,0.014822157099843025,-0.6505494713783264,-0.7592787742614746,81.19088984990458,0.01862502098083496,119,-1.475215e-06,-1.1060387e-05,1.1158333991462622e-05,-0.0001110942,-0.00019983525,0.00022863956384524113,1.11558375e-05,2.3600705e-07,-0.0002144913,7.918038e-05,4.090909004211426,112.31639862060547
1779208342.4678552,5.101082801818848,figure8,1000,1.525902189669642,-0.00020440818,0.00073087413,0.0,0.0034829527,0.006508152,0,0.0034918878,0.006559344,0.037082262,0.007356010843068361,0.014556855894625187,-0.6501251459121704,-0.7596520781517029,81.12594844303251,0.0053942203521728516,120,8.935109e-06,5.1192008e-05,5.1965929774514305e-05,-3.5706318e-05,0.00011162649,0.00011719818506911003,-5.1957588e-05,9.311252e-07,0.00010478214,5.2498734e-05,4.090909004211426,112.31095886230469
1779208342.550562,5.183789491653442,figure8,1000,1.525902189669642,-0.00016977351,0.0005958305,0.0,0.0034829527,0.006508152,0,0.0034904592,0.0065591107,0.037107296,0.007333509158343077,0.015068466775119305,-0.65022873878479,-0.7595536708831787,81.14323808942514,0.0067479610443115234,121,7.50646e-06,5.095871e-05,5.150861350726074e-05,-3.0262758e-05,7.727823e-05,8.2992525276913e-05,-5.1506828e-05,-4.2889178e-07,7.169739e-05,4.180004e-05,4.090909004211426,112.3160171508789
1779208342.6522937,5.2855212688446045,figure8,2000,3.051804379339284,-0.00014179117,0.0007421281,0.0,0.0034829527,0.006508152,0,0.003491234,0.006572091,0.037097,0.00716298958286643,0.015418441034853458,-0.6501961350440979,-0.759576141834259,81.13946493373099,0.008050918579101562,122,8.28132e-06,6.393902e-05,6.447308335253155e-05,-1.8869276e-05,9.286941e-05,9.476696160027158e-05,-6.445155e-05,-1.6660242e-06,8.885469e-05,3.2948756e-05,4.085630416870117,112.30944061279297
1779208342.7352653,5.368492841720581,figure8,2000,3.051804379339284,2.6428865e-05,0.0004903086,0.0,0.0034829527,0.006508152,0,0.0034958404,0.006564896,0.037121058,0.006830616854131222,0.016219746321439743,-0.6504027843475342,-0.7593855857849121,81.17335967435649,0.019104480743408203,123,1.2887642e-05,5.6744087e-05,5.818919854623321e-05,6.006395e-06,3.4995523e-05,3.550723000435682e-05,-5.8049623e-05,4.027902e-06,3.550273e-05,-5.653633e-07,4.085630416870117,112.30944061279297
1779208342.8034513,5.436678886413574,figure8,2000,3.051804379339284,8.937619e-05,-0.00043459452,0.0,0.0034829527,0.006508152,0,0.003492497,0.0065242485,0.03712015,0.0071833073161542416,0.01507153082638979,-0.6504248380661011,-0.7593872547149658,81.17280881054192,0.010804891586303711,124,9.544194e-06,1.6096514e-05,1.8713347575887636e-05,-8.909548e-06,-0.00013493534,0.00013522916013735339,-1.7370465e-05,6.9610614e-06,-0.00013470433,-1.1902456e-05,4.090909004211426,112.29388427734375
1779208342.8856492,5.518876791000366,figure8,3000,4.577706569008926,-4.4015615e-05,0.00057162764,0.0,0.0034829527,0.006508152,0,0.0034931283,0.006568741,0.037129767,0.006946862209588289,0.015566298738121986,-0.6502830982208252,-0.7595007419586182,81.15304983097482,0.0018732547760009766,125,1.017563e-05,6.0589053e-05,6.143758337726757e-05,-4.1579833e-06,5.201547e-05,5.218139638983117e-05,-6.143317e-05,7.362396e-07,5.0757146e-05,1.2108263e-05,4.090909004211426,112.29391479492188
1779208342.9874074,5.620635032653809,figure8,4000,6.103608758678568,-0.00070023106,0.00038364535,0.0,0.0034829527,0.006508152,0,0.0034573022,0.0065675694,0.037103552,0.007108427118510008,0.015340544283390045,-0.6502319574356079,-0.7595476508140564,81.14459728809562,0.011628150939941406,126,-2.5650486e-05,5.941745e-05,6.471770046389034e-05,-0.000119730634,3.2590524e-05,0.00012408692875953895,-5.4760523e-05,-3.4491535e-05,1.37705465e-05,0.00012332047,4.090909004211426,112.25993347167969
1779208343.089989,5.723216533660889,figure8,4000,6.103608758678568,9.550342e-05,-4.0185012e-05,0.0,0.0034829527,0.006508152,0,0.0034898221,0.0065392866,0.03709911,0.006943630054593086,0.015693461522459984,-0.6503897309303284,-0.7594068050384521,81.16957108362554,0.012114763259887695,127,6.8694353e-06,3.113458e-05,3.188339970218327e-05,1.1746495e-05,-6.029424e-05,6.14278063251982e-05,-3.1820073e-05,2.0085226e-06,-5.777636e-05,-2.0863072e-05,4.085630416870117,112.23526000976562
1779208343.1773627,5.8105902671813965,figure8,4000,6.103608758678568,0.00013971413,-1.2935707e-05,0.0,0.0034829527,0.006508152,0,0.0034929905,0.006536616,0.03708673,0.007386102806776762,0.015089678578078747,-0.6503651738166809,-0.7594358921051025,81.1638974243245,0.010970354080200195,128,1.0037795e-05,2.8464012e-05,3.0182069339022622e-05,1.8960547e-05,-5.1256884e-05,5.465135504829752e-05,-2.9668085e-05,5.5463493e-06,-4.7736055e-05,-2.660901e-05,4.090909004211426,112.2746353149414
1779208343.260867,5.894094705581665,figure8,5000,7.629510948348211,-0.00032461496,0.0008725386,0.0,0.0034829527,0.006508152,0,0.0034770537,0.0065836874,0.03706877,0.006852391175925732,0.016333317384123802,-0.6501458287239075,-0.759602963924408,81.13500627649596,0.0007145404815673828,129,-5.898997e-06,7.553538e-05,7.576537867457686e-05,-3.771978e-05,0.000114732116,0.00012077350976001734,-7.372398e-05,-1.7469041e-05,0.00010754868,5.495018e-05,4.085630416870117,112.3204574584961
1779208343.3664577,5.999685287475586,figure8,6000,9.155413138017853,0.0006623339,0.00037970254,0.0,0.0034829527,0.006508152,0,0.003519969,0.0065585026,0.03705919,0.007414525840431452,0.01496380940079689,-0.6503334045410156,-0.7594653367996216,81.15869316309148,0.01994776725769043,130,3.7016347e-05,5.0350558e-05,6.249311082959279e-05,0.00012268136,-7.178016e-06,0.00012289116916604402,-5.5441633e-05,2.883772e-05,1.1763186e-05,-0.00012232689,4.090909004211426,112.29264831542969
1779208343.4494052,6.082632780075073,figure8,6000,9.155413138017853,0.00018325579,0.0002768167,0.0,0.0034829527,0.006508152,0,0.0035025552,0.0065566334,0.03707678,0.007348739076405764,0.015203134156763554,-0.6502310037612915,-0.7595488429069519,81.14402971653743,0.014885425567626953,131,1.9602478e-05,4.8481394e-05,5.229438484698252e-05,2.6518115e-05,-1.13960505e-05,2.8863131889251563e-05,-5.0921244e-05,1.1905022e-05,-7.1776985e-06,-2.7956414e-05,4.085630416870117,112.28697204589844
1779208343.5309668,6.164194345474243,figure8,7000,10.681315327687495,0.00068896334,0.00047091168,0.0,0.0034829527,0.006508152,0,0.0035300124,0.0065615387,0.037074983,0.00746906315907836,0.014722559601068497,-0.6502599716186523,-0.7595323324203491,81.1468347695845,0.013373374938964844,132,4.705973e-05,5.338667e-05,7.116709097431855e-05,0.00011771782,9.7369675e-06,0.00011811982705172498,-5.9993243e-05,3.8282706e-05,2.7738057e-05,-0.00011481678,4.085630416870117,112.28697204589844
1779208343.6135926,6.2468202114105225,figure8,7000,10.681315327687495,0.000116620125,8.82732e-05,0.0,0.0034829527,0.006508152,0,0.0035044905,0.006546841,0.037077643,0.006886899005621672,0.016036206856369972,-0.650391161441803,-0.7593990564346313,81.17096970513688,0.003206014633178711,133,2.1537766e-05,3.8689002e-05,4.427995322513977e-05,-1.09896064e-07,-4.0701605e-05,4.070175327787521e-05,-4.1536325e-05,1.5344318e-05,-4.023619e-05,-6.138554e-06,4.085630416870117,112.23806762695312
1779208343.7151864,6.348413944244385,figure8,8000,12.207217517357137,-7.848923e-05,-5.6756282e-05,0.0,0.0034829527,0.006508152,0,0.0034930166,0.0065381927,0.037089933,0.006899410393089056,0.015955207869410515,-0.6503589153289795,-0.759428083896637,81.16582123509681,0.01071929931640625,134,1.0063872e-05,3.0040741e-05,3.168166120242987e-05,-3.6664427e-05,-5.6068355e-05,6.699209420333851e-05,-3.1229927e-05,5.330967e-06,-6.1033963e-05,2.7618758e-05,4.085630416870117,112.22559356689453
1779208343.7769446,6.4101722240448,figure8,8000,12.207217517357137,0.00037646052,-0.0017482536,0.0,0.0034829527,0.006508152,0,0.0034994967,0.006458776,0.0370121,0.00828898698091507,0.013822010718286037,-0.650783121585846,-0.7590926885604858,81.22303761266065,0.0009298324584960938,135,1.6544014e-05,-4.937593e-05,5.2073857673508414e-05,1.5061669e-06,-0.0003722423,0.0003722453563190462,4.62733e-05,2.3884479e-05,-0.00036765344,-5.8288413e-05,4.080351829528809,112.23196411132812
1779208343.8588426,6.492070198059082,figure8,8000,12.207217517357137,0.0003370986,0.0007456818,0.0,0.0034829527,0.006508152,0,0.00351502,0.0065500517,0.037081294,0.007261831779032946,0.014792303554713726,-0.6503756642341614,-0.7594339847564697,81.16448373940531,0.00861668586730957,136,3.20673e-05,4.1899737e-05,5.2762674092296767e-05,6.380752e-05,0.00010841421,0.00012579761855180743,-4.6328012e-05,2.5251038e-05,0.00011692843,-4.6398094e-05,4.080351829528809,112.26116943359375
1779208343.9399717,6.573199272155762,figure8,9000,13.733119707026779,0.00013478153,0.0008897793,0.0,0.0034829527,0.006508152,0,0.003510261,0.0065643056,0.03709133,0.006840270012617111,0.016106588765978813,-0.650414764881134,-0.759377658367157,81.17476879066582,0.011314630508422852,137,2.730824e-05,5.615363e-05,6.244173312553548e-05,2.6461807e-05,0.00013041125,0.00013306886123748012,-5.9678478e-05,1.8369788e-05,0.0001329271,-6.140697e-06,4.080351829528809,112.26116943359375
1779208344.0265312,6.659758806228638,figure8,9000,13.733119707026779,0.00027688482,0.0008010702,0.0,0.0034829527,0.006508152,0,0.0035188664,0.00656684,0.037083615,0.007019910495728254,0.015512604266405106,-0.6502251029014587,-0.7595508098602295,81.14413075799469,0.0016644001007080078,138,3.591366e-05,5.8688223e-05,6.880478505591345e-05,4.5356574e-05,9.919122e-05,0.00010906931783138027,-6.351747e-05,2.645051e-05,0.00010499134,-2.9545437e-05,4.0750732421875,112.26609802246094
1779208344.1297882,6.7630157470703125,figure8,10000,15.259021896696423,0.0053256084,-0.006235291,0.0,0.0034829527,0.006508152,0,0.0037323907,0.0061589386,0.037230697,0.002523865783587098,0.015127144753932953,-0.6512366533279419,-0.7587197422981262,81.29464231231356,0.009912490844726562,139,0.000249438,-0.00034921337,0.0004291495018354277,0.0007059741,-0.0012185565,0.0014082896069272884,0.0003074371,0.00029941899,-0.001097667,-0.0008822736,4.0750732421875,112.24590301513672
1779208344.2112923,6.844519853591919,figure8,10000,15.259021896696423,0.015559403,-0.009167842,0.0,0.0034829527,0.006508152,0,0.0042646434,0.005858944,0.037575748,-0.008864146657288074,0.017417702823877335,-0.6508569717407227,-0.758948802947998,81.24129801933675,0.004103183746337891,140,0.0007816907,-0.0006492082,0.001016125831075817,0.002322948,-0.0018837412,0.002990747136628913,0.00052260666,0.0008714322,-0.0015080504,-0.0025827026,4.069794654846191,112.2283935546875
1779208344.3142457,6.9474732875823975,figure8,11000,16.784924086366065,0.012068776,-0.0069460133,0.0,0.0034829527,0.006508152,0,0.004247265,0.00588287,0.037535973,-0.008668678812682629,0.016404125839471817,-0.6505339741706848,-0.7592505216598511,81.18913508902625,0.015475988388061523,141,0.0007643122,-0.00062528206,0.0009874972320130335,0.0015691351,-0.0012402416,0.0020000960605462102,0.0005008312,0.0008510693,-0.0009852565,-0.0017405901,4.0750732421875,112.18134307861328
1779208344.401157,7.034384489059448,figure8,11000,16.784924086366065,0.01262024,-0.007155537,0.0,0.0034829527,0.006508152,0,0.004373353,0.005789284,0.03754613,-0.010011064819991589,0.01576118916273117,-0.6505844593048096,-0.7592043280601501,81.19410679283233,0.010132074356079102,142,0.00089040026,-0.0007188679,0.0011443704360125674,0.0015084142,-0.0011724964,0.0019105132790581214,0.0005740852,0.0009899545,-0.0009277564,-0.0016701284,4.069794654846191,112.1114273071289
1779208344.5049481,7.13817572593689,figure8,12000,18.310826276035705,0.011100699,-0.0064198077,0.0,0.0034829527,0.006508152,0,0.0043977927,0.0057636104,0.03759037,-0.010379639454185963,0.015323257073760033,-0.6506965160369873,-0.7591123580932617,81.2095085675086,0.007902145385742188,143,0.00091484,-0.00074454164,0.0011795230005950872,0.0011250452,-0.0008933946,0.0014366212545644246,0.00059598853,0.0010178763,-0.0007109691,-0.0012483604,4.064516067504883,112.08216094970703
1779208344.6069953,7.240222930908203,figure8,12000,18.310826276035705,0.009562835,-0.0052787396,0.0,0.0034829527,0.006508152,0,0.0043978468,0.005778724,0.03760999,-0.010397322475910187,0.014757174998521805,-0.650502622127533,-0.759289562702179,81.17852840317731,0.01706552505493164,144,0.00091489404,-0.00072942814,0.001170083963068508,0.0007877061,-0.00057656196,0.0009761683545961089,0.0005804951,0.001015934,-0.00044894224,-0.00086680765,4.059237480163574,112.03952026367188
1779208344.69101,7.324237585067749,figure8,13000,19.83672846570535,0.009038815,-0.0049394956,0.0,0.0034829527,0.006508152,0,0.0044214875,0.0057652416,0.03760478,-0.009601783938705921,0.012308359146118164,-0.6506362557411194,-0.7592290639877319,81.19242995039245,0.017427921295166016,145,0.00093853474,-0.00074291043,0.001196980945333285,0.00063617626,-0.00045194456,0.0007803679383033009,0.0005904451,0.0010412195,-0.00034920627,-0.0006978747,4.059237480163574,111.97737884521484
1779208344.758162,7.391389608383179,figure8,13000,19.83672846570535,0.00816154,-0.006176742,0.0,0.0034829527,0.006508152,0,0.004408464,0.0056908736,0.037690744,-0.010075889527797699,0.011200414970517159,-0.6511141061782837,-0.7588303089141846,81.26185575711897,0.008682966232299805,146,0.0009255111,-0.0008172784,0.0012347124364083914,0.0003938446,-0.00061031745,0.000726361443114304,0.0006671896,0.0010389286,-0.00054340105,-0.00048199197,4.053958892822266,112.02616882324219
1779208344.840767,7.473994493484497,figure8,13000,19.83672846570535,0.0031669945,-0.0022291588,0.0,0.0034829527,0.006508152,0,0.0042194854,0.005882616,0.037532266,-0.008142839185893536,0.016881301999092102,-0.6504958271980286,-0.7592785358428955,81.18520567696363,0.008341073989868164,147,0.00073653273,-0.00062553585,0.0009663206189819086,-0.00040780153,0.00026626795,0.0004870325542019442,0.0005052805,0.00082369114,0.0002006311,0.0004437881,4.053958892822266,112.02616882324219
1779208344.9255977,7.558825254440308,figure8,14000,21.36263065537499,0.00022185803,-0.0017695848,0.0,0.0034829527,0.006508152,0,0.004071297,0.005937187,0.037590493,-0.0057542105205357075,0.018098963424563408,-0.6511101126670837,-0.7587456107139587,81.28331144191169,0.02020573616027832,148,0.0005883444,-0.000570965,0.0008198476560134455,-0.0008947372,0.0004107555,0.000984517529218715,0.0004752074,0.0006680779,0.00027041492,0.0009466523,4.053958892822266,111.94001770019531
1779208344.9905648,7.623792409896851,figure8,14000,21.36263065537499,0.0074408697,-0.004358081,0.0,0.0034829527,0.006508152,0,0.0043196008,0.0057980744,0.037575558,-0.009271474555134773,0.01641734130680561,-0.6505078077316284,-0.7592654824256897,81.18497267682528,0.013727188110351562,149,0.00083664805,-0.0007100776,0.001097355951611005,0.00041630928,-0.0002966039,0.0005111626779853588,0.0005734781,0.0009355816,-0.00022930314,-0.00045684498,4.048680305480957,111.87464141845703
1779208345.076167,7.709394693374634,figure8,15000,22.888532845044633,0.0067514153,-0.0033912258,0.0,0.0034829527,0.006508152,0,0.004317891,0.005836361,0.037603263,-0.009345164522528648,0.01776421070098877,-0.6506466865539551,-0.7591152191162109,81.2105605166247,0.003251314163208008,150,0.00083493814,-0.0006717909,0.0010716458174030263,0.00028607735,-8.80742e-05,0.0002993281050228473,0.00053632015,0.00092778524,-4.3326236e-05,-0.0002961759,4.043401718139648,111.86924743652344
1779208345.1780012,7.8112287521362305,figure8,16000,24.414435034714273,-0.00041851331,-0.0015241025,0.0,0.0034829527,0.006508152,0,0.0039762463,0.0059863646,0.037487313,-0.0029003999661654234,0.016918517649173737,-0.6509934663772583,-0.7588891983032227,81.26245929230674,0.012035608291625977,151,0.0004932936,-0.00052178744,0.0007180534324737881,-0.0009012355,0.00042197143,0.0009951308172823777,0.0004407964,0.00056683266,0.00028016898,0.0009548773,4.03812313079834,111.74681854248047
1779208345.279487,7.91271448135376,figure8,16000,24.414435034714273,0.0030623886,-0.0026197515,0.0,0.0034829527,0.006508152,0,0.0040931664,0.005927395,0.03758262,-0.005600668024271727,0.017554575577378273,-0.6509395241737366,-0.7589059472084045,81.25560448070146,0.01940155029296875,152,0.0006102137,-0.0005807569,0.0008424009616254983,-0.00025819047,0.00010741902,0.00027964470512105644,0.00048123763,0.0006914114,6.6918576e-05,0.00027151994,4.032844543457031,111.63534545898438
1779208345.3610618,7.994289398193359,figure8,17000,25.940337224383917,0.003589705,-0.0016379214,0.0,0.0034829527,0.006508152,0,0.0041121636,0.0059811193,0.03759449,-0.006436993833631277,0.01871410198509693,-0.650819718837738,-0.7589743733406067,81.24150039000635,0.00834798812866211,153,0.00062921084,-0.00052703265,0.000820773818113315,-0.00011920652,0.00024919253,0.0002762374159379773,0.00042507699,0.00070212485,0.0002281351,0.000155761,4.032844543457031,111.53901672363281
1779208345.4423544,8.075582027435303,figure8,17000,25.940337224383917,0.0027336692,-0.0017314751,0.0,0.0034829527,0.006508152,0,0.0040634237,0.0059974445,0.03755707,-0.005482746288180351,0.017797956243157387,-0.650737464427948,-0.7590743899345398,81.22602353144953,0.0074350833892822266,154,0.000580471,-0.0005107075,0.0007731550598049332,-0.0002613152,0.0002340116,0.0003507806622024206,0.0004161878,0.00065157993,0.00019141291,0.00029395265,4.022287368774414,111.53901672363281
1779208345.5518906,8.185118198394775,figure8,18000,27.466239414053558,0.003799847,-0.0022182956,0.0,0.0034829527,0.006508152,0,0.004101841,0.005976413,0.037598614,-0.006746170111000538,0.018757835030555725,-0.6505947709083557,-0.7591634392738342,81.207568039835,0.010863780975341797,155,0.00061888807,-0.0005317391,0.0008159466159167568,-7.430325e-05,0.00010434503,0.00012809706582175617,0.00043089007,0.0006928944,9.176118e-05,8.937978e-05,4.027565956115723,111.50737762451172
1779208345.6334705,8.266698122024536,figure8,18000,27.466239414053558,0.0072925948,-0.0036757323,0.0,0.0034829527,0.006508152,0,0.004265867,0.005879638,0.037566926,-0.008810127153992653,0.016952555626630783,-0.6505047678947449,-0.7592618465423584,81.18651647878097,0.0010581016540527344,156,0.00078291446,-0.0006285142,0.001003984628160777,0.00048645242,-0.00024465116,0.0005445090971418909,0.00050113606,0.00086997,-0.00016722897,-0.00051819364,4.027565956115723,111.50737762451172
1779208345.7364295,8.369657039642334,figure8,19000,28.9921416037232,0.0017605084,-0.0017402489,0.0,0.0034829527,0.006508152,0,0.004024947,0.006009318,0.037561037,-0.004736520815640688,0.017570337280631065,-0.6507918834686279,-0.7590381503105164,81.23369805032442,0.011925458908081055,157,0.00054199435,-0.00049883407,0.000736609315771118,-0.00044431136,0.00025119382,0.000510402699787494,0.00041040435,0.0006116875,0.00018054433,0.0004774041,4.0170087814331055,111.54299926757812
1779208345.823299,8.456526517868042,figure8,19000,28.9921416037232,-0.0030314075,0.00086724095,0.0,0.0034829527,0.006508152,0,0.0037822556,0.0061890567,0.037469946,-0.0007546056294813752,0.018385903909802437,-0.6508362889289856,-0.7589951157569885,81.2448803872502,0.01353597640991211,158,0.00029930286,-0.00031909533,0.00043749745925005136,-0.0011649745,0.0008082809,0.0014179151995109393,0.0002698198,0.0003443854,0.00062153995,0.00127443,4.006451606750488,111.46385192871094
1779208345.9063983,8.539625883102417,figure8,20000,30.518043793392845,0.0023527197,-0.0051691993,0.0,0.0034829527,0.006508152,0,0.003927434,0.005909036,0.037546188,-0.0038640787824988365,0.0189070925116539,-0.6514702439308167,-0.758428692817688,81.34156560334648,0.015331745147705078,159,0.00044448115,-0.0005991161,0.0007459916940827689,-0.00027979264,-0.00046744465,0.000544782931735888,0.0005253743,0.0005296087,-0.00050423836,0.0002062331,4.006451606750488,111.42484283447266
1779208345.9683802,8.60160779953003,figure8,20000,30.518043793392845,0.004798114,-0.0022199994,0.0,0.0034829527,0.006508152,0,0.0040409863,0.0059981514,0.03759465,-0.0054985107854008675,0.017637787386775017,-0.6507321000099182,-0.7590826153755188,81.22462214775719,0.0031964778900146484,160,0.0005580336,-0.0005100006,0.0007559776065538157,0.00026376505,3.3496442e-05,0.0002658834598054661,0.00041889632,0.0006293075,7.3344636e-05,-0.00025556717,4.00117301940918,111.34967803955078
1779208346.0561364,8.689363956451416,figure8,21000,32.043945983062486,-0.00022793328,-5.723897e-05,0.0,0.0034829527,0.006508152,0,0.0038289558,0.0061426377,0.037483566,-0.00144382962025702,0.018168261274695396,-0.6508601903915405,-0.7589787840843201,81.2474196025148,0.007491111755371094,161,0.0003460031,-0.0003655143,0.0005033079169081466,-0.0005775019,0.00054279936,0.0007925525597218724,0.0003086072,0.00039759334,0.00044860106,0.0006533733,4.00117301940918,111.27513885498047
1779208346.1220267,8.75525426864624,figure8,21000,32.043945983062486,0.0032667671,-0.0027224927,0.0,0.0034829527,0.006508152,0,0.003933899,0.0060309023,0.037514754,-0.002212350722402334,0.017068304121494293,-0.6513015031814575,-0.7586238384246826,81.30974855077883,0.0005564689636230469,162,0.0004509464,-0.00047724973,0.0006565972350608998,2.805909e-05,-8.033085e-05,8.509029375230888e-05,0.00040363605,0.0005178783,-7.5169104e-05,-3.987436e-05,4.00117301940918,111.27513885498047
1779208346.2237601,8.856987714767456,figure8,21000,32.043945983062486,0.0033036403,-0.0027489709,0.0,0.0034829527,0.006508152,0,0.003937157,0.0060240095,0.037531506,-0.0028929125983268023,0.016187317669391632,-0.6508615612983704,-0.7590183019638062,81.24001835554957,0.01064443588256836,163,0.00045420416,-0.00048414245,0.0006638488658448993,3.0305608e-05,-7.8794794e-05,8.442185246161198e-05,0.00040932166,0.0005226386,-7.326024e-05,-4.195219e-05,3.9906158447265625,111.14004516601562
1779208346.3254063,8.95863389968872,figure8,22000,33.56984817273213,0.0035115923,-0.002531364,0.0,0.0034829527,0.006508152,0,0.003952978,0.0060291905,0.037542764,-0.002972913905978203,0.018352685496211052,-0.6510312557220459,-0.7588232159614563,81.27342277850506,0.007902860641479492,164,0.00047002546,-0.0004789615,0.0006710648696565262,6.668279e-05,-4.0266827e-05,7.789744457138722e-05,0.00040210492,0.000537252,-2.9683617e-05,-7.2020106e-05,3.9906158447265625,111.12889099121094
1779208346.410586,9.043813705444336,figure8,22000,33.56984817273213,0.005312734,-0.001727454,0.0,0.0034829527,0.006508152,0,0.0040422026,0.006050295,0.03760582,-0.004230931401252747,0.018247166648507118,-0.6506797075271606,-0.7591211795806885,81.2194631244296,0.01896381378173828,165,0.0005592499,-0.0004578568,0.0007227678002426367,0.0004078186,5.723563e-05,0.0004118153880631214,0.00036712128,0.00062258757,0.0001188184,-0.00039430204,3.9800586700439453,111.15390014648438
1779208346.4937363,9.12696385383606,figure8,23000,35.09575036240177,0.010735164,-0.0028008185,0.0,0.0034829527,0.006508152,0,0.004344482,0.0059533915,0.037650634,-0.007817324250936508,0.01645657606422901,-0.6506510972976685,-0.759158194065094,81.20734343136706,0.008379220962524414,166,0.00086152926,-0.00055476045,0.0010246911006186606,0.0012529244,-0.00027007723,0.0012817025357041705,0.00041654822,0.0009362048,-7.538228e-05,-0.0012794839,3.9800586700439453,111.15977478027344
1779208346.739398,9.372625589370728,figure8,24000,36.62165255207141,0.008699596,-0.0028737544,0.0,0.0034829527,0.006508152,0,0.0042977743,0.0059458264,0.0376047,-0.007796721067279577,0.017906665802001953,-0.6506634950637817,-0.7591149806976318,81.21429851947262,0.01906728744506836,167,0.0008148216,-0.0005623256,0.0009900223483369703,0.00081741356,-0.00019871276,0.0008412203513211265,0.00043127238,0.0008911501,-7.153007e-05,-0.00083817367,3.969501495361328,111.0651626586914
1779208346.7829843,9.4162118434906,figure8,24000,36.62165255207141,-0.0041372594,0.006117359,0.0,0.0034829527,0.006508152,0,0.0039400086,0.0063138367,0.03745277,-0.00040476047433912754,0.016816627234220505,-0.6499118804931641,-0.7598233819007874,81.0996668899942,0.010118722915649414,168,0.00045705587,-0.00019431533,0.000496647275070041,-0.001470831,0.001962423,0.002452437245895906,0.000121261655,0.00048161615,0.0017112321,0.0017567391,3.9642229080200195,110.9789810180664
1779208346.8846798,9.51790738105774,figure8,25000,38.147554741741054,0.006924139,-0.0019218127,0.0,0.0034829527,0.006508152,0,0.004354952,0.0059326175,0.037685845,-0.00868237018585205,0.018329551443457603,-0.6508407592773438,-0.7589433193206787,81.24224043225894,0.020234346389770508,169,0.0008719992,-0.00057553453,0.0010448074499249539,0.0003297011,0.0001248878,0.00035256175096005975,0.00043605617,0.00094946177,0.0001736311,-0.00030684203,3.9642229080200195,111.023681640625
1779208346.9671516,9.600379228591919,figure8,25000,38.147554741741054,0.0065560904,-0.0023815564,0.0,0.0034829527,0.006508152,0,0.004352942,0.005919383,0.037684113,-0.008352881297469139,0.01748018153011799,-0.650920033454895,-0.7588990926742554,81.25126611529667,0.00823521614074707,170,0.0008699894,-0.0005887691,0.001050490657525805,0.00022440852,4.539407e-05,0.00022895371499263208,0.00044959196,0.0009494197,7.899878e-05,-0.00021489299,3.9536657333374023,110.9640884399414
1779208347.0546813,9.68790888786316,figure8,25000,38.147554741741054,0.00410168,0.0004483848,0.0,0.0034829527,0.006508152,0,0.004260661,0.0060913833,0.037624393,-0.0055325706489384174,0.016783971339464188,-0.6502889394760132,-0.7594813704490662,81.1546850886823,0.0013394355773925781,171,0.00077770837,-0.00041676871,0.0008823414540505773,-0.00013610102,0.00057823997,0.000594041193056278,0.00029222594,0.0008325446,0.0005504351,0.00022339683,3.9536657333374023,110.8587417602539
1779208347.1401365,9.773364067077637,figure8,26000,39.6734569314107,0.011080954,-0.007231716,0.0,0.0034829527,0.006508152,0,0.004488373,0.005766141,0.037793603,-0.009913165122270584,0.012921947985887527,-0.6510204672813416,-0.7588854432106018,81.2518664155883,0.02174520492553711,172,0.0010054205,-0.0007420108,0.0012495800454373647,0.00095490995,-0.001095209,0.0014530437076157392,0.000580463,0.0011065772,-0.00093723455,-0.0011103726,3.9536657333374023,110.8587417602539
1779208347.2230184,9.856245994567871,figure8,26000,39.6734569314107,0.0011149794,-0.00021925976,0.0,0.0034829527,0.006508152,0,0.0041103344,0.006119099,0.037579942,-0.00387169374153018,0.016623688861727715,-0.650542140007019,-0.7592783570289612,81.19295405599064,0.020145654678344727,173,0.0006273817,-0.00038905302,0.0007382208869665105,-0.0006740068,0.00048673298,0.0008313809008619345,0.00028840915,0.0006795515,0.00037779877,0.00074058236,3.943108558654785,110.727783203125
1779208347.3084443,9.94167184829712,figure8,27000,41.19935912108034,-0.0020745844,0.0032936223,0.0,0.0034829527,0.006508152,0,0.003941605,0.0063436115,0.03744852,-0.00019753709784708917,0.016946814954280853,-0.6498836278915405,-0.7598447799682617,81.09593310936108,0.021364212036132812,174,0.00045865215,-0.00016454048,0.00048727340651464024,-0.0010729269,0.0011405697,0.001565909124135452,9.1567184e-05,0.00047859256,0.0009607563,0.0012365349,3.943108558654785,110.66423797607422
1779208347.3742032,10.007430791854858,figure8,27000,41.19935912108034,0.0029539734,-0.0017993639,0.0,0.0034829527,0.006508152,0,0.0040767565,0.0061362386,0.037606146,-0.004332490265369415,0.018620701506733894,-0.6500781178474426,-0.7596268057823181,81.13005220489575,0.009247303009033203,175,0.0005938038,-0.00037191343,0.0007006586611845323,-0.00023040606,-4.6100467e-07,0.00023040652478312188,0.00027590577,0.00064404856,-3.5982303e-05,0.00022757951,3.932551383972168,110.7287368774414
1779208347.4559915,10.089219093322754,figure8,27000,41.19935912108034,0.0013134396,0.00046454987,0.0,0.0034829527,0.006508152,0,0.0040089767,0.006245223,0.0374256,-0.0005072796484455466,0.01638605445623398,-0.6502557992935181,-0.759538471698761,81.15000937572866,0.01979684829711914,176,0.000526024,-0.00026292913,0.0005880756765479025,-0.0004467179,0.000458631,0.0006402337523493582,0.0001788711,0.0005602126,0.0003844441,0.00051195896,3.932551383972168,110.72010040283203
1779208347.5433629,10.17659044265747,figure8,28000,42.72526131074998,-0.0061061727,0.005374235,0.0,0.0034829527,0.006508152,0,0.0036273971,0.0065973634,0.03726883,0.0038121368270367384,0.017956461757421494,-0.6495097279548645,-0.7601316571235657,81.04444646555922,0.011991262435913086,177,0.0001444444,8.921139e-05,0.00016977296241267408,-0.0015154508,0.0014309972,0.0020843089451756474,-0.00011060925,0.00012879618,0.0011776449,0.0017197374,3.9272727966308594,110.72010040283203
1779208347.6502218,10.283449411392212,figure8,28000,42.72526131074998,0.0056333714,-0.0024792557,0.0,0.0034829527,0.006508152,0,0.004140841,0.0061254576,0.037638165,-0.006895000115036964,0.017986521124839783,-0.6497553586959839,-0.7598992586135864,81.07791936332802,0.006348133087158203,178,0.00065788813,-0.00038269442,0.0007610991007492021,0.00030834228,-0.00025669415,0.0004012067406450297,0.00027603126,0.0007092803,-0.00020576705,-0.00034442238,3.9272727966308594,110.71590423583984
1779208347.7322378,10.36546540260315,figure8,28000,42.72526131074998,0.009834138,-0.0061009005,0.0,0.0034829527,0.006508152,0,0.0043156687,0.005927574,0.037769616,-0.005513467360287905,0.015895551070570946,-0.6510515809059143,-0.7588471174240112,81.26684917718032,0.016863584518432617,179,0.000832716,-0.0005805781,0.001015128971270577,0.0009493776,-0.0010099609,0.0013861237084266764,0.00044741342,0.0009112124,-0.000854105,-0.0010917159,3.9272727966308594,110.71590423583984
1779208347.8133,10.446527481079102,figure8,29000,44.25116350041962,0.009666409,-0.002759246,0.0,0.0034829527,0.006508152,0,0.004387133,0.00602962,0.03763117,-0.003065815893933177,0.017197929322719574,-0.6507887244224548,-0.759057879447937,81.23248039108303,0.016216516494750977,180,0.0009041801,-0.00047853217,0.0010230027541272642,0.0009269491,-0.00033230483,0.0009847137011403373,0.00033512028,0.00096655526,-0.00018713105,-0.0009667694,3.921994209289551,110.5396957397461
1779208347.915067,10.54829454421997,figure8,29000,44.25116350041962,0.01934779,-0.005865556,0.0,0.0034829527,0.006508152,0,0.004959807,0.005751478,0.037782416,-0.006830940023064613,0.012202889658510685,-0.6506772041320801,-0.7592257261276245,81.19929239736953,0.01641559600830078,181,0.0014768541,-0.000756674,0.0016594135897044018,0.002340364,-0.0010541572,0.00256681730152233,0.00052180944,0.001575236,-0.0006836749,-0.0024740936,3.9114370346069336,110.3749771118164
1779208347.9964492,10.629676818847656,figure8,30000,45.777065690089266,0.029210942,0.004510418,0.0,0.0034829527,0.006508152,0,0.005650726,0.006109835,0.037643634,0.0018169245449826121,0.0059677972458302975,-0.6488854885101318,-0.7608605027198792,80.91917614620743,0.014863014221191406,182,0.0021677734,-0.0003983169,0.002204064007180286,0.004137515,0.00055837404,0.004175022561191046,5.1190204e-05,0.0022034694,0.0012043898,-0.0039975313,3.9114370346069336,110.28681182861328
1779208348.0792904,10.712517976760864,figure8,30000,45.777065690089266,0.044108808,0.008729292,0.0,0.0034829527,0.006508152,0,0.0067326287,0.0062458776,0.037936267,-0.0036645669024437666,0.006191585212945938,-0.6495041251182556,-0.7603240609169006,81.01198831039083,0.003950834274291992,183,0.003249676,-0.0002622744,0.003260242600728104,0.006358226,0.0008261823,0.006411677754652711,-0.00024863577,0.0032507477,0.0018093693,-0.006151081,3.9008798599243164,110.28900146484375
1779208348.182962,10.816189527511597,figure8,31000,47.30296787975891,0.07814175,0.021457318,0.0,0.0034829527,0.006508152,0,0.009018366,0.006656464,0.038268916,-0.0037400706205517054,0.004495238419622183,-0.6472904682159424,-0.7622210383415222,80.67695364755693,0.014863729476928711,184,0.0055354135,0.00014831219,0.005537400018331843,0.01184329,0.0019062466,0.011995719973212169,-0.0010430942,0.0054382677,0.0037996885,-0.011378035,3.9008798599243164,110.25167846679688
1779208348.2663145,10.899542093276978,figure8,31000,47.30296787975891,0.12339701,0.030158868,0.0,0.0034829527,0.006508152,0,0.011945661,0.0067980355,0.038657505,-0.005527462810277939,0.008319114334881306,-0.6453779339790344,-0.763798177242279,80.39417015399208,0.016069650650024414,185,0.008462708,0.00028988346,0.008467671623878315,0.018980801,0.0018513917,0.01907087994887313,-0.0016979834,0.00829568,0.004992742,-0.018405732,3.895601272583008,110.27920532226562
1779208348.3270907,10.960318326950073,figure8,31000,47.30296787975891,0.18197621,0.054515895,0.0,0.0034829527,0.006508152,0,0.01566435,0.007503757,0.04082575,-0.0033986244816333055,0.007316119037568569,-0.6445789933204651,-0.7644952535629272,80.27326845411534,0.005259275436401367,186,0.0121813975,0.0009956048,0.012222016196927631,0.028870575,0.0042534606,0.029182221654978985,-0.0030393307,0.011838079,0.009069977,-0.027736934,3.895601272583008,110.27920532226562
1779208348.4092908,11.042518377304077,figure8,31000,47.30296787975891,0.25537086,0.08539502,0.0,0.0034829527,0.006508152,0,0.02111103,0.008557703,0.044605806,-0.00578624801710248,0.008183815516531467,-0.6425796151161194,-0.7661533355712891,79.9746621094445,0.005483865737915039,187,0.017628077,0.0020495513,0.01774682447199909,0.040142246,0.006834479,0.0407198976478868,-0.0050870166,0.017002119,0.013718232,-0.038339537,3.895601272583008,110.22198486328125
