wall_time_s,elapsed_s,mode,thrust_raw,thrust_percent,roll_cmd_deg,pitch_cmd_deg,yawrate_cmd_deg_s,target_x,target_y,target_error_x_m,target_error_y_m,target_error_m,xy_control_active,figure8_active,mocap_x,mocap_y,mocap_z,mocap_qx,mocap_qy,mocap_qz,mocap_qw,yaw_deg,mocap_age_s,mocap_frame_count,drift_x_m,drift_y_m,horizontal_drift_m,velocity_x_m_s,velocity_y_m_s,horizontal_speed_m_s,body_error_x_m,body_error_y_m,body_velocity_x_m_s,body_velocity_y_m_s,battery_v,estimate_z
1779210643.7163453,0.0004112720489501953,hold-xy,0,0.0,0.0,0.0,0.0,0.014015405,0.002719584,0.0,0.0,0.0,0,0,0.014015405,0.002719584,0.037167,0.008588525466620922,0.008297028951346874,-0.639737069606781,-0.7685010433197021,79.55243747731298,0.0731956958770752,62,0.0,0.0,0.0,0.0,0.0,0.0,0.0,0.0,0.0,0.0,3.9747800827026367,115.90911102294922
1779210643.7379801,0.02204608917236328,hold-xy,0,0.0,0.0,0.0,0.0,0.014015405,0.002719584,3.8091093e-06,-1.52196735e-05,1.5689097132539156e-05,0,0,0.014019215,0.0027043642,0.03717312,0.008521860465407372,0.008292735554277897,-0.6396264433860779,-0.7685939073562622,79.5359354397963,0.014914989471435547,63,3.8091093e-06,-1.52196735e-05,1.5689097132539156e-05,1.429926e-05,-5.713411e-05,5.889631133669002e-05,0.0,0.0,0.0,0.0,3.9747800827026367,115.90911102294922
1779210643.7986467,0.08271265029907227,hold-xy,0,0.0,0.0,0.0,0.0,0.014015405,0.002719584,-3.1944364e-07,2.5045127e-05,2.504716322985669e-05,0,0,0.014015086,0.002744629,0.037195023,0.008190455846488476,0.008882749825716019,-0.639790952205658,-0.7684540152549744,79.56160724006165,0.0014939308166503906,64,-3.1944364e-07,2.5045127e-05,2.504716322985669e-05,-6.708102e-06,0.00012304877,0.000123231482327726,0.0,0.0,0.0,0.0,3.9747800827026367,115.90911102294922
1779210643.879914,0.16398000717163086,hold-xy,0,0.0,0.0,0.0,0.0,0.014015405,0.002719584,-5.4302625e-05,-1.2227334e-05,5.566222204979478e-05,0,0,0.013961103,0.0027073566,0.03718301,0.008189909160137177,0.009217138402163982,-0.6396231055259705,-0.7685897946357727,79.53727036950217,0.0040743350982666016,65,-5.4302625e-05,-1.2227334e-05,5.566222204979478e-05,-0.00021051067,-5.596997e-05,0.00021782419369482443,0.0,0.0,0.0,0.0,3.9747800827026367,115.86444854736328
1779210643.9609196,0.24498558044433594,hold-xy,0,0.0,0.0,0.0,0.0,0.014015405,0.002719584,-1.2451783e-05,3.75323e-06,1.300513836039514e-05,0,0,0.014002954,0.0027233372,0.037177227,0.00845849048346281,0.008263952098786831,-0.6397325396537781,-0.7685065865516663,79.55169570664972,0.001897573471069336,66,-1.2451783e-05,3.75323e-06,1.300513836039514e-05,3.5790727e-06,1.8455488e-05,1.8799329706857123e-05,0.0,0.0,0.0,0.0,3.9747800827026367,115.84688568115234
1779210644.0425391,0.32660508155822754,hold-xy,0,0.0,0.0,0.0,0.0,0.014015405,0.002719584,1.55624e-06,-1.6253442e-05,1.6327775264249968e-05,0,0,0.014016962,0.0027033305,0.03716545,0.00828822236508131,0.009007880464196205,-0.6395644545555115,-0.7686399817466736,79.52809885807116,0.012726783752441406,67,1.55624e-06,-1.6253442e-05,1.6327775264249968e-05,6.186952e-05,-7.1866816e-05,9.482972543150429e-05,0.0,0.0,0.0,0.0,3.9747800827026367,115.8226547241211
1779210644.1246402,0.4087061882019043,hold-xy,0,0.0,0.0,0.0,0.0,0.014015405,0.002719584,3.6185607e-05,8.996576e-07,3.6196788504657235e-05,0,0,0.014051591,0.0027204836,0.03719397,0.008709760382771492,0.007295828312635422,-0.6397366523742676,-0.7685102820396423,79.5505738731198,0.010588407516479492,68,3.6185607e-05,8.996576e-07,3.6196788504657235e-05,0.00016663338,1.0780139e-05,0.00016698172352713612,0.0,0.0,0.0,0.0,3.9747800827026367,115.8536376953125
1779210644.2282467,0.512312650680542,hold-xy,0,0.0,0.0,0.0,0.0,0.014015405,0.002719584,-3.3545308e-05,-2.3281202e-05,4.083261042576112e-05,0,0,0.01398186,0.0026963027,0.037168402,0.008579283021390438,0.007961384020745754,-0.6396030783653259,-0.7686161994934082,79.53183418008682,0.011116266250610352,69,-3.3545308e-05,-2.3281202e-05,4.083261042576112e-05,-8.6301516e-05,-6.282988e-05,0.00010674992196852892,0.0,0.0,0.0,0.0,3.9747800827026367,115.83544921875
1779210644.329857,0.6139230728149414,hold-xy,0,0.0,0.0,0.0,0.0,0.014015405,0.002719584,-1.5225261e-05,1.0297634e-05,1.8380692565840238e-05,0,0,0.01400018,0.0027298816,0.037193876,0.00796719454228878,0.009612944908440113,-0.6395499110221863,-0.7686481475830078,79.52718832140123,0.01938915252685547,70,-1.5225261e-05,1.0297634e-05,1.8380692565840238e-05,-1.5278492e-06,6.39462e-05,6.396444898353685e-05,0.0,0.0,0.0,0.0,3.9747800827026367,115.85211181640625
1779210644.411097,0.6951630115509033,hold-xy,0,0.0,0.0,0.0,0.0,0.014015405,0.002719584,-3.259629e-06,-2.0107254e-06,3.829908251173718e-06,0,0,0.014012146,0.0027175732,0.03715586,0.008461248129606247,0.008575400337576866,-0.6396247744560242,-0.768592894077301,79.53623127781455,0.008936405181884766,71,-3.259629e-06,-2.0107254e-06,3.829908251173718e-06,3.807965e-05,4.4918634e-06,3.8343662945919605e-05,0.0,0.0,0.0,0.0,3.9747800827026367,115.88633728027344
1779210644.5125852,0.7966511249542236,hold-xy,0,0.0,0.0,0.0,0.0,0.014015405,0.002719584,-2.331566e-05,-4.1006133e-06,2.3673510243029172e-05,0,0,0.01399209,0.0027154833,0.037166283,0.008352288044989109,0.008840291760861874,-0.6395708322525024,-0.7686359882354736,79.52871283860287,0.01860642433166504,72,-2.331566e-05,-4.1006133e-06,2.3673510243029172e-05,-3.887392e-05,-3.6840486e-06,3.904809841380892e-05,0.0,0.0,0.0,0.0,3.9747800827026367,115.85147094726562
1779210644.615391,0.8994569778442383,hold-xy,0,0.0,0.0,0.0,0.0,0.014015405,0.002719584,-5.465932e-06,-1.1480413e-05,1.2715200007383496e-05,0,0,0.0140099395,0.0027081035,0.037193164,0.007824295200407505,0.009523426182568073,-0.6394675970077515,-0.7687193155288696,79.51471866343118,0.018970489501953125,73,-5.465932e-06,-1.1480413e-05,1.2715200007383496e-05,2.5061052e-05,-2.4190524e-05,3.483156230346639e-05,0.0,0.0,0.0,0.0,3.9747800827026367,115.79440307617188
1779210644.6973023,0.9813683032989502,hold-xy,0,0.0,0.0,0.0,0.0,0.014015405,0.002719584,-3.9361417e-05,5.993992e-06,3.981518608703982e-05,0,0,0.013976044,0.002725578,0.03718127,0.008276951499283314,0.009164230898022652,-0.6394462585449219,-0.7687366604804993,79.51080441558818,0.007880687713623047,74,-3.9361417e-05,5.993992e-06,3.981518608703982e-05,-9.179622e-05,3.9435006e-05,9.990828430169053e-05,0.0,0.0,0.0,0.0,3.9747800827026367,115.79440307617188
1779210644.779783,1.0638489723205566,hold-xy,0,0.0,0.0,0.0,0.0,0.014015405,0.002719584,-1.5447848e-05,-5.2740797e-06,1.6323354927423832e-05,0,0,0.013999958,0.0027143098,0.03720488,0.007893801666796207,0.009462302550673485,-0.6397819519042969,-0.7684576511383057,79.56145252081593,0.0073909759521484375,75,-1.5447848e-05,-5.2740797e-06,1.6323354927423832e-05,2.2208093e-05,-1.3138006e-05,2.58032280255511e-05,0.0,0.0,0.0,0.0,3.9747800827026367,115.78314208984375
1779210644.881801,1.1658668518066406,hold-xy,0,0.0,0.0,0.0,0.0,0.014015405,0.002719584,6.9625676e-06,-1.5057623e-05,1.658943505080553e-05,0,0,0.014022368,0.0027045263,0.037177037,0.008360995911061764,0.008302271366119385,-0.6396399736404419,-0.7685843706130981,79.53796710259103,0.006436586380004883,76,6.9625676e-06,-1.5057623e-05,1.658943505080553e-05,8.0836304e-05,-3.7700036e-05,8.919529395022246e-05,0.0,0.0,0.0,0.0,3.9747800827026367,115.81280517578125
1779210644.9658368,1.2499027252197266,hold-xy,0,0.0,0.0,0.0,0.0,0.014015405,0.002719584,1.611188e-06,3.6023557e-06,3.946250583661269e-06,0,0,0.014017017,0.0027231863,0.037175763,0.008281893096864223,0.008786138147115707,-0.6396051049232483,-0.768608808517456,79.53370969654505,0.018975496292114258,77,1.611188e-06,3.6023557e-06,3.946250583661269e-06,3.4131117e-05,5.1906925e-05,6.212296067567177e-05,0.0,0.0,0.0,0.0,3.9747800827026367,115.8548812866211
1779210645.0266268,1.3106927871704102,hold-xy,0,0.0,0.0,0.0,0.0,0.014015405,0.002719584,1.18734315e-05,-3.1776726e-06,1.2291297126640911e-05,0,0,0.014027279,0.0027164062,0.037156288,0.008240975439548492,0.00909903272986412,-0.6397557258605957,-0.7684802412986755,79.55679856221646,0.008444070816040039,78,1.18734315e-05,-3.1776726e-06,1.2291297126640911e-05,6.705792e-05,7.815974e-06,6.751187784424068e-05,0.0,0.0,0.0,0.0,3.9747800827026367,115.87379455566406
1779210645.1119926,1.3960585594177246,hold-xy,0,0.0,0.0,0.0,0.0,0.014015405,0.002719584,2.554711e-05,-3.1478703e-06,2.5740316482891422e-05,0,0,0.014040953,0.002716436,0.037180964,0.008546300232410431,0.007843735627830029,-0.6396047472953796,-0.7686164379119873,79.53186870167572,0.009879827499389648,79,2.554711e-05,-3.1478703e-06,2.5740316482891422e-05,9.581583e-05,5.577707e-06,9.597804032332383e-05,0.0,0.0,0.0,0.0,3.9747800827026367,115.85215759277344
1779210645.1755219,1.459587812423706,hold-xy,0,0.0,0.0,0.0,0.0,0.014015405,0.002719584,1.2989156e-05,5.878508e-06,1.4257455442428721e-05,0,0,0.014028395,0.0027254624,0.037172318,0.008606037124991417,0.007701420225203037,-0.6397063732147217,-0.7685326337814331,79.54676400488827,0.0005681514739990234,80,1.2989156e-05,5.878508e-06,1.4257455442428721e-05,1.5350346e-05,4.108011e-05,4.3854403466501274e-05,0.0,0.0,0.0,0.0,3.9747800827026367,115.85215759277344
1779210645.277355,1.5614209175109863,hold-xy,0,0.0,0.0,0.0,0.0,0.014015405,0.002719584,-1.2492761e-05,1.2880191e-06,1.2558983506584212e-05,0,0,0.014002913,0.002720872,0.037189353,0.008131452836096287,0.008850563317537308,-0.6398589015007019,-0.7683984041213989,79.57167095767798,0.011313199996948242,81,-1.2492761e-05,1.2880191e-06,1.2558983506584212e-05,-7.3179865e-05,1.3637227e-05,7.443968401812933e-05,0.0,0.0,0.0,0.0,3.9747800827026367,115.83573150634766
1779210645.3813407,1.6654067039489746,hold-xy,0,0.0,0.0,0.0,0.0,0.014015405,0.002719584,3.6487356e-05,2.5806949e-05,4.469145175823924e-05,0,0,0.014051893,0.0027453909,0.03719398,0.008414911106228828,0.008275652304291725,-0.6395630836486816,-0.7686480283737183,79.52645587575921,0.021564483642578125,82,3.6487356e-05,2.5806949e-05,4.469145175823924e-05,0.00010553638,8.80196e-05,0.00013742408302146707,0.0,0.0,0.0,0.0,3.9747800827026367,115.81214141845703
1779210645.484357,1.768423080444336,hold-xy,0,0.0,0.0,0.0,0.0,0.014015405,0.002719584,-2.5415793e-05,-5.43613e-06,2.5990653880003708e-05,0,0,0.01398999,0.0027141478,0.037213538,0.00819086842238903,0.0085143418982625,-0.6398502588272095,-0.7684087753295898,79.5697201864704,0.015665292739868164,83,-2.5415793e-05,-5.43613e-06,2.5990653880003708e-05,-9.663225e-05,-2.4443063e-05,9.967574628245534e-05,0.0,0.0,0.0,0.0,3.9747800827026367,115.767578125
1779210645.545305,1.8293709754943848,hold-xy,0,0.0,0.0,0.0,0.0,0.014015405,0.002719584,1.7281622e-05,3.3676624e-05,3.785194127956128e-05,0,0,0.014032687,0.0027532605,0.037185133,0.008485404774546623,0.007944222539663315,-0.6395307779312134,-0.7686775922775269,79.52102400842443,0.005734443664550781,84,1.7281622e-05,3.3676624e-05,3.785194127956128e-05,0.000113077695,0.00014843774,0.00018660205774407025,0.0,0.0,0.0,0.0,3.9747800827026367,115.78008270263672
1779210645.647419,1.9314849376678467,hold-xy,500,0.762951094834821,0.0,0.0,0.0,0.014015405,0.002719584,-1.081638e-05,-8.28132e-06,1.3622567583073136e-05,0,0,0.014004589,0.0027113026,0.03718804,0.008446098305284977,0.00867371540516615,-0.6397776007652283,-0.7684647440910339,79.55920834606043,0.016293764114379883,85,-1.081638e-05,-8.28132e-06,1.3622567583073136e-05,-1.29152395e-05,-3.3578523e-05,3.597666814280764e-05,0.0,0.0,0.0,0.0,3.9747800827026367,115.77618408203125
1779210645.7494783,2.0335443019866943,hold-xy,500,0.762951094834821,0.0,0.0,0.0,0.014015405,0.002719584,7.815659e-06,-1.757592e-05,1.9235318481922273e-05,0,0,0.014023221,0.002702008,0.037203703,0.007892032153904438,0.009129741229116917,-0.6395247578620911,-0.7686758041381836,79.52241367471011,0.017076969146728516,86,7.815659e-06,-1.757592e-05,1.9235318481922273e-05,4.615112e-05,-5.103741e-05,6.880946751744228e-05,0.0,0.0,0.0,0.0,3.9747800827026367,115.75872039794922
1779210645.8311577,2.1152236461639404,hold-xy,1000,1.525902189669642,0.0,0.0,0.0,0.014015405,0.002719584,3.2691285e-05,-1.1695549e-05,3.472039627239537e-05,0,0,0.014048097,0.0027078884,0.037194118,0.007977550849318504,0.0093668969348073,-0.6396123170852661,-0.7685991525650024,79.53596493357962,0.004957675933837891,87,3.2691285e-05,-1.1695549e-05,3.472039627239537e-05,0.00011186652,-1.6918755e-05,0.0001131386833029055,0.0,0.0,0.0,0.0,3.9747800827026367,115.76591491699219
1779210645.9328046,2.2168705463409424,hold-xy,1000,1.525902189669642,0.0,0.0,0.0,0.014015405,0.002719584,-1.6693957e-05,4.5448542e-07,1.67001427655788e-05,0,0,0.0139987115,0.0027200384,0.03715656,0.008611379191279411,0.008265954442322254,-0.6396768093109131,-0.7685514092445374,79.54339672069169,0.01411128044128418,88,-1.6693957e-05,4.5448542e-07,1.67001427655788e-05,-8.187341e-05,2.756525e-05,8.638922724258552e-05,0.0,0.0,0.0,0.0,3.9747800827026367,115.8251953125
1779210646.035695,2.319761037826538,hold-xy,1500,2.288853284504463,0.0,0.0,0.0,0.014015405,0.002719584,-2.071727e-05,-1.6605482e-06,2.078371341585625e-05,0,0,0.013994688,0.0027179234,0.037213687,0.008081316016614437,0.009345185942947865,-0.63958340883255,-0.7686223983764648,79.5316156589092,0.014289617538452148,89,-2.071727e-05,-1.6605482e-06,2.078371341585625e-05,-6.906262e-05,1.3118118e-05,7.029744046698855e-05,0.0,0.0,0.0,0.0,3.9747800827026367,115.80448913574219
1779210646.0984168,2.3824827671051025,hold-xy,1500,2.288853284504463,0.0,0.0,0.0,0.014015405,0.002719584,2.0622276e-05,1.5649945e-05,2.5888202089022356e-05,0,0,0.014036028,0.0027352339,0.037178148,0.008262671530246735,0.00886865146458149,-0.6395556330680847,-0.7686492204666138,79.52649999281617,0.00533747673034668,90,2.0622276e-05,1.5649945e-05,2.5888202089022356e-05,0.00012468804,8.1637925e-05,0.0001490364352054196,0.0,0.0,0.0,0.0,3.9747800827026367,115.80448913574219
1779210646.164549,2.448615074157715,hold-xy,1500,2.288853284504463,0.0,0.0,0.0,0.014015405,0.002719584,2.1473505e-05,1.850631e-05,2.834775067524817e-05,0,0,0.014036879,0.0027380902,0.037201855,0.008201674558222294,0.009005794301629066,-0.6395286917686462,-0.7686707377433777,79.52276058173969,0.00633549690246582,91,2.1473505e-05,1.850631e-05,2.834775067524817e-05,9.120228e-05,7.0302594e-05,0.00011515342019769702,0.0,0.0,0.0,0.0,3.9747800827026367,115.81919860839844
1779210646.2479954,2.5320613384246826,hold-xy,2000,3.051804379339284,0.0,0.0,0.0,0.014015405,0.002719584,-1.1129305e-06,-1.5712343e-05,1.5751709773556727e-05,0,0,0.0140142925,0.0027038716,0.037192836,0.007780111860483885,0.00960756279528141,-0.6397555470466614,-0.76847904920578,79.55782120954237,0.0068972110748291016,92,-1.1129305e-06,-1.5712343e-05,1.5751709773556727e-05,-1.7909842e-05,-7.464236e-05,7.676095667797632e-05,0.0,0.0,0.0,0.0,3.9747800827026367,115.88067626953125
1779210646.333221,2.6172869205474854,hold-xy,2000,3.051804379339284,0.0,0.0,0.0,0.014015405,0.002719584,9.59821e-06,1.089368e-05,1.4518881048748226e-05,0,0,0.014025004,0.0027304776,0.03714903,0.00843325350433588,0.008485008962452412,-0.6395910978317261,-0.7686222791671753,79.53103462297626,0.0061528682708740234,93,9.59821e-06,1.089368e-05,1.4518881048748226e-05,2.4840629e-05,4.059453e-05,4.759172883890571e-05,0.0,0.0,0.0,0.0,3.9747800827026367,115.87653350830078
1779210646.4422474,2.726313352584839,hold-xy,2500,3.8147554741741057,0.0,0.0,0.0,0.014015405,0.002719584,-1.8630177e-05,-1.1527911e-05,2.1908358448782708e-05,0,0,0.013996775,0.002708056,0.037181273,0.00817900151014328,0.009034071117639542,-0.6397693753242493,-0.768470287322998,79.55869684632174,0.020116806030273438,94,-1.8630177e-05,-1.1527911e-05,2.1908358448782708e-05,-7.1695235e-05,-4.2342308e-05,8.326510474097671e-05,0.0,0.0,0.0,0.0,3.9747800827026367,115.88665771484375
1779210646.525887,2.809952974319458,hold-xy,3000,4.577706569008926,0.0,0.0,0.0,0.014015405,0.002719584,2.3014843e-05,1.2876466e-05,2.6372075964938652e-05,0,0,0.01403842,0.0027324604,0.0371818,0.008331279270350933,0.008706127293407917,-0.6395296454429626,-0.768671989440918,79.52230420828514,0.0015478134155273438,95,2.3014843e-05,1.2876466e-05,2.6372075964938652e-05,7.20487e-05,4.1991465e-05,8.339243653005054e-05,0.0,0.0,0.0,0.0,3.9747800827026367,115.86280059814453
1779210646.6330469,2.9171128273010254,hold-xy,3000,4.577706569008926,0.0,0.0,0.0,0.014015405,0.002719584,-5.904585e-06,2.5387853e-06,6.4272510819144595e-06,0,0,0.014009501,0.0027221227,0.037176196,0.008557676337659359,0.008144553750753403,-0.6396521329879761,-0.7685737609863281,79.53948682062718,0.005074024200439453,96,-5.904585e-06,2.5387853e-06,6.4272510819144595e-06,-3.328225e-05,-5.3162694e-07,3.328649591368616e-05,0.0,0.0,0.0,0.0,3.9747800827026367,115.82756805419922
1779210646.7161226,3.0001885890960693,hold-xy,3500,5.340657663843747,0.0,0.0,0.0,0.014015405,0.002719584,-6.96443e-06,-2.5257468e-06,7.408284902866526e-06,0,0,0.014008441,0.0027170582,0.03722916,0.008092734031379223,0.009218458086252213,-0.6396973133087158,-0.7685289978981018,79.54833026867055,0.01459193229675293,97,-6.96443e-06,-2.5257468e-06,7.408284902866526e-06,-2.762007e-05,-2.1027441e-05,3.471341998430178e-05,0.0,0.0,0.0,0.0,3.9747800827026367,115.81385040283203
1779210646.7975852,3.081651210784912,hold-xy,3500,5.340657663843747,0.0,0.0,0.0,0.014015405,0.002719584,-6.736256e-06,3.2037497e-07,6.743870298530989e-06,0,0,0.014008669,0.0027199043,0.037190452,0.008233772590756416,0.008890091441571712,-0.6396336555480957,-0.7685843706130981,79.53817280740616,0.0040035247802734375,98,-6.736256e-06,3.2037497e-07,6.743870298530989e-06,-1.8590415e-05,-5.4435213e-06,1.9370995884971595e-05,0.0,0.0,0.0,0.0,3.9747800827026367,115.81385040283203
1779210646.9005342,3.1846001148223877,hold-xy,4000,6.103608758678568,0.0,0.0,0.0,0.014015405,0.002719584,-2.9007904e-05,-1.3735145e-05,3.209536995984906e-05,0,0,0.013986398,0.0027058488,0.037228238,0.007574166636914015,0.010063569992780685,-0.6397013068199158,-0.7685203552246094,79.55072497754064,0.014879703521728516,99,-2.9007904e-05,-1.3735145e-05,3.209536995984906e-05,-8.558087e-05,-4.9607486e-05,9.891909341906154e-05,0.0,0.0,0.0,0.0,3.9747800827026367,115.79436492919922
1779210646.9826038,3.266669750213623,hold-xy,4500,6.866559853513389,0.0,0.0,0.0,0.014015405,0.002719584,-2.4192035e-05,3.946945e-06,2.4511893826412034e-05,0,0,0.013991213,0.0027235309,0.03719811,0.008511503227055073,0.008455057628452778,-0.6396005153656006,-0.768613874912262,79.53238224816337,0.0052073001861572266,100,-2.4192035e-05,3.946945e-06,2.4511893826412034e-05,-4.415853e-05,2.3095883e-05,4.9833678263299294e-05,0.0,0.0,0.0,0.0,3.9747800827026367,115.77217864990234
1779210647.0640104,3.348076343536377,hold-xy,4500,6.866559853513389,0.0,0.0,0.0,0.014015405,0.002719584,1.6150065e-05,7.0780516e-06,1.763302010828252e-05,0,0,0.0140315555,0.002726662,0.037174746,0.008399824611842632,0.00829382799565792,-0.6397244930267334,-0.7685137391090393,79.55055297592322,0.004793882369995117,101,1.6150065e-05,7.0780516e-06,1.763302010828252e-05,0.00011700677,2.7647584e-05,0.00012022883318993586,0.0,0.0,0.0,0.0,3.9747800827026367,115.76690673828125
1779210647.1456902,3.4297561645507812,hold-xy,5000,7.629510948348211,0.0,0.0,0.0,0.014015405,0.002719584,2.5328249e-05,1.4871359e-05,2.9371371861098097e-05,0,0,0.014040734,0.0027344553,0.037176054,0.008260954171419144,0.008969525806605816,-0.6394312381744385,-0.7687515616416931,79.50816342017951,0.015570878982543945,102,2.5328249e-05,1.4871359e-05,2.9371371861098097e-05,0.00012073894,5.232791e-05,0.00013159066201596806,0.0,0.0,0.0,0.0,3.969501495361328,115.73672485351562
1779210647.2066512,3.4907171726226807,hold-xy,5000,7.629510948348211,0.0,0.0,0.0,0.014015405,0.002719584,9.822659e-06,6.3711777e-06,1.1707969275652946e-05,0,0,0.014025228,0.002725955,0.03719847,0.008160985074937344,0.008924238383769989,-0.6395289301872253,-0.7686719298362732,79.52262836990813,0.004193782806396484,103,9.822659e-06,6.3711777e-06,1.1707969275652946e-05,2.0212603e-05,1.3776516e-06,2.0259497322437965e-05,0.0,0.0,0.0,0.0,3.969501495361328,115.7764892578125
1779210647.287775,3.57184100151062,hold-xy,5500,8.392462043183032,0.0,0.0,0.0,0.014015405,0.002719584,-3.3157878e-05,-1.6340986e-05,3.696583169307123e-05,0,0,0.013982248,0.002703243,0.037186947,0.00808543711900711,0.00895756296813488,-0.6397657990455627,-0.7684751749038696,79.55800349595891,0.0031480789184570312,104,-3.3157878e-05,-1.6340986e-05,3.696583169307123e-05,-0.00014277261,-8.195749e-05,0.00016462396094263574,0.0,0.0,0.0,0.0,3.969501495361328,115.7764892578125
1779210647.389756,3.6738219261169434,hold-xy,5500,8.392462043183032,0.0,0.0,0.0,0.014015405,0.002719584,1.1186115e-05,3.3119693e-05,3.4957736703021447e-05,0,0,0.014026592,0.0027527036,0.037169617,0.008506902493536472,0.008379805833101273,-0.639553427696228,-0.7686538696289062,79.52521712450547,0.013559341430664062,105,1.1186115e-05,3.3119693e-05,3.4957736703021447e-05,4.533872e-05,0.00010467255,0.00011406990240408594,0.0,0.0,0.0,0.0,3.969501495361328,115.7713394165039
1779210647.4733293,3.7573952674865723,hold-xy,6000,9.155413138017853,0.0,0.0,0.0,0.014015405,0.002719584,-6.822869e-06,-2.015382e-06,7.1143031059307735e-06,0,0,0.014008583,0.0027175685,0.03720071,0.00858407374471426,0.008122618310153484,-0.639835000038147,-0.768421471118927,79.5667101018712,0.005688667297363281,106,-6.822869e-06,-2.015382e-06,7.1143031059307735e-06,-2.73449e-05,-4.199672e-05,5.0114548012696726e-05,0.0,0.0,0.0,0.0,3.969501495361328,115.8486328125
1779210647.555709,3.8397748470306396,hold-xy,6000,9.155413138017853,0.0,0.0,0.0,0.014015405,0.002719584,2.4184585e-05,9.202398e-06,2.5876210729335807e-05,0,0,0.01403959,0.0027287863,0.03720212,0.008394207805395126,0.008259415626525879,-0.6396233439445496,-0.7685982584953308,79.53540698680074,0.006505012512207031,107,2.4184585e-05,9.202398e-06,2.5876210729335807e-05,9.4907955e-05,1.1862729e-05,9.564645747929532e-05,0.0,0.0,0.0,0.0,3.969501495361328,115.81040954589844
1779210647.6579006,3.9419665336608887,hold-xy,6500,9.918364232852674,0.0,0.0,0.0,0.014015405,0.002719584,7.4123964e-06,-1.3951212e-06,7.542544816462822e-06,0,0,0.014022818,0.0027181888,0.037185393,0.00864498596638441,0.0077033741399645805,-0.639793872833252,-0.7684593200683594,79.55981315021582,0.016467571258544922,108,7.4123964e-06,-1.3951212e-06,7.542544816462822e-06,1.18795215e-05,-2.616737e-05,2.8737680384052446e-05,0.0,0.0,0.0,0.0,3.969501495361328,115.79255676269531
1779210647.7399127,4.0239787101745605,hold-xy,6500,9.918364232852674,0.0,0.0,0.0,0.014015405,0.002719584,2.8161332e-05,1.730118e-05,3.305134489789704e-05,0,0,0.014043567,0.002736885,0.037212726,0.008397603407502174,0.00786877516657114,-0.6396738290786743,-0.7685603499412537,79.5422101050745,0.005574464797973633,109,2.8161332e-05,1.730118e-05,3.305134489789704e-05,7.5315955e-05,4.2054977e-05,8.626189420205578e-05,0.0,0.0,0.0,0.0,3.9642229080200195,115.78916931152344
1779210647.8259852,4.110051155090332,hold-xy,7000,10.681315327687495,0.0,0.0,0.0,0.014015405,0.002719584,1.5356578e-05,3.2735988e-06,1.57016226651394e-05,0,0,0.014030762,0.0027228575,0.03716974,0.009022525511682034,0.006762915290892124,-0.6397876739501953,-0.7684690952301025,79.557301199563,0.007252931594848633,110,1.5356578e-05,3.2735988e-06,1.57016226651394e-05,7.203387e-06,-2.0426147e-05,2.165909152871425e-05,0.0,0.0,0.0,0.0,3.9642229080200195,115.75264739990234
1779210647.9279785,4.2120444774627686,hold-xy,7500,11.444266422522317,0.0,0.0,0.0,0.014015405,0.002719584,2.2902153e-05,1.1314638e-05,2.554466083045241e-05,0,0,0.014038308,0.0027308986,0.03720351,0.008390894159674644,0.008376472629606724,-0.6395547389984131,-0.7686541676521301,79.52540396663622,0.0070722103118896484,111,2.2902153e-05,1.1314638e-05,2.554466083045241e-05,2.7197439e-05,9.311527e-06,2.874726460086112e-05,0.0,0.0,0.0,0.0,3.9642229080200195,115.74853515625
1779210648.1121242,4.396190166473389,hold-xy,7500,11.444266422522317,0.0,0.0,0.0,0.014015405,0.002719584,1.3757497e-05,-2.3183413e-05,2.6958103334195206e-05,0,0,0.014029163,0.0026964005,0.03717755,0.008311075158417225,0.008776317350566387,-0.639894962310791,-0.768367350101471,79.57690716091379,0.017256975173950195,112,1.3757497e-05,-2.3183413e-05,2.6958103334195206e-05,3.2680164e-06,-5.297469e-05,5.3075396806618884e-05,0.0,0.0,0.0,0.0,3.958944320678711,115.79180145263672
1779210648.1738746,4.457940578460693,hold-xy,7500,11.444266422522317,0.0,0.0,0.0,0.014015405,0.002719584,2.0341948e-05,2.648402e-05,3.339458273497524e-05,0,0,0.014035747,0.002746068,0.037213124,0.007883838377892971,0.00904613733291626,-0.6396888494491577,-0.7685403823852539,79.54670320444032,0.00608062744140625,113,2.0341948e-05,2.648402e-05,3.339458273497524e-05,2.9374174e-05,0.00016723546,0.00016979558219620678,0.0,0.0,0.0,0.0,3.958944320678711,115.79180145263672
1779210648.2769716,4.561037540435791,hold-xy,7500,11.444266422522317,0.0,0.0,0.0,0.014015405,0.002719584,-2.3283064e-07,4.4703484e-06,4.476407549796722e-06,0,0,0.014015173,0.0027240543,0.037193216,0.00815992709249258,0.008763344027101994,-0.6397762894630432,-0.768467903137207,79.55918007035537,0.007662534713745117,114,-2.3283064e-07,4.4703484e-06,4.476407549796722e-06,-4.0241215e-05,5.2009425e-05,6.575968032392615e-05,0.0,0.0,0.0,0.0,3.958944320678711,115.78408813476562
1779210648.337786,4.621851921081543,hold-xy,7500,11.444266422522317,0.0,0.0,0.0,0.014015405,0.002719584,4.806742e-05,-4.1323714e-05,6.338869202113832e-05,0,0,0.014063473,0.0026782602,0.037219238,0.006692118011415005,0.010419908910989761,-0.6398767232894897,-0.7683778405189514,79.57761442784829,0.017685651779174805,115,4.806742e-05,-4.1323714e-05,6.338869202113832e-05,0.00025711794,-0.0002340773,0.0003477093852029544,0.0,0.0,0.0,0.0,3.958944320678711,115.83602142333984
1779210648.4010193,4.685085296630859,hold-xy,7500,11.444266422522317,0.0,0.0,0.0,0.014015405,0.002719584,0.0002121143,-0.00012281351,0.00024510331522281897,0,0,0.01422752,0.0025967704,0.03725636,0.004328636452555656,0.010009479708969593,-0.6396605372428894,-0.7685801386833191,79.54418435949826,0.009003400802612305,116,0.0002121143,-0.00012281351,0.00024510331522281897,0.0008643132,-0.0005037933,0.0010004224266478773,0.0,0.0,0.0,0.0,3.958944320678711,115.83602142333984
1779210648.5882888,4.872354745864868,hold-xy,10500,16.021972991531243,0.0,0.0,0.0,0.014015405,0.002719584,0.0010278197,-0.0007700233,0.0012842699540605912,0,0,0.015043225,0.0019495606,0.037342716,-0.0064355130307376385,0.0015755421482026577,-0.638823390007019,-0.7693249583244324,79.4079601423878,0.0006132125854492188,117,0.0010278197,-0.0007700233,0.0012842699540605912,0.0018557198,-0.0013450059,0.0022918850500468603,0.0,0.0,0.0,0.0,3.958944320678711,115.83088684082031
1779210648.6946852,4.978751182556152,hold-xy,12500,19.073777370870527,0.0,0.0,0.0,0.014015405,0.002719584,0.0010652104,-0.0007783936,0.0013193065657765878,0,0,0.015080616,0.0019411903,0.037327472,-0.0068026320077478886,0.0018680464709177613,-0.6387845277786255,-0.7693533301353455,79.4021785043976,0.013798713684082031,118,0.0010652104,-0.0007783936,0.0013193065657765878,0.0014193462,-0.00096844387,0.001718262834011994,0.0,0.0,0.0,0.0,3.943108558654785,115.86211395263672
1779210648.7832828,5.0673487186431885,hold-xy,12500,19.073777370870527,0.0,0.0,0.0,0.014015405,0.002719584,0.0010956889,-0.00080358004,0.0013587770385191636,0,0,0.015111094,0.0019160039,0.037370868,-0.007222984451800585,0.004000108689069748,-0.6388948559761047,-0.7692497968673706,79.4195212700288,0.014035701751708984,119,0.0010956889,-0.00080358004,0.0013587770385191636,0.0010970222,-0.0007634233,0.0013365151823903855,0.0,0.0,0.0,0.0,3.943108558654785,115.83123016357422
1779210648.865274,5.149339914321899,hold-xy,13000,19.83672846570535,0.0,0.0,0.0,0.014015405,0.002719584,0.0011085449,-0.0008176828,0.0013774893746666276,0,0,0.01512395,0.0019019011,0.03734411,-0.007638438604772091,0.0030699733179062605,-0.6387441158294678,-0.7693751454353333,79.39644329777387,0.012859582901000977,120,0.0011085449,-0.0008176828,0.0013774893746666276,0.00081428944,-0.00058526767,0.001002798860381673,0.0,0.0,0.0,0.0,3.9378299713134766,115.83150482177734
1779210648.969354,5.253419876098633,hold-xy,13000,19.83672846570535,0.0,0.0,0.0,0.014015405,0.002719584,0.0010978943,-0.0008462516,0.0013861866966773497,0,0,0.0151133,0.0018733323,0.03735541,-0.007597262039780617,0.00275185308419168,-0.6387564539909363,-0.7693665027618408,79.3981475944076,0.016830921173095703,121,0.0010978943,-0.0008462516,0.0013861866966773497,0.0005380855,-0.00049530074,0.0007313404319809481,0.0,0.0,0.0,0.0,3.932551383972168,115.74767303466797
1779210649.05105,5.335115909576416,hold-xy,13000,19.83672846570535,0.0,0.0,0.0,0.014015405,0.002719584,0.0011249632,-0.0008039968,0.0013827338680093958,0,0,0.015140369,0.0019155871,0.037407525,-0.007302829064428806,0.003042228054255247,-0.639016330242157,-0.7691525220870972,79.43704782645356,0.015705347061157227,122,0.0011249632,-0.0008039968,0.0013827338680093958,0.00047470993,-0.00019365335,0.0005126900926321405,0.0,0.0,0.0,0.0,3.932551383972168,115.6757583618164
1779210649.1945155,5.478581428527832,hold-xy,13000,19.83672846570535,0.0,0.0,0.0,0.014015405,0.002719584,0.0011098888,-0.0008285113,0.001385021278666601,0,0,0.015125294,0.0018910726,0.037353598,-0.007727626245468855,0.0026524902787059546,-0.6386744976043701,-0.7694336771965027,79.38587747074452,0.016618728637695312,123,0.0011098888,-0.0008285113,0.001385021278666601,0.000300573,-0.00018714796,0.00035407414669532886,0.0,0.0,0.0,0.0,3.932551383972168,115.67131042480469
1779210649.2566702,5.540736198425293,hold-xy,13000,19.83672846570535,0.0,0.0,0.0,0.014015405,0.002719584,0.0011121593,-0.00084670424,0.0013977862968543378,0,0,0.015127565,0.0018728797,0.037336085,-0.0074210939928889275,0.002233973704278469,-0.6387030482292175,-0.7694143056869507,79.39004036336136,0.014744281768798828,124,0.0011121593,-0.00084670424,0.0013977862968543378,0.00022103952,-0.00021624398,0.0003092247150906001,0.0,0.0,0.0,0.0,3.9378299713134766,115.65645599365234
1779210649.320117,5.604182958602905,hold-xy,13000,19.83672846570535,0.0,0.0,0.0,0.014015405,0.002719584,0.0010714689,-0.0008369114,0.0013595831127655104,0,0,0.015086874,0.0018826725,0.03732197,-0.007459626998752356,0.002327719470486045,-0.6387084722518921,-0.7694091796875,79.3908714015355,0.017111539840698242,125,0.0010714689,-0.0008369114,0.0013595831127655104,-4.512866e-05,-0.00010327187,0.00011270170924668289,0.0,0.0,0.0,0.0,3.932551383972168,115.66616821289062
1779210649.3812811,5.665347099304199,hold-xy,13000,19.83672846570535,0.0,0.0,0.0,0.014015405,0.002719584,0.0010975879,-0.00082093873,0.001370634715398795,0,0,0.015112993,0.0018986452,0.037317164,-0.0073818909004330635,0.0022084342781454325,-0.6387578248977661,-0.7693692445755005,79.39819748149618,0.005836963653564453,126,0.0010975879,-0.00082093873,0.001370634715398795,7.657976e-05,-6.1406754e-06,7.682556634032877e-05,0.0,0.0,0.0,0.0,3.932551383972168,115.66616821289062
1779210649.4825697,5.7666356563568115,hold-xy,13000,19.83672846570535,0.0,0.0,0.0,0.014015405,0.002719584,0.001112516,-0.0008021742,0.001371559485278912,0,0,0.0151279215,0.0019174097,0.0373858,-0.007692109327763319,0.004259631969034672,-0.6390289068222046,-0.7691326141357422,79.43957458427334,0.015824317932128906,127,0.001112516,-0.0008021742,0.001371559485278912,0.00010265723,5.7358502e-05,0.00011759465836288533,0.0,0.0,0.0,0.0,3.932551383972168,115.67166900634766
1779210649.5443022,5.828368186950684,hold-xy,13000,19.83672846570535,0.0,0.0,0.0,0.014015405,0.002719584,0.0010802858,-0.00083903666,0.001367844935495776,0,0,0.015095691,0.0018805473,0.03734457,-0.0074692838825285435,0.0023815438617020845,-0.6388183832168579,-0.769317626953125,79.40725789595248,0.005875825881958008,128,0.0010802858,-0.00083903666,0.001367844935495776,-6.303038e-05,-0.00011412607,0.0001303748024504674,0.0,0.0,0.0,0.0,3.932551383972168,115.67562866210938
1779210649.6492143,5.9332802295684814,hold-xy,13500,20.59967956054017,0.0,0.0,0.0,0.014015405,0.002719584,0.0010914402,-0.0008058576,0.0013567048722452047,0,0,0.015106846,0.0019137263,0.037366338,-0.00775817921385169,0.00290489150211215,-0.6387869119644165,-0.7693390846252441,79.40271879724045,0.01732611656188965,129,0.0010914402,-0.0008058576,0.0013567048722452047,-8.3169325e-06,2.6612222e-05,2.788156585552923e-05,0.0,0.0,0.0,0.0,3.9272727966308594,115.59420776367188
1779210649.7378886,6.021954536437988,hold-xy,13500,20.59967956054017,0.0,0.0,0.0,0.014015405,0.002719584,0.0011430467,-0.00080492627,0.0013980206803214288,0,0,0.015158452,0.0019146577,0.037372652,-0.007834306918084621,0.004380116239190102,-0.6390668153762817,-0.7690988183021545,79.44527686114375,0.018372058868408203,130,0.0011430467,-0.00080492627,0.0013980206803214288,0.00017085535,2.1816984e-05,0.0001722426453524444,0.0,0.0,0.0,0.0,3.932551383972168,115.57760620117188
1779210649.8201692,6.1042351722717285,hold-xy,14000,21.36263065537499,0.0,0.0,0.0,0.014015405,0.002719584,0.0010884712,-0.0008346208,0.0013716272451501643,0,0,0.015103877,0.0018849631,0.03737813,-0.008011074736714363,0.003488586051389575,-0.6386691331863403,-0.7694318294525146,79.38541467722727,0.007551908493041992,131,0.0010884712,-0.0008346208,0.0013716272451501643,-5.6260687e-05,-8.04132e-05,9.814044586926671e-05,0.0,0.0,0.0,0.0,3.9272727966308594,115.57063293457031
1779210649.9018414,6.185907363891602,hold-xy,14000,21.36263065537499,0.0,0.0,0.0,0.014015405,0.002719584,0.001083699,-0.0008127084,0.001354584300045509,0,0,0.0150991045,0.0019068755,0.037351433,-0.007887616753578186,0.003265752922743559,-0.6389744281768799,-0.7691805958747864,79.4307989029698,0.005390167236328125,132,0.001083699,-0.0008127084,0.001354584300045509,-5.6459445e-05,2.2124324e-05,6.063954634417911e-05,0.0,0.0,0.0,0.0,3.9272727966308594,115.57063293457031
1779210650.005606,6.289671897888184,hold-xy,14500,22.12558175020981,0.0,0.0,0.0,0.014015405,0.002719584,0.0010483302,-0.0008444898,0.0013461646303563244,0,0,0.015063736,0.0018750941,0.037373256,-0.007853291928768158,0.0033134811092168093,-0.6390554904937744,-0.7691133618354797,79.44290787412115,0.006789207458496094,133,0.0010483302,-0.0008444898,0.0013461646303563244,-0.00014317618,-7.765388e-05,0.0001628789213092322,0.0,0.0,0.0,0.0,3.921994209289551,115.48236846923828
1779210650.154239,6.438304901123047,hold-xy,15000,22.888532845044633,0.0,0.0,0.0,0.014015405,0.002719584,0.0010567987,-0.0008196905,0.0013374289477487461,0,0,0.015072204,0.0018998934,0.037385255,-0.007815885357558727,0.003135144943371415,-0.6391147375106812,-0.769065260887146,79.45165328476224,0.019481897354125977,134,0.0010567987,-0.0008196905,0.0013374289477487461,-8.153457e-05,3.7054997e-07,8.15354123375924e-05,0.0,0.0,0.0,0.0,3.921994209289551,115.38323974609375
1779210650.1948974,6.478963375091553,hold-xy,15000,22.888532845044633,0.0,0.0,0.0,0.014015405,0.002719584,0.001103946,-0.0008530766,0.0013951474622268235,0,0,0.015119351,0.0018665073,0.03738161,-0.007706148084253073,0.004127528518438339,-0.6393998861312866,-0.7688246965408325,79.49476160350908,0.016951799392700195,135,0.001103946,-0.0008530766,0.0013951474622268235,0.00027042406,-0.00023164955,0.00035607681092176337,0.0,0.0,0.0,0.0,3.921994209289551,115.38323974609375
1779210650.3038375,6.5879034996032715,hold-xy,15000,22.888532845044633,0.0,0.0,0.0,0.014015405,0.002719584,0.0010638442,-0.0008006012,0.0013314378336914427,0,0,0.01507925,0.0019189827,0.037400667,-0.0075923847034573555,0.004018539562821388,-0.6392266750335693,-0.7689703702926636,79.46889516927843,0.01996612548828125,136,0.0010638442,-0.0008006012,0.0013314378336914427,7.5721626e-05,-1.3535449e-05,7.692186382088936e-05,0.0,0.0,0.0,0.0,3.916715621948242,115.3326644897461
1779210650.3863797,6.670445680618286,hold-xy,15500,23.651483939879455,0.0,0.0,0.0,0.014015405,0.002719584,0.0010757083,-0.00085110264,0.001371686589272435,0,0,0.015091114,0.0018684813,0.037376102,-0.008220561780035496,0.0035947617143392563,-0.6389335989952087,-0.7692095637321472,79.42482414527048,0.020119428634643555,137,0.0010757083,-0.00085110264,0.001371686589272435,9.620558e-05,-0.00019336409,0.00021597496085323085,0.0,0.0,0.0,0.0,3.921994209289551,115.31318664550781
1779210650.4483016,6.732367515563965,hold-xy,15500,23.651483939879455,0.0,0.0,0.0,0.014015405,0.002719584,0.0010420103,-0.0008341861,0.0013347853025363796,0,0,0.015057416,0.0018853978,0.037378747,-0.00747207086533308,0.0030687691178172827,-0.6391655206680298,-0.7690267562866211,79.45925671813308,0.010703086853027344,138,0.0010420103,-0.0008341861,0.0013347853025363796,-7.436723e-05,-6.4215346e-05,9.825525584394657e-05,0.0,0.0,0.0,0.0,3.916715621948242,115.24816131591797
1779210650.5383325,6.82239842414856,hold-xy,16000,24.414435034714273,0.0,0.0,0.0,0.014015405,0.002719584,0.0010234229,-0.0008182791,0.0013103339782336533,0,0,0.015038828,0.0019013048,0.037344582,-0.0075846207328140736,0.004006453324109316,-0.639304518699646,-0.7689058184623718,79.48049032862133,0.017891645431518555,139,0.0010234229,-0.0008182791,0.0013103339782336533,-0.00011936805,1.2653814e-05,0.00012003687350658228,0.0,0.0,0.0,0.0,3.9114370346069336,115.2176284790039
1779210650.599564,6.883630037307739,hold-xy,16000,24.414435034714273,0.0,0.0,0.0,0.014015405,0.002719584,0.00092956796,-0.0007967807,0.0012243186132806629,0,0,0.014944973,0.0019228032,0.037324026,-0.007071174681186676,0.0025618167128413916,-0.6388018131256104,-0.7693345546722412,79.40492585906773,0.006288290023803711,140,0.00092956796,-0.0007967807,0.0012243186132806629,-0.00047013693,9.740752e-05,0.00048012183286920787,0.0,0.0,0.0,0.0,3.9114370346069336,115.2176284790039
1779210650.6811745,6.965240478515625,hold-xy,16500,25.177386129549095,0.0,0.0,0.0,0.014015405,0.002719584,0.0010102633,-0.0007873825,0.0012808603199034598,0,0,0.015025669,0.0019322014,0.037354216,-0.006685307249426842,0.002421504817903042,-0.6390978097915649,-0.7690926194190979,79.44903694826114,0.0062007904052734375,141,0.0010102633,-0.0007873825,0.0012808603199034598,-3.2777316e-05,0.00010269608,0.00010779998898661571,0.0,0.0,0.0,0.0,3.9114370346069336,115.16559600830078
1779210650.7828496,7.066915512084961,hold-xy,16500,25.177386129549095,0.0,0.0,0.0,0.014015405,0.002719584,0.0007898882,-0.0006679124,0.0010344227411415179,0,0,0.014805294,0.0020516715,0.037297543,-0.004712881986051798,0.003228787099942565,-0.6388130187988281,-0.7693407535552979,79.40729974895494,0.015622138977050781,142,0.0007898882,-0.0006679124,0.0010344227411415179,-0.00073958264,0.00046039224,0.0008711736581635291,0.0,0.0,0.0,0.0,3.906158447265625,115.10232543945312
1779210650.8649032,7.1489691734313965,hold-xy,17000,25.940337224383917,0.0,0.0,0.0,0.014015405,0.002719584,0.00055572763,-0.0004679896,0.0007265310861258963,0,0,0.014571133,0.0022515943,0.037336867,-0.0013398842420428991,0.006166560109704733,-0.63921719789505,-0.7690003514289856,79.47070976251493,0.0042362213134765625,143,0.00055572763,-0.0004679896,0.0007265310861258963,-0.001269511,0.000964153,0.001594129521768925,0.0,0.0,0.0,0.0,3.906158447265625,115.05852508544922
1779210650.9668298,7.250895738601685,hold-xy,17500,26.70328831921874,0.0,0.0,0.0,0.014015405,0.002719584,0.00040710345,-0.00042961817,0.0005918656830699772,0,0,0.014422509,0.0022899657,0.037353918,-0.00021697315969504416,0.009188847616314888,-0.6398965716362,-0.768406093120575,79.57696063330673,0.01185917854309082,144,0.00040710345,-0.00042961817,0.0005918656830699772,-0.001361463,0.00079697475,0.0015775773101514812,0.0,0.0,0.0,0.0,3.9008798599243164,115.04386901855469
1779210651.049454,7.33351993560791,hold-xy,17500,26.70328831921874,0.0,0.0,0.0,0.014015405,0.002719584,6.222259e-05,-5.2287243e-05,8.127488374812723e-05,0,0,0.014077628,0.0026672967,0.037238713,0.006525997072458267,0.010199571028351784,-0.6397719979286194,-0.7684693932533264,79.56147914003608,0.0026597976684570312,145,6.222259e-05,-5.2287243e-05,8.127488374812723e-05,-0.0020797963,0.0017906735,0.002744460611166622,0.0,0.0,0.0,0.0,3.895601272583008,115.00662994384766
1779210651.1516535,7.4357194900512695,hold-xy,18000,27.466239414053558,0.0,0.0,0.0,0.014015405,0.002719584,0.00042246655,-0.00043511298,0.0006064662446139267,0,0,0.014437872,0.002284471,0.037374042,-0.0005139103741385043,0.008465238846838474,-0.639690101146698,-0.7685860991477966,79.54479197555716,0.013293027877807617,146,0.00042246655,-0.00043511298,0.0006064662446139267,-0.00027558522,-7.8591984e-07,0.0002755863406179293,0.0,0.0,0.0,0.0,3.9008798599243164,115.00604248046875
1779210651.2535136,7.537579536437988,hold-xy,18500,28.22919050888838,0.0,0.0,0.0,0.014015405,0.002719584,0.00047772285,-0.00040360354,0.0006253918387545948,0,0,0.014493128,0.0023159804,0.03733167,-0.0005934081273153424,0.008173210546374321,-0.6391910314559937,-0.7690042853355408,79.46988557908404,0.01324772834777832,147,0.00047772285,-0.00040360354,0.0006253918387545948,-3.024016e-05,9.221076e-05,9.704273200623636e-05,0.0,0.0,0.0,0.0,3.895601272583008,114.969482421875
1779210651.3353565,7.619422435760498,hold-xy,18500,28.22919050888838,0.0,0.0,0.0,0.014015405,0.002719584,0.00014432427,-0.00012450479,0.0001906067540910341,0,0,0.01415973,0.0025950791,0.037284005,0.00413220701739192,0.010694306343793869,-0.6397521495819092,-0.7684957981109619,79.55935145327916,0.013178110122680664,148,0.00014432427,-0.00012450479,0.0001906067540910341,-0.0012422218,0.0010867311,0.001650484605005917,0.0,0.0,0.0,0.0,3.890322685241699,115.02751922607422
1779210651.423244,7.70730996131897,hold-xy,18500,28.22919050888838,0.0,0.0,0.0,0.014015405,0.002719584,0.00057973806,-0.00046347547,0.0007422302369174176,0,0,0.0145951435,0.0022561084,0.037353154,-0.0019412613473832607,0.006726859603077173,-0.6391159296035767,-0.7690786719322205,79.4562548686292,0.008059263229370117,149,0.00057973806,-0.00046347547,0.0007422302369174176,0.00053490925,-0.00033266726,0.0006299170012902108,0.0,0.0,0.0,0.0,3.890322685241699,114.99736022949219
1779210651.5078068,7.79187273979187,hold-xy,19000,28.9921416037232,0.0,0.0,0.0,0.014015405,0.002719584,0.0002929829,-0.00030709896,0.00042443934773954547,0,0,0.014308388,0.002412485,0.037377506,0.0014905614079907537,0.009838541969656944,-0.6399918794631958,-0.7683172821998596,79.59278811005139,0.0159609317779541,150,0.0002929829,-0.00030709896,0.00042443934773954547,-0.00074773026,0.00037908537,0.0008383354278626935,0.0,0.0,0.0,0.0,3.890322685241699,114.99581146240234
1779210651.5890846,7.873150587081909,hold-xy,19500,29.755092698558023,0.0,0.0,0.0,0.014015405,0.002719584,0.00023769308,-0.00020228047,0.00031211438248890047,0,0,0.0142530985,0.0025173035,0.037364572,0.0027221967466175556,0.010591111145913601,-0.6396539211273193,-0.7685852646827698,79.54424176543736,0.00424957275390625,151,0.00023769308,-0.00020228047,0.00031211438248890047,-0.00070178614,0.0006035232,0.0009256047028367548,0.0,0.0,0.0,0.0,3.890322685241699,114.99581146240234
1779210651.6710663,7.955132246017456,hold-xy,19500,29.755092698558023,0.0,0.0,0.0,0.014015405,0.002719584,0.00015340466,-0.00014201645,0.00020904942228259176,0,0,0.01416881,0.0025775675,0.037294436,0.004264713265001774,0.010680578649044037,-0.6396737694740295,-0.7685604691505432,79.54765295836124,0.00420832633972168,152,0.00015340466,-0.00014201645,0.00020904942228259176,-0.0007995365,0.00064288283,0.001025941990468562,0.0,0.0,0.0,0.0,3.879765510559082,114.98687744140625
1779210651.7554185,8.03948450088501,hold-xy,19500,29.755092698558023,0.0,0.0,0.0,0.014015405,0.002719584,0.0002561612,-0.00024502352,0.00035447861947523253,0,0,0.014271567,0.0024745604,0.037339196,0.0024227818939834833,0.00998047273606062,-0.6400068998336792,-0.7683005332946777,79.59548621438908,0.013524532318115234,153,0.0002561612,-0.00024502352,0.00035447861947523253,-0.00014884677,3.818763e-05,0.00015366735187195875,0.0,0.0,0.0,0.0,3.879765510559082,114.92201232910156
1779210651.8207753,8.104841232299805,hold-xy,20000,30.518043793392845,0.0,0.0,0.0,0.014015405,0.002719584,0.0004066052,-0.0004098136,0.0005772997092503837,0,0,0.014422011,0.0023097703,0.037389237,-0.00032555643701925874,0.009093070402741432,-0.6398215293884277,-0.7684696912765503,79.56556726347347,0.006305694580078125,154,0.0004066052,-0.0004098136,0.0005772997092503837,0.0005176859,-0.00065444864,0.0008344469749677939,0.0,0.0,0.0,0.0,3.879765510559082,114.83070373535156
1779210651.9233837,8.207449674606323,hold-xy,20500,31.280994888227664,0.0,0.0,0.0,0.014015405,0.002719584,0.0005117208,-0.00040414557,0.0006520673169083416,0,0,0.014527126,0.0023154384,0.037355267,-0.0004948032437823713,0.006795452442020178,-0.6390199661254883,-0.7691599726676941,79.44228579897523,0.003554105758666992,155,0.0005117208,-0.00040414557,0.0006520673169083416,0.0006616841,-0.00044197502,0.0007957183912816535,0.0,0.0,0.0,0.0,3.8744869232177734,114.7453384399414
1779210652.0072415,8.29130744934082,hold-xy,20500,31.280994888227664,0.0,0.0,0.0,0.014015405,0.002719584,0.00028503966,-0.0002615992,0.0003868872432678889,0,0,0.014300445,0.0024579847,0.03735327,0.0020735443104058504,0.010089241899549961,-0.6395664215087891,-0.7686668634414673,79.52997985238666,0.004364013671875,156,0.00028503966,-0.0002615992,0.0003868872432678889,-0.00035567832,0.00020554836,0.0004108006775326907,0.0,0.0,0.0,0.0,3.8744869232177734,114.74193572998047
1779210652.0930507,8.377116680145264,hold-xy,21000,32.043945983062486,0.0,0.0,0.0,0.014015405,0.002719584,0.0003750408,-0.00034021912,0.0005063641585447134,0,0,0.014390446,0.0023793648,0.03734627,0.0010625419672578573,0.007819020189344883,-0.639058530330658,-0.7691175937652588,79.44982294795031,0.006142854690551758,157,0.0003750408,-0.00034021912,0.0005063641585447134,7.2341645e-05,-0.00013680007,0.00015475003332359578,0.0,0.0,0.0,0.0,3.8744869232177734,114.74193572998047
1779210652.1954226,8.479488611221313,hold-xy,21500,32.806897077897304,0.0,0.0,0.0,0.014015405,0.002719584,0.0005414346,-0.00041655684,0.0006831332621095116,0,0,0.01455684,0.002303027,0.03736754,-0.0009014623356051743,0.006540345028042793,-0.6390439867973328,-0.7691418528556824,79.44545275454549,0.005478858947753906,158,0.0005414346,-0.00041655684,0.0006831332621095116,0.00053511234,-0.00031802538,0.0006224832415412907,0.0,0.0,0.0,0.0,3.869208335876465,114.77597045898438
1779210652.2807863,8.564852237701416,hold-xy,21500,32.806897077897304,0.0,0.0,0.0,0.014015405,0.002719584,0.0005724523,-0.0004310771,0.0007166094684906317,0,0,0.014587858,0.0022885068,0.0373694,-0.0011253239354118705,0.006071341689676046,-0.6388509273529053,-0.7693057656288147,79.41605370882905,0.0006666183471679688,159,0.0005724523,-0.0004310771,0.0007166094684906317,0.00047776932,-0.0002709242,0.0005492389975418709,0.0,0.0,0.0,0.0,3.8639297485351562,114.775390625
1779210652.3828816,8.666947603225708,hold-xy,22000,33.56984817273213,0.0,0.0,0.0,0.014015405,0.002719584,0.00042092334,-0.0002988209,0.0005162077182737964,0,0,0.014436329,0.002420763,0.037376374,0.0011355465976521373,0.007901037111878395,-0.6391143798828125,-0.7690702676773071,79.45829111906474,0.010130167007446289,160,0.00042092334,-0.0002988209,0.0005162077182737964,-0.00015630753,0.00023868166,0.0002853085763367934,0.0,0.0,0.0,0.0,3.8639297485351562,114.68544006347656
1779210652.6766474,8.960713386535645,hold-xy,23000,35.09575036240177,0.0,0.0,0.0,0.014015405,0.002719584,0.0005215155,-0.00040366175,0.0006594855715169948,0,0,0.014536921,0.0023159222,0.03735266,-0.0007073936285451055,0.007388580124825239,-0.6390816569328308,-0.7691030502319336,79.45230986951634,0.0008790493011474609,161,0.0005215155,-0.00040366175,0.0006594855715169948,-9.824638e-06,6.328013e-05,6.403825990536475e-05,0.0,0.0,0.0,0.0,3.853372573852539,114.74939727783203
1779210652.7606652,9.044731140136719,hold-xy,23000,35.09575036240177,0.0,0.0,0.0,0.014015405,0.002719584,0.0006396016,-0.00048608426,0.0008033480678120641,0,0,0.014655007,0.0022334997,0.037347768,-0.002519202884286642,0.006708956323564053,-0.639123797416687,-0.7690705060958862,79.45729771929055,0.013422012329101562,162,0.0006396016,-0.00048608426,0.0008033480678120641,0.00048876373,-0.00030165463,0.0005743565921278742,0.0,0.0,0.0,0.0,3.8480939865112305,114.69050598144531
1779210652.821613,9.105679035186768,hold-xy,23500,35.85870145723659,0.0,0.0,0.0,0.014015405,0.002719584,0.0006137006,-0.00044901762,0.0007604243874420506,0,0,0.014629106,0.0022705663,0.03735162,-0.0020136930979788303,0.006654076743870974,-0.6391375064849854,-0.7690610289573669,79.45935692929378,0.0012142658233642578,163,0.0006137006,-0.00044901762,0.0007604243874420506,0.00023591856,-5.915365e-05,0.0002432215422917293,0.0,0.0,0.0,0.0,3.8480939865112305,114.60587310791016
1779210652.9124496,9.196515560150146,hold-xy,23500,35.85870145723659,0.0,0.0,0.0,0.014015405,0.002719584,0.00012812763,-6.435532e-05,0.00014338165215582168,0,0,0.014143533,0.0026552286,0.03733008,0.004776695743203163,0.010284531861543655,-0.6395606994628906,-0.7686569690704346,79.52996742131937,0.00712895393371582,164,0.00012812763,-6.435532e-05,0.00014338165215582168,-0.0015502214,0.0013174738,0.0020344344390044577,0.0,0.0,0.0,0.0,3.842815399169922,114.61019134521484
1779210652.9951313,9.279197216033936,hold-xy,24000,36.62165255207141,0.0,0.0,0.0,0.014015405,0.002719584,-0.0001095552,6.0948543e-05,0.00012536772614664407,0,0,0.01390585,0.0027805325,0.03724254,0.007677847519516945,0.008791668340563774,-0.640781581401825,-0.7676345109939575,79.70918223330506,0.01769566535949707,165,-0.0001095552,6.0948543e-05,0.00012536772614664407,-0.0020739217,0.0014434989,0.002526824125726704,0.0,0.0,0.0,0.0,3.842815399169922,114.61019134521484
1779210653.0769572,9.361023187637329,hold-xy,24000,36.62165255207141,0.0,0.0,0.0,0.014015405,0.002719584,0.00014993362,-6.893603e-05,0.00016502202276111197,0,0,0.014165339,0.002650648,0.037291363,0.002924885367974639,0.006699061952531338,-0.6408420205116272,-0.767638087272644,79.71427695770058,0.006020545959472656,166,0.00014993362,-6.893603e-05,0.00016502202276111197,-0.00061917043,0.00059371215,0.0008578264030688709,0.0,0.0,0.0,0.0,3.8375368118286133,114.5735855102539
1779210653.165787,9.44985294342041,hold-xy,24000,36.62165255207141,0.0,0.0,0.0,0.014015405,0.002719584,0.00011271518,-8.761557e-05,0.00014276273656230648,0,0,0.014128121,0.0026319684,0.03731603,0.002362788189202547,0.006230659782886505,-0.641232430934906,-0.7673177719116211,79.77186044276338,0.008511781692504883,167,0.00011271518,-8.761557e-05,0.00014276273656230648,-0.00056274206,0.00035069283,0.0006630717308270692,0.0,0.0,0.0,0.0,3.8375368118286133,114.48545837402344
1779210653.2685404,9.552606344223022,hold-xy,25000,38.147554741741054,0.0,0.0,0.0,0.014015405,0.002719584,0.00042651873,-0.0003187058,0.0005324392939567098,0,0,0.014441924,0.0024008781,0.03738447,-0.0033440266270190477,0.007158986758440733,-0.6415488719940186,-0.7670415043830872,79.81959165069262,0.019265174865722656,168,0.00042651873,-0.0003187058,0.0005324392939567098,0.000629353,-0.00050807005,0.000808838886105614,0.0,0.0,0.0,0.0,3.8375368118286133,114.4276351928711
1779210653.3504245,9.634490489959717,hold-xy,25000,38.147554741741054,0.0,0.0,0.0,0.014015405,0.002719584,0.00037162472,-0.00027960562,0.00046506368915044763,0,0,0.01438703,0.0024399783,0.037367992,-0.0019371729576960206,0.006916329730302095,-0.641460120677948,-0.7671228051185608,79.80625329389603,0.009871244430541992,169,0.00037162472,-0.00027960562,0.00046506368915044763,0.0002601291,-0.00022714003,0.0003453400325549012,0.0,0.0,0.0,0.0,3.826979637145996,114.46143341064453
1779210653.5159888,9.800054788589478,hold-xy,25500,38.91050583657587,0.0,0.0,0.0,0.014015405,0.002719584,0.00023861881,-0.00013191486,0.00027265447488465487,0,0,0.014254024,0.002587669,0.037322722,0.001238729222677648,0.006866981741040945,-0.6415334343910217,-0.7670633792877197,79.81759713170231,0.0010113716125488281,170,0.00023861881,-0.00013191486,0.00027265447488465487,-4.667249e-05,9.5021984e-05,0.00010586547562312874,0.0,0.0,0.0,0.0,3.8217010498046875,114.41941833496094
1779210653.5365155,9.820581436157227,hold-xy,25500,38.91050583657587,0.0,0.0,0.0,0.014015405,0.002719584,0.00057228934,-0.0003256863,0.0006584729677451332,0,0,0.014587695,0.0023938976,0.037394766,-0.0030685109086334705,0.005982736591249704,-0.6415732502937317,-0.767032265663147,79.82174813330862,0.011293172836303711,171,0.00057228934,-0.0003256863,0.0006584729677451332,0.009738209,-0.0056076967,0.011237391768849326,0.0,0.0,0.0,0.0,3.8217010498046875,114.41941833496094
1779210653.6027892,9.886855125427246,hold-xy,25500,38.91050583657587,0.0,0.0,0.0,0.014015405,0.002719584,0.0002808096,-5.7385303e-05,0.0002866131473544787,0,0,0.014296215,0.0026621986,0.037299465,0.0029037618078291416,0.005416328087449074,-0.6418781280517578,-0.7667821049690247,79.86732802322497,0.0031833648681640625,172,0.0002808096,-5.7385303e-05,0.0002866131473544787,0.005641164,-0.0028432887,0.006317200291835249,0.0,0.0,0.0,0.0,3.8217010498046875,114.3463134765625
1779210653.7059078,9.989973783493042,hold-xy,25500,38.91050583657587,0.0,0.0,0.0,0.014015405,0.002719584,0.00015170034,9.4143674e-05,0.00017853857733958443,0,0,0.014167106,0.0028137276,0.03724384,0.005028235726058483,0.006843840703368187,-0.6420292258262634,-0.7666330933570862,79.89196969655305,0.009983301162719727,173,0.00015170034,9.4143674e-05,0.00017853857733958443,0.0035466834,-0.0015183408,0.003858020463844681,0.0,0.0,0.0,0.0,3.8217010498046875,114.34822845458984
1779210653.8080592,10.092125177383423,hold-xy,26000,39.6734569314107,0.0,0.0,0.0,0.014015405,0.002719584,0.0005472312,-0.0003461321,0.0006475101417397057,0,0,0.014562637,0.0023734518,0.03740416,-0.0033977371640503407,0.006856274325400591,-0.6420500874519348,-0.7666245102882385,79.894061400504,0.009427309036254883,174,0.0005472312,-0.0003461321,0.0006475101417397057,0.0036379918,-0.0023488486,0.004330366559368532,0.0,0.0,0.0,0.0,3.816422462463379,114.37010192871094
1779210653.8902564,10.174322366714478,hold-xy,26000,39.6734569314107,0.0,0.0,0.0,0.014015405,0.002719584,0.0003475407,-0.00014399574,0.00037619054012955137,0,0,0.014362946,0.0025755882,0.03731999,0.0009188302792608738,0.00664891954511404,-0.6426300406455994,-0.7661471962928772,79.98116480679924,0.01894211769104004,175,0.0003475407,-0.00014399574,0.00037619054012955137,0.0017223624,-0.0008098665,0.0019032645608276126,0.0,0.0,0.0,0.0,3.816422462463379,114.37010192871094
1779210653.9566433,10.24070930480957,hold-xy,26000,39.6734569314107,0.0,0.0,0.0,0.014015405,0.002719584,0.00014925096,9.392854e-05,0.0001763474406938803,0,0,0.014164656,0.0028135125,0.037231993,0.004678164143115282,0.007522204890847206,-0.642485499382019,-0.7662466764450073,79.96124620689949,0.004972219467163086,176,0.00014925096,9.392854e-05,0.0001763474406938803,0.00046536903,0.0003213475,0.0005655373881037799,0.0,0.0,0.0,0.0,3.816422462463379,114.38665008544922
1779210654.0424058,10.32647180557251,hold-xy,26500,40.436408026245516,0.0,0.0,0.0,0.014015405,0.002719584,0.00020113308,-6.39339e-05,0.0002110498967782721,0,0,0.0142165385,0.00265565,0.037284154,0.0030031632632017136,0.007999547757208347,-0.6428059935569763,-0.7659813761711121,80.00984069199218,0.016585350036621094,177,0.00020113308,-6.39339e-05,0.0002110498967782721,0.0005356675,-0.0004137504,0.0006768523321680522,0.0,0.0,0.0,0.0,3.816422462463379,114.3397445678711
1779210654.1238978,10.407963752746582,hold-xy,26500,40.436408026245516,0.0,0.0,0.0,0.014015405,0.002719584,0.00014458969,2.251612e-05,0.00014633234670789538,0,0,0.014159995,0.0027421,0.037223388,0.005025452468544245,0.007463947869837284,-0.6429070830345154,-0.7658913731575012,80.02423116537886,0.020176172256469727,178,0.00014458969,2.251612e-05,0.00014633234670789538,0.00015721665,4.3296866e-05,0.00016306959374328236,0.0,0.0,0.0,0.0,3.8111438751220703,114.41372680664062
1779210654.1857476,10.469813585281372,hold-xy,27000,41.19935912108034,0.0,0.0,0.0,0.014015405,0.002719584,0.00014995784,3.7371647e-05,0.0001545444650361227,0,0,0.014165363,0.0027569556,0.03722446,0.004970749374479055,0.00763358548283577,-0.642787754535675,-0.765990138053894,80.00665975980282,0.009886980056762695,179,0.00014995784,3.7371647e-05,0.0001545444650361227,0.0001323758,9.208655e-05,0.00016125534055865827,0.0,0.0,0.0,0.0,3.8111438751220703,114.41372680664062
1779210654.2887354,10.572801351547241,hold-xy,27500,41.96231021591516,0.0,0.0,0.0,0.014015405,0.002719584,0.00020714477,2.7407892e-05,0.00020895010767489112,0,0,0.01422255,0.0027469918,0.037259955,0.004503757227212191,0.006466253194957972,-0.6429569125175476,-0.7658618092536926,80.03010777629082,0.00916433334350586,180,0.00020714477,2.7407892e-05,0.00020895010767489112,0.000258086,3.5638728e-05,0.0002605350182088828,0.0,0.0,0.0,0.0,3.8058650493621826,114.45531463623047
1779210654.3774948,10.661560773849487,hold-xy,27500,41.96231021591516,0.0,0.0,0.0,0.014015405,0.002719584,0.0002858285,-0.00015465217,0.00032498495574004007,0,0,0.014301234,0.0025649318,0.037297446,0.002479114104062319,0.006200294476002455,-0.6435035467147827,-0.7654139995574951,80.11141156614994,0.02122950553894043,181,0.0002858285,-0.00015465217,0.00032498495574004007,0.00048844225,-0.0006872056,0.000843105776731684,0.0,0.0,0.0,0.0,3.8058650493621826,114.41773986816406
1779210654.6013448,10.885410785675049,hold-xy,28000,42.72526131074998,0.0,0.0,0.0,0.014015405,0.002719584,-6.828923e-05,0.00016281754,0.0001765586870791624,0,0,0.013947116,0.0028824015,0.0371463,0.007741869892925024,0.005387448705732822,-0.6437870860099792,-0.7651465535163879,80.15295341866465,0.016042709350585938,182,-6.828923e-05,0.00016281754,0.0001765586870791624,-0.00012192555,-6.5211556e-05,0.00013826925498327123,0.0,0.0,0.0,0.0,3.7953078746795654,114.33953094482422
1779210654.642801,10.926867008209229,hold-xy,28000,42.72526131074998,0.0,0.0,0.0,0.014015405,0.002719584,0.00060939137,-0.0003342866,0.0006950577953266369,0,0,0.014624797,0.0023852973,0.03737323,-0.0024193585850298405,0.0071878693997859955,-0.6428794860839844,-0.7659298181533813,80.01875067354959,0.007015228271484375,183,0.00060939137,-0.0003342866,0.0006950577953266369,0.003941777,-0.0029996955,0.004953360529957027,0.0,0.0,0.0,0.0,3.7953078746795654,114.21427917480469
1779210654.7446022,11.02866816520691,hold-xy,28500,43.488212405584804,0.0,0.0,0.0,0.014015405,0.002719584,0.00063428003,-0.00045191497,0.000778805702207001,0,0,0.0146496855,0.002267669,0.037460625,-0.004434221889823675,0.009312366135418415,-0.6440804600715637,-0.7648882269859314,80.20164689415547,0.0064945220947265625,184,0.00063428003,-0.00045191497,0.000778805702207001,0.0028322157,-0.0024446645,0.003741367415487103,0.0,0.0,0.0,0.0,3.7953078746795654,114.1069107055664
1779210654.8468792,11.130945205688477,hold-xy,28500,43.488212405584804,0.0,0.0,0.0,0.014015405,0.002719584,0.00065721106,-0.00041059311,0.0007749277965856889,0,0,0.0146726165,0.0023089908,0.037495047,-0.004764588084071875,0.009045441634953022,-0.6435874104499817,-0.7653043270111084,80.12722028679468,0.0063397884368896484,185,0.00065721106,-0.00041059311,0.0007749277965856889,0.002049711,-0.0015902425,0.002594260244184096,0.0,0.0,0.0,0.0,3.790029287338257,114.09342193603516
1779210654.9280262,11.212092161178589,hold-xy,29000,44.25116350041962,0.0,0.0,0.0,0.014015405,0.002719584,0.00083884876,-0.00049607456,0.0009745548914312378,0,0,0.014854254,0.0022235094,0.03745016,-0.004764609970152378,0.009788685478270054,-0.6435279250144958,-0.7653452157974243,80.11970817284904,0.00609588623046875,186,0.00083884876,-0.00049607456,0.0009745548914312378,0.0021042994,-0.0014282473,0.0025432196442909064,0.0,0.0,0.0,0.0,3.790029287338257,114.00601959228516
1779210655.0306027,11.314668655395508,hold-xy,29000,44.25116350041962,0.0,0.0,0.0,0.014015405,0.002719584,0.00086873583,-0.0004703058,0.0009878712063345696,0,0,0.014884141,0.0022492781,0.037466116,-0.004941710736602545,0.009058050811290741,-0.6435421705245972,-0.76534104347229,80.12042214792264,0.01692509651184082,187,0.00086873583,-0.0004703058,0.0009878712063345696,0.0015707358,-0.00091551314,0.001818069156491297,0.0,0.0,0.0,0.0,3.7847506999969482,113.93856811523438
