wall_time_s,elapsed_s,mode,thrust_raw,thrust_percent,roll_cmd_deg,pitch_cmd_deg,yawrate_cmd_deg_s,target_x,target_y,target_error_x_m,target_error_y_m,target_error_m,xy_control_active,figure8_active,mocap_x,mocap_y,mocap_z,mocap_qx,mocap_qy,mocap_qz,mocap_qw,yaw_deg,mocap_age_s,mocap_frame_count,drift_x_m,drift_y_m,horizontal_drift_m,velocity_x_m_s,velocity_y_m_s,horizontal_speed_m_s,body_error_x_m,body_error_y_m,body_velocity_x_m_s,body_velocity_y_m_s,battery_v,estimate_z
1779210471.7187781,0.0005564689636230469,hold-xy,0,0.0,0.0,0.0,0.0,0.0061342753,0.0057141846,0.0,0.0,0.0,0,0,0.0061342753,0.0057141846,0.03715757,0.007726565469056368,0.006335183512419462,-0.6298300623893738,-0.7766687870025635,78.07987373588266,0.03992629051208496,53,0.0,0.0,0.0,0.0,0.0,0.0,0.0,0.0,0.0,0.0,4.03812313079834,115.52714538574219
1779210471.7829978,0.06477618217468262,hold-xy,0,0.0,0.0,0.0,0.0,0.0061342753,0.0057141846,-7.4055046e-05,-0.000107755885,0.0001307496867556633,0,0,0.0060602203,0.0056064287,0.037289187,0.006005764473229647,0.008776074275374413,-0.6308442950248718,-0.7758365273475647,78.23367817492033,0.010118484497070312,54,-7.4055046e-05,-0.000107755885,0.0001307496867556633,-0.00023627673,-0.00034380113,0.0004171641327817422,0.0,0.0,0.0,0.0,4.03812313079834,115.52505493164062
1779210471.8648996,0.14667797088623047,hold-xy,0,0.0,0.0,0.0,0.0,0.0061342753,0.0057141846,-7.004477e-05,-0.00011672452,0.00013612818772888236,0,0,0.0060642306,0.00559746,0.037214816,0.005423621740192175,0.011355796828866005,-0.6307427883148193,-0.7758899331092834,78.22429210430131,0.01894378662109375,55,-7.004477e-05,-0.00011672452,0.00013612818772888236,-0.00014893037,-0.00027747964,0.00031492094747879095,0.0,0.0,0.0,0.0,4.03812313079834,115.52505493164062
1779210471.9459605,0.2277388572692871,hold-xy,0,0.0,0.0,0.0,0.0,0.0061342753,0.0057141846,3.1316653e-05,1.8973835e-05,3.661610404340265e-05,0,0,0.006165592,0.0057331584,0.03719953,0.007501843851059675,0.006076326128095388,-0.6298345327377319,-0.7766693234443665,78.08015539598028,0.018509864807128906,56,3.1316653e-05,1.8973835e-05,3.661610404340265e-05,0.00026888205,0.00030529924,0.0004068232843241533,0.0,0.0,0.0,0.0,4.03812313079834,115.54109954833984
1779210472.027337,0.3091154098510742,hold-xy,0,0.0,0.0,0.0,0.0,0.0061342753,0.0057141846,-2.5149435e-05,-2.179807e-05,3.3281375748957334e-05,0,0,0.006109126,0.0056923865,0.03721979,0.0067283823154866695,0.007960237562656403,-0.6299918293952942,-0.7765317559242249,78.10636805215518,0.018627166748046875,57,-2.5149435e-05,-2.179807e-05,3.3281375748957334e-05,-2.0249005e-05,6.31842e-05,6.634956834093096e-05,0.0,0.0,0.0,0.0,4.03812313079834,115.53824615478516
1779210472.0891838,0.37096214294433594,hold-xy,0,0.0,0.0,0.0,0.0,0.0061342753,0.0057141846,-8.827075e-06,-1.7567538e-05,1.9660509577107942e-05,0,0,0.0061254483,0.005696617,0.03722954,0.006988060660660267,0.0076760174706578255,-0.6298972964286804,-0.7766090035438538,78.09193207449299,0.006968498229980469,58,-8.827075e-06,-1.7567538e-05,1.9660509577107942e-05,5.2442676e-05,6.149515e-05,8.082009326490088e-05,0.0,0.0,0.0,0.0,4.03812313079834,115.56381225585938
1779210472.1727936,0.4545719623565674,hold-xy,0,0.0,0.0,0.0,0.0,0.0061342753,0.0057141846,1.2333505e-05,5.7099387e-06,1.3591127263905664e-05,0,0,0.006146609,0.0057198945,0.03718985,0.007408673409372568,0.0064497580751776695,-0.6298065781593323,-0.776689887046814,78.0765765197709,0.016622304916381836,59,1.2333505e-05,5.7099387e-06,1.3591127263905664e-05,0.00012254703,0.0001374709,0.00018416303583301707,0.0,0.0,0.0,0.0,4.03812313079834,115.56381225585938
1779210472.2549086,0.536686897277832,hold-xy,0,0.0,0.0,0.0,0.0,0.0061342753,0.0057141846,2.3169443e-05,9.631272e-06,2.5091522386023464e-05,0,0,0.006157445,0.005723816,0.037195522,0.007591549307107925,0.006062230560928583,-0.6298500299453735,-0.7766560316085815,78.08242208275217,0.017192602157592773,60,2.3169443e-05,9.631272e-06,2.5091522386023464e-05,0.00012564799,0.00011065608,0.0001674281527997805,0.0,0.0,0.0,0.0,4.03812313079834,115.5018539428711
1779210472.3569393,0.6387176513671875,hold-xy,0,0.0,0.0,0.0,0.0,0.0061342753,0.0057141846,-1.712609e-05,3.9446168e-06,1.7574498306889023e-05,0,0,0.0061171493,0.005718129,0.03719926,0.007179676089435816,0.007195525802671909,-0.629956841468811,-0.7765636444091797,78.09991331386807,0.017774343490600586,61,-1.712609e-05,3.9446168e-06,1.7574498306889023e-05,-3.120637e-05,6.064296e-05,6.82012197191598e-05,0.0,0.0,0.0,0.0,4.03812313079834,115.48766326904297
1779210472.4380338,0.7198121547698975,hold-xy,0,0.0,0.0,0.0,0.0,0.0061342753,0.0057141846,-4.8568472e-05,-2.018921e-05,5.25975340122767e-05,0,0,0.006085707,0.0056939954,0.037230052,0.006158681120723486,0.009120718576014042,-0.6301674246788025,-0.776381254196167,78.1344456667072,0.017899513244628906,62,-4.8568472e-05,-2.018921e-05,5.25975340122767e-05,-0.00013834184,-4.6968325e-05,0.00014609753195401982,0.0,0.0,0.0,0.0,4.03812313079834,115.49192810058594
1779210472.541818,0.8235962390899658,hold-xy,0,0.0,0.0,0.0,0.0,0.0061342753,0.0057141846,-4.775077e-05,-9.992346e-05,0.0001107467131853445,0,0,0.0060865246,0.005614261,0.03722845,0.006612887140363455,0.007882144302129745,-0.6306174397468567,-0.7760255932807922,78.19856351227259,0.020201444625854492,63,-4.775077e-05,-9.992346e-05,0.0001107467131853445,-9.442201e-05,-0.00026858703,0.0002847007231762666,0.0,0.0,0.0,0.0,4.03812313079834,115.48941040039062
1779210472.6232443,0.9050226211547852,hold-xy,0,0.0,0.0,0.0,0.0,0.0061342753,0.0057141846,-2.5552697e-05,-4.501082e-06,2.5946100030083075e-05,0,0,0.0061087226,0.0057096835,0.037211,0.007315313443541527,0.006882072426378727,-0.6298217177391052,-0.7766748666763306,78.07947590330123,0.018790483474731445,64,-2.5552697e-05,-4.501082e-06,2.5946100030083075e-05,1.4296151e-05,0.00015756651,0.0001582137342113946,0.0,0.0,0.0,0.0,4.03812313079834,115.47251892089844
1779210472.7053125,0.9870908260345459,hold-xy,0,0.0,0.0,0.0,0.0,0.0061342753,0.0057141846,-4.9050897e-05,-3.1709205e-05,5.8407741115582754e-05,0,0,0.0060852244,0.0056824754,0.037181247,0.007425477262586355,0.006395863834768534,-0.629575252532959,-0.7768777012825012,78.04237435495511,0.008528947830200195,65,-4.9050897e-05,-3.1709205e-05,5.8407741115582754e-05,-6.634361e-05,2.1891268e-05,6.986202161922151e-05,0.0,0.0,0.0,0.0,4.03812313079834,115.496337890625
1779210472.8082216,1.0899999141693115,hold-xy,0,0.0,0.0,0.0,0.0,0.0061342753,0.0057141846,-1.1929311e-05,1.3933517e-05,1.834261068569481e-05,0,0,0.006122346,0.005728118,0.037222926,0.007690094877034426,0.0055796075612306595,-0.6298273801803589,-0.7766770124435425,78.07841586628906,0.019144296646118164,66,-1.1929311e-05,1.3933517e-05,1.834261068569481e-05,7.422288e-05,0.00016368518,0.00017972721879633556,0.0,0.0,0.0,0.0,4.03812313079834,115.47420501708984
1779210472.8894844,1.1712627410888672,hold-xy,0,0.0,0.0,0.0,0.0,0.0061342753,0.0057141846,9.885058e-06,4.2579602e-05,4.371197664294364e-05,0,0,0.0061441604,0.005756764,0.037196293,0.007590259425342083,0.006451523397117853,-0.6295930743217468,-0.776861310005188,78.04508898255283,0.008383750915527344,67,9.885058e-06,4.2579602e-05,4.371197664294364e-05,0.00012307176,0.00020796705,0.0002416546225581072,0.0,0.0,0.0,0.0,4.03812313079834,115.47189331054688
1779210472.9708467,1.2526249885559082,hold-xy,0,0.0,0.0,0.0,0.0,0.0061342753,0.0057141846,-6.314926e-05,-8.850172e-05,0.00010872158839388835,0,0,0.006071126,0.005625683,0.03725309,0.00651953462511301,0.008328083902597427,-0.6307167410850525,-0.7759410738945007,78.21403155161066,0.018255949020385742,68,-6.314926e-05,-8.850172e-05,0.00010872158839388835,-0.00022033013,-0.0004044912,0.0004606066619066018,0.0,0.0,0.0,0.0,4.03812313079834,115.47189331054688
1779210473.0520027,1.3337810039520264,hold-xy,0,0.0,0.0,0.0,0.0,0.0061342753,0.0057141846,7.616356e-06,-1.0983553e-05,1.3365900840657007e-05,0,0,0.0061418917,0.005703201,0.037223864,0.007274406496435404,0.006835865322500467,-0.6299093961715698,-0.7766044735908508,78.09233636579776,0.018230915069580078,69,7.616356e-06,-1.0983553e-05,1.3365900840657007e-05,0.00010727928,3.320194e-06,0.00010733064672499705,0.0,0.0,0.0,0.0,4.03812313079834,115.44530487060547
1779210473.1338801,1.4156584739685059,hold-xy,0,0.0,0.0,0.0,0.0,0.0061342753,0.0057141846,1.7193146e-05,2.8664712e-05,3.3425588150836776e-05,0,0,0.0061514685,0.0057428493,0.037201714,0.007805220317095518,0.005945861339569092,-0.6296299695968628,-0.7768333554267883,78.04979638239162,0.019157886505126953,70,1.7193146e-05,2.8664712e-05,3.3425588150836776e-05,0.00011058678,0.00014925936,0.00018576273086731785,0.0,0.0,0.0,0.0,4.03812313079834,115.44294738769531
1779210473.1958022,1.4775805473327637,hold-xy,0,0.0,0.0,0.0,0.0,0.0061342753,0.0057141846,2.5834888e-05,2.11671e-05,3.3398914356058405e-05,0,0,0.0061601102,0.0057353517,0.03715812,0.007988004945218563,0.005843461025506258,-0.6296946406364441,-0.7767797112464905,78.0591882511349,0.00880742073059082,71,2.5834888e-05,2.11671e-05,3.3398914356058405e-05,0.00011328222,7.3359304e-05,0.0001349609217233138,0.0,0.0,0.0,0.0,4.03812313079834,115.46173095703125
1779210473.2809997,1.5627779960632324,hold-xy,0,0.0,0.0,0.0,0.0,0.0061342753,0.0057141846,-8.360855e-05,-7.633399e-05,0.0001132133782903441,0,0,0.006050667,0.0056378506,0.03720596,0.0065290783531963825,0.008626672439277172,-0.6304272413253784,-0.776172935962677,78.17185442811723,0.009049177169799805,72,-8.360855e-05,-7.633399e-05,0.0001132133782903441,-0.00030717487,-0.00029294944,0.00042447115394750876,0.0,0.0,0.0,0.0,4.03812313079834,115.52561950683594
1779210473.3623035,1.6440818309783936,hold-xy,0,0.0,0.0,0.0,0.0,0.0061342753,0.0057141846,2.901163e-05,3.204262e-05,4.322504017469842e-05,0,0,0.006163287,0.005746227,0.037186116,0.0076163276098668575,0.006222066469490528,-0.6297345757484436,-0.7767480611801147,78.06561891082596,0.0193331241607666,73,2.901163e-05,3.204262e-05,4.322504017469842e-05,0.0002607043,0.00025273653,0.00036310120296855386,0.0,0.0,0.0,0.0,4.03812313079834,115.52561950683594
1779210473.4446733,1.7264516353607178,hold-xy,0,0.0,0.0,0.0,0.0,0.0061342753,0.0057141846,-1.1391938e-05,2.347771e-05,2.6095577440418313e-05,0,0,0.0061228834,0.0057376623,0.03717727,0.00765625387430191,0.006593748461455107,-0.6297897100448608,-0.776699960231781,78.07430882200218,0.00015497207641601562,74,-1.1391938e-05,2.347771e-05,2.6095577440418313e-05,6.313e-05,0.00015161252,0.00016423079136134317,0.0,0.0,0.0,0.0,4.03812313079834,115.5500259399414
1779210473.5461743,1.8279526233673096,hold-xy,0,0.0,0.0,0.0,0.0,0.0061342753,0.0057141846,-6.1085448e-06,1.845276e-05,1.9437558109046453e-05,0,0,0.006128167,0.0057326374,0.037195712,0.007407648488879204,0.006980735342949629,-0.6297010779380798,-0.7767708897590637,78.0618384566777,0.017520904541015625,75,-6.1085448e-06,1.845276e-05,1.9437558109046453e-05,6.302997e-05,8.8211316e-05,0.000108415925371327,0.0,0.0,0.0,0.0,4.03812313079834,115.5118408203125
1779210473.6482806,1.9300589561462402,hold-xy,0,0.0,0.0,0.0,0.0,0.0061342753,0.0057141846,-4.8505142e-05,-8.188747e-05,9.517513385965356e-05,0,0,0.00608577,0.005632297,0.03724949,0.006444162223488092,0.008744821883738041,-0.6304976940155029,-0.7761151790618896,78.18247820183183,0.016988277435302734,76,-4.8505142e-05,-8.188747e-05,9.517513385965356e-05,-7.9798636e-05,-0.00023153321,0.00024489885383046283,0.0,0.0,0.0,0.0,4.03812313079834,115.51165771484375
1779210473.7303417,2.012120008468628,hold-xy,500,0.762951094834821,0.0,0.0,0.0,0.0061342753,0.0057141846,1.8887222e-06,2.9819086e-05,2.9878841269006183e-05,0,0,0.006136164,0.0057440037,0.03718297,0.007891232147812843,0.005773934070020914,-0.6297072172164917,-0.7767710089683533,78.0609487164913,0.01738262176513672,77,1.8887222e-06,2.9819086e-05,2.9878841269006183e-05,0.00012926119,0.00024827715,0.0002799106973466757,0.0,0.0,0.0,0.0,4.03812313079834,115.51254272460938
1779210473.8162518,2.0980300903320312,hold-xy,500,0.762951094834821,0.0,0.0,0.0,0.0061342753,0.0057141846,6.03497e-07,3.0901283e-05,3.090717444075524e-05,0,0,0.006134879,0.005745086,0.03717984,0.007670861203223467,0.006494444329291582,-0.6295820474624634,-0.776868999004364,78.04352643625563,0.01987290382385254,78,6.03497e-07,3.0901283e-05,3.090717444075524e-05,8.586081e-05,0.00017768587,0.00019734321983382754,0.0,0.0,0.0,0.0,4.03812313079834,115.50511169433594
1779210473.907299,2.189077377319336,hold-xy,1000,1.525902189669642,0.0,0.0,0.0,0.0061342753,0.0057141846,-6.270595e-06,5.7462603e-07,6.296868560937267e-06,0,0,0.0061280048,0.005714759,0.037163768,0.007498647551983595,0.006542130373418331,-0.6297186017036438,-0.7767596244812012,78.0637394022648,0.01539301872253418,79,-6.270595e-06,5.7462603e-07,6.296868560937267e-06,3.8514703e-05,2.9140218e-05,4.8296320873392404e-05,0.0,0.0,0.0,0.0,4.03812313079834,115.47701263427734
1779210473.9884675,2.2702457904815674,hold-xy,1000,1.525902189669642,0.0,0.0,0.0,0.0061342753,0.0057141846,1.0291114e-05,3.3946708e-06,1.0836550602003003e-05,0,0,0.0061445665,0.0057175793,0.037183244,0.007517850957810879,0.006427123211324215,-0.6298766732215881,-0.7766321897506714,78.08688485630769,0.004849433898925781,80,1.0291114e-05,3.3946708e-06,1.0836550602003003e-05,8.113546e-05,2.9622828e-05,8.637404068653549e-05,0.0,0.0,0.0,0.0,4.03812313079834,115.44259643554688
1779210474.0902975,2.3720757961273193,hold-xy,1500,2.288853284504463,0.0,0.0,0.0,0.0061342753,0.0057141846,1.3586134e-05,2.7545728e-05,3.071400618207848e-05,0,0,0.0061478615,0.0057417303,0.03717433,0.007767162285745144,0.006117790471762419,-0.629734456539154,-0.7767475843429565,78.0654515511978,0.014681100845336914,81,1.3586134e-05,2.7545728e-05,3.071400618207848e-05,6.7539644e-05,9.949085e-05,0.00012024987435615247,0.0,0.0,0.0,0.0,4.03812313079834,115.46354675292969
1779210474.172056,2.453834295272827,hold-xy,2000,3.051804379339284,0.0,0.0,0.0,0.0061342753,0.0057141846,-1.4521182e-05,-2.0419247e-06,1.4664043474600544e-05,0,0,0.006119754,0.0057121427,0.03718566,0.007365369237959385,0.0068898978643119335,-0.6298834085464478,-0.7766242027282715,78.08858938197078,0.00419306755065918,82,-1.4521182e-05,-2.0419247e-06,1.4664043474600544e-05,-4.4131597e-05,-2.658004e-05,5.1517924047205555e-05,0.0,0.0,0.0,0.0,4.03812313079834,115.46354675292969
1779210474.274272,2.5560503005981445,hold-xy,2000,3.051804379339284,0.0,0.0,0.0,0.0061342753,0.0057141846,1.70134e-05,8.072704e-06,1.8831471793285266e-05,0,0,0.0061512887,0.0057222573,0.037200294,0.007703831419348717,0.005699506029486656,-0.6296171545982361,-0.7768465280532837,78.04756688125275,0.012594461441040039,83,1.70134e-05,8.072704e-06,1.8831471793285266e-05,6.994905e-05,1.3738492e-05,7.128545134020903e-05,0.0,0.0,0.0,0.0,4.03812313079834,115.44754028320312
1779210474.3370426,2.618820905685425,hold-xy,2000,3.051804379339284,0.0,0.0,0.0,0.0061342753,0.0057141846,2.832245e-05,6.867712e-05,7.428800816502072e-05,0,0,0.006162598,0.0057828617,0.037167046,0.007032554596662521,0.00869901292026043,-0.6296607255935669,-0.7767897248268127,78.05892410932168,0.0033490657806396484,84,2.832245e-05,6.867712e-05,7.428800816502072e-05,9.607491e-05,0.00026207927,0.0002791342598773103,0.0,0.0,0.0,0.0,4.03812313079834,115.45368194580078
1779210474.4188595,2.7006378173828125,hold-xy,2500,3.8147554741741057,0.0,0.0,0.0,0.0061342753,0.0057141846,-1.0392629e-05,-5.4570846e-06,1.1738249632219684e-05,0,0,0.0061238827,0.0057087275,0.037207432,0.007133641745895147,0.006889068987220526,-0.6299062967300415,-0.7766078114509583,78.09195944373342,0.0036163330078125,85,-1.0392629e-05,-5.4570846e-06,1.1738249632219684e-05,-7.517032e-05,-8.926507e-05,0.0001166997413004342,0.0,0.0,0.0,0.0,4.032844543457031,115.49400329589844
1779210474.5005238,2.782302141189575,hold-xy,3000,4.577706569008926,0.0,0.0,0.0,0.0061342753,0.0057141846,-6.231107e-05,-9.439606e-05,0.00011310740710512904,0,0,0.0060719643,0.0056197885,0.03722342,0.00681619206443429,0.008039894513785839,-0.6305109858512878,-0.7761087417602539,78.18314150062245,0.014256477355957031,86,-6.231107e-05,-9.439606e-05,0.00011310740710512904,-0.00027191822,-0.0004381561,0.0005156745851772262,0.0,0.0,0.0,0.0,4.03812313079834,115.51742553710938
1779210474.5825357,2.864314079284668,hold-xy,3000,4.577706569008926,0.0,0.0,0.0,0.0061342753,0.0057141846,-3.486313e-05,-9.1503374e-05,9.791989205915697e-05,0,0,0.006099412,0.005622681,0.037227042,0.006466282065957785,0.008043135516345501,-0.6306499242782593,-0.7759987711906433,78.20363859415495,0.014826059341430664,87,-3.486313e-05,-9.1503374e-05,9.791989205915697e-05,-8.923587e-05,-0.0002960538,0.00030921010061002853,0.0,0.0,0.0,0.0,4.03812313079834,115.51641845703125
1779210474.6645584,2.9463367462158203,hold-xy,3000,4.577706569008926,0.0,0.0,0.0,0.0061342753,0.0057141846,-4.836917e-05,-8.6743385e-05,9.931762885540397e-05,0,0,0.006085906,0.005627441,0.03723357,0.0067741903476417065,0.007845391519367695,-0.6306308507919312,-0.7760137915611267,78.20048943973734,0.004684925079345703,88,-4.836917e-05,-8.6743385e-05,9.931762885540397e-05,-0.00010642827,-0.00019174353,0.00021930015793039895,0.0,0.0,0.0,0.0,4.03812313079834,115.51641845703125
1779210474.7663388,3.048117160797119,hold-xy,3500,5.340657663843747,0.0,0.0,0.0,0.0061342753,0.0057141846,-5.3647906e-05,-6.102491e-05,8.125353840519345e-05,0,0,0.0060806274,0.0056531597,0.037262682,0.006407158449292183,0.008408598601818085,-0.6303269267082214,-0.7762578129768372,78.15662293428463,0.014398336410522461,89,-5.3647906e-05,-6.102491e-05,8.125353840519345e-05,-9.170053e-05,-5.0416907e-05,0.00010464631756986548,0.0,0.0,0.0,0.0,4.03812313079834,115.53443908691406
1779210474.8478742,3.129652500152588,hold-xy,3500,5.340657663843747,0.0,0.0,0.0,0.0061342753,0.0057141846,-6.6561624e-05,-0.00011106953,0.00012948702675770964,0,0,0.0060677137,0.005603115,0.03730806,0.00590386800467968,0.00850598607212305,-0.6308014988899231,-0.7758751511573792,78.22683252637404,0.01457834243774414,90,-6.6561624e-05,-0.00011106953,0.00012948702675770964,-0.00011181006,-0.00021983273,0.00024663315906275706,0.0,0.0,0.0,0.0,4.03812313079834,115.51618957519531
1779210474.9291995,3.210977792739868,hold-xy,3500,5.340657663843747,0.0,0.0,0.0,0.0061342753,0.0057141846,1.2770295e-05,-1.502689e-05,1.9720240017652584e-05,0,0,0.0061470456,0.0056991577,0.037175737,0.00750837754458189,0.006959807593375444,-0.6299933195114136,-0.7765330672264099,78.10492092712855,0.014518260955810547,91,1.2770295e-05,-1.502689e-05,1.9720240017652584e-05,0.00021416359,0.00020014624,0.00029312891649918967,0.0,0.0,0.0,0.0,4.032844543457031,115.49307250976562
1779210475.0100698,3.2918481826782227,hold-xy,3500,5.340657663843747,0.0,0.0,0.0,0.0061342753,0.0057141846,-2.6968308e-05,-1.4680438e-05,3.070512716474334e-05,0,0,0.006107307,0.005699504,0.037234712,0.006848196033388376,0.007515316363424063,-0.6301721334457397,-0.776388943195343,78.13220556172462,0.0030059814453125,92,-2.6968308e-05,-1.4680438e-05,3.070512716474334e-05,2.0868873e-05,0.00014122741,0.00014276096346361384,0.0,0.0,0.0,0.0,4.03812313079834,115.48273468017578
1779210475.1121514,3.3939297199249268,hold-xy,3500,5.340657663843747,0.0,0.0,0.0,0.0061342753,0.0057141846,2.0507723e-06,-4.8740767e-06,5.2879382058791815e-06,0,0,0.006136326,0.0057093105,0.03716101,0.007610576692968607,0.006425273139029741,-0.6296935081481934,-0.77677983045578,78.05986223384845,0.01307821273803711,93,2.0507723e-06,-4.8740767e-06,5.2879382058791815e-06,0.00010922608,0.00013083321,0.00017043375723777712,0.0,0.0,0.0,0.0,4.03812313079834,115.52826690673828
1779210475.1943877,3.476166009902954,hold-xy,3500,5.340657663843747,0.0,0.0,0.0,0.0061342753,0.0057141846,-8.1039965e-05,-0.000111636706,0.00013795009908080212,0,0,0.0060532354,0.005602548,0.037304033,0.005701071582734585,0.009538671001791954,-0.6308271884918213,-0.7758437395095825,78.23265903805122,0.003264188766479492,94,-8.1039965e-05,-0.000111636706,0.00013795009908080212,-0.00019434172,-0.0002563655,0.000321701701518324,0.0,0.0,0.0,0.0,4.03812313079834,115.52119445800781
1779210475.2986047,3.580383062362671,hold-xy,3500,5.340657663843747,0.0,0.0,0.0,0.0061342753,0.0057141846,-3.4334138e-05,-8.7989494e-05,9.445096056448932e-05,0,0,0.006099941,0.005626195,0.037258238,0.006647998932749033,0.007537997793406248,-0.6306238770484924,-0.7760235071182251,78.198918067681,0.015106439590454102,95,-3.4334138e-05,-8.7989494e-05,9.445096056448932e-05,1.5644473e-05,-0.000102658254,0.00010384347145649007,0.0,0.0,0.0,0.0,4.03812313079834,115.53040313720703
1779210475.3813348,3.6631131172180176,hold-xy,3500,5.340657663843747,0.0,0.0,0.0,0.0061342753,0.0057141846,1.8264167e-05,-1.3146084e-05,2.2503317785894897e-05,0,0,0.0061525395,0.0057010385,0.0371551,0.007848591543734074,0.0057509178295731544,-0.6298113465309143,-0.7766872644424438,78.07627987526287,0.016162633895874023,96,1.8264167e-05,-1.3146084e-05,2.2503317785894897e-05,0.00020415238,0.00020304999,0.0002879366087362653,0.0,0.0,0.0,0.0,4.03812313079834,115.54959106445312
1779210475.444966,3.7267444133758545,hold-xy,3500,5.340657663843747,0.0,0.0,0.0,0.0061342753,0.0057141846,-6.8835914e-05,-8.74633e-05,0.00011130234204920173,0,0,0.0060654394,0.0056267213,0.037196755,0.006853723432868719,0.007907118648290634,-0.6305089592933655,-0.7761114239692688,78.18260587243616,0.008041858673095703,97,-6.8835914e-05,-8.74633e-05,0.00011130234204920173,-0.00022126439,-0.00016859002,0.00027817355531215373,0.0,0.0,0.0,0.0,4.03812313079834,115.54959106445312
1779210475.5260255,3.8078038692474365,hold-xy,3500,5.340657663843747,0.0,0.0,0.0,0.0061342753,0.0057141846,1.4851801e-05,1.802994e-05,2.335925391811827e-05,0,0,0.006149127,0.0057322145,0.037132543,0.00754040339961648,0.0069013722240924835,-0.6297204494476318,-0.77675461769104,78.06457172195111,0.007816553115844727,98,1.4851801e-05,1.802994e-05,2.335925391811827e-05,0.00015398361,0.00027133393,0.00031198246292000954,0.0,0.0,0.0,0.0,4.03812313079834,115.55426788330078
1779210475.6073744,3.889152765274048,hold-xy,3500,5.340657663843747,0.0,0.0,0.0,0.0061342753,0.0057141846,-5.5557117e-05,-8.789729e-05,0.00010398330520822782,0,0,0.006078718,0.0056262873,0.037199646,0.006632824894040823,0.008416328579187393,-0.6305414438247681,-0.7760816216468811,78.18832188213248,0.007693290710449219,99,-5.5557117e-05,-8.789729e-05,0.00010398330520822782,-0.00015147399,-0.00020011573,0.00025097942591736314,0.0,0.0,0.0,0.0,4.032844543457031,115.54557037353516
1779210475.6912317,3.9730100631713867,hold-xy,3500,5.340657663843747,0.0,0.0,0.0,0.0061342753,0.0057141846,-5.0639734e-05,-2.4843495e-05,5.64055129117293e-05,0,0,0.0060836356,0.005689341,0.037227,0.006501808762550354,0.007988435216248035,-0.6301270127296448,-0.7764237523078918,78.12635355222803,0.00024580955505371094,100,-5.0639734e-05,-2.4843495e-05,5.64055129117293e-05,-8.9874746e-05,6.709479e-05,0.00011215694919260458,0.0,0.0,0.0,0.0,4.03812313079834,115.50846862792969
1779210475.7947679,4.0765461921691895,hold-xy,4000,6.103608758678568,0.0,0.0,0.0,0.0061342753,0.0057141846,-4.8177317e-06,-5.052425e-07,4.844151878521663e-06,0,0,0.0061294576,0.0057136794,0.037168596,0.007783698849380016,0.005771235562860966,-0.6299260854721069,-0.7765946388244629,78.0932353110566,0.012429952621459961,101,-4.8177317e-06,-5.052425e-07,4.844151878521663e-06,8.756717e-05,0.0001268932,0.00015417487707403238,0.0,0.0,0.0,0.0,4.032844543457031,115.4682388305664
1779210475.8757873,4.157565593719482,hold-xy,4000,6.103608758678568,0.0,0.0,0.0,0.0061342753,0.0057141846,-7.1218237e-06,-2.097804e-06,7.424362206198972e-06,0,0,0.0061271535,0.005712087,0.03719199,0.007526404224336147,0.006953320931643248,-0.6298317313194275,-0.7766640186309814,78.08107011625175,0.002312183380126953,102,-7.1218237e-06,-2.097804e-06,7.424362206198972e-06,5.371254e-05,8.3582934e-05,9.935363054399983e-05,0.0,0.0,0.0,0.0,4.032844543457031,115.4682388305664
1779210475.9778655,4.259643793106079,hold-xy,4500,6.866559853513389,0.0,0.0,0.0,0.0061342753,0.0057141846,-5.373731e-07,-6.4414926e-06,6.463868465900709e-06,0,0,0.006133738,0.005707743,0.03720541,0.007324675098061562,0.00737767992541194,-0.6296790242195129,-0.7767858505249023,78.05923603429437,0.011972188949584961,103,-5.373731e-07,-6.4414926e-06,6.463868465900709e-06,5.897266e-05,4.440794e-05,7.382302954120114e-05,0.0,0.0,0.0,0.0,4.032844543457031,115.58174133300781
1779210476.061977,4.34375524520874,hold-xy,5000,7.629510948348211,0.0,0.0,0.0,0.0061342753,0.0057141846,-5.127117e-05,-9.341631e-05,0.00010656143664376915,0,0,0.006083004,0.0056207683,0.037242197,0.006680372636765242,0.007816823199391365,-0.6305279731750488,-0.7760984301567078,78.18524370941878,0.0039136409759521484,104,-5.127117e-05,-9.341631e-05,0.00010656143664376915,-0.0001238503,-0.0002520049,0.000280794160307448,0.0,0.0,0.0,0.0,4.032844543457031,115.58174133300781
1779210476.1639807,4.445759057998657,hold-xy,5000,7.629510948348211,0.0,0.0,0.0,0.0061342753,0.0057141846,1.1763535e-05,2.6221387e-05,2.873920441579056e-05,0,0,0.006146039,0.005740406,0.037172467,0.008102556690573692,0.0057790204882621765,-0.6297050714492798,-0.7767705321311951,78.06063560235636,0.014713764190673828,105,1.1763535e-05,2.6221387e-05,2.873920441579056e-05,0.00012064742,0.00021712574,0.00024839361648250466,0.0,0.0,0.0,0.0,4.032844543457031,115.53413391113281
1779210476.2679517,4.549730062484741,hold-xy,5500,8.392462043183032,0.0,0.0,0.0,0.0061342753,0.0057141846,2.015382e-06,2.915319e-05,2.9222769947021212e-05,0,0,0.0061362907,0.005743338,0.037164897,0.007981477305293083,0.005742762237787247,-0.6296114325523376,-0.7768479585647583,78.04677622546228,0.015691041946411133,106,2.015382e-06,2.915319e-05,2.9222769947021212e-05,5.605878e-05,0.00016052776,0.0001700345536618239,0.0,0.0,0.0,0.0,4.032844543457031,115.50399017333984
1779210476.3493857,4.631164073944092,hold-xy,6000,9.155413138017853,0.0,0.0,0.0,0.0061342753,0.0057141846,-9.026378e-06,2.8753653e-05,3.013715460772181e-05,0,0,0.006125249,0.0057429383,0.03718695,0.0077064079232513905,0.005845974665135145,-0.6297537088394165,-0.7767347097396851,78.06790931220704,0.004644870758056641,107,-9.026378e-06,2.8753653e-05,3.013715460772181e-05,3.4223558e-06,0.00011107336,0.00011112606674088595,0.0,0.0,0.0,0.0,4.032844543457031,115.52275848388672
1779210476.431267,4.713045358657837,hold-xy,6000,9.155413138017853,0.0,0.0,0.0,0.0061342753,0.0057141846,-3.16035e-05,-5.6555495e-05,6.478661258388942e-05,0,0,0.006102672,0.005657629,0.03722982,0.006584192626178265,0.007893944159150124,-0.6302608847618103,-0.7763153910636902,78.14594811400777,0.004496574401855469,108,-3.16035e-05,-5.6555495e-05,6.478661258388942e-05,-8.017379e-05,-0.00023424276,0.00024758333089671384,0.0,0.0,0.0,0.0,4.027565956115723,115.46906280517578
1779210476.532591,4.814369440078735,hold-xy,6500,9.918364232852674,0.0,0.0,0.0,0.0061342753,0.0057141846,-1.2187287e-05,6.568618e-06,1.3844735544171113e-05,0,0,0.006122088,0.005720753,0.037165213,0.007518772501498461,0.007086087018251419,-0.6296142935752869,-0.7768391370773315,78.04920966295155,0.0034952163696289062,109,-1.2187287e-05,6.568618e-06,1.3844735544171113e-05,8.0322934e-07,2.1098764e-05,2.1114047589745202e-05,0.0,0.0,0.0,0.0,4.027565956115723,115.45756530761719
1779210476.634359,4.916137218475342,hold-xy,7000,10.681315327687495,0.0,0.0,0.0,0.0061342753,0.0057141846,1.5001744e-05,-5.5311248e-06,1.5988923393986393e-05,0,0,0.006149277,0.0057086535,0.03720741,0.0074635762721300125,0.006177618633955717,-0.6299507021903992,-0.7765746712684631,78.09743987567315,0.013978958129882812,110,1.5001744e-05,-5.5311248e-06,1.5988923393986393e-05,8.9917536e-05,-2.499601e-05,9.33271895288475e-05,0.0,0.0,0.0,0.0,4.027565956115723,115.47042846679688
1779210476.6958773,4.977655649185181,hold-xy,7000,10.681315327687495,0.0,0.0,0.0,0.0061342753,0.0057141846,8.2096085e-06,1.2917444e-06,8.310612103428163e-06,0,0,0.006142485,0.0057154763,0.03716517,0.007621671538800001,0.006155280862003565,-0.6296587586402893,-0.7768100500106812,78.054339262236,0.003911018371582031,111,8.2096085e-06,1.2917444e-06,8.310612103428163e-06,3.4478184e-05,1.1095677e-05,3.62195981185176e-05,0.0,0.0,0.0,0.0,4.022287368774414,115.43118286132812
1779210476.7773361,5.059114456176758,hold-xy,7000,10.681315327687495,0.0,0.0,0.0,0.0061342753,0.0057141846,-8.173287e-05,-0.00013137516,0.00015472457107620116,0,0,0.0060525425,0.0055828094,0.037301697,0.006049702875316143,0.008187688887119293,-0.6309167742729187,-0.7757837176322937,78.2432791994857,0.0035572052001953125,112,-8.173287e-05,-0.00013137516,0.00015472457107620116,-0.0003056768,-0.00047871142,0.0005679814389997833,0.0,0.0,0.0,0.0,4.022287368774414,115.43118286132812
1779210476.8585787,5.14035701751709,hold-xy,7500,11.444266422522317,0.0,0.0,0.0,0.0061342753,0.0057141846,7.5660646e-06,5.639158e-06,9.436389017524695e-06,0,0,0.0061418414,0.0057198238,0.037148096,0.007828503847122192,0.005612082779407501,-0.6297372579574585,-0.7767484784126282,78.06516205936678,0.01350545883178711,113,7.5660646e-06,5.639158e-06,9.436389017524695e-06,0.00016178809,0.00024144587,0.00029063980231195475,0.0,0.0,0.0,0.0,4.022287368774414,115.45149993896484
1779210476.960358,5.242136240005493,hold-xy,7500,11.444266422522317,0.0,0.0,0.0,0.0061342753,0.0057141846,6.222539e-05,-0.000153495,0.0001656282346157408,0,0,0.0061965007,0.0055606896,0.03713149,0.006796661764383316,0.004827465396374464,-0.6302504539489746,-0.7763472199440002,78.13992916596615,0.013560295104980469,114,6.222539e-05,-0.000153495,0.0001656282346157408,0.00027444994,-0.00030029766,0.00040681869083598014,0.0,0.0,0.0,0.0,4.022287368774414,115.47067260742188
1779210477.0423286,5.324106931686401,hold-xy,7500,11.444266422522317,0.0,0.0,0.0,0.0061342753,0.0057141846,0.00047876965,-0.0004206919,0.0006373398214436272,0,0,0.006613045,0.0052934927,0.037322897,-0.0028433632105588913,0.008713251911103725,-0.629269540309906,-0.7771331071853638,77.99961158473869,0.014295816421508789,115,0.00047876965,-0.0004206919,0.0006373398214436272,0.0017304054,-0.0011969617,0.0021040484857915787,0.0,0.0,0.0,0.0,4.027565956115723,115.45130157470703
1779210477.1240194,5.405797719955444,hold-xy,7500,11.444266422522317,0.0,0.0,0.0,0.0061342753,0.0057141846,0.0006597275,-0.0006264625,0.0009097778068243767,0,0,0.006794003,0.005087722,0.03736384,-0.006404994986951351,0.00791943073272705,-0.6292001008987427,-0.777176558971405,77.98708145457881,0.0047228336334228516,116,0.0006597275,-0.0006264625,0.0009097778068243767,0.0018061239,-0.0015142772,0.00235693000741717,0.0,0.0,0.0,0.0,4.027565956115723,115.44486999511719
1779210477.2258108,5.507589101791382,hold-xy,7500,11.444266422522317,0.0,0.0,0.0,0.0061342753,0.0057141846,0.0006266907,-0.0005599484,0.0008404066881822402,0,0,0.006760966,0.005154236,0.0373819,-0.005628869868814945,0.00887005589902401,-0.6293278336524963,-0.7770689129829407,78.00766348891065,0.0050201416015625,117,0.0006266907,-0.0005599484,0.0008404066881822402,0.0011666353,-0.000863389,0.001451371215450935,0.0,0.0,0.0,0.0,4.022287368774414,115.4167709350586
1779210477.3072863,5.589064598083496,hold-xy,7500,11.444266422522317,0.0,0.0,0.0,0.0061342753,0.0057141846,0.0007307185,-0.0006550923,0.0009813742563168255,0,0,0.006864994,0.0050590923,0.037407577,-0.007654460147023201,0.009348335675895214,-0.6290631294250488,-0.7772603631019592,77.96874629620163,0.004693031311035156,118,0.0007307185,-0.0006550923,0.0009813742563168255,0.0011981525,-0.00095329975,0.0015311270107597119,0.0,0.0,0.0,0.0,4.022287368774414,115.44603729248047
1779210477.410851,5.692629337310791,hold-xy,7500,11.444266422522317,0.0,0.0,0.0,0.0061342753,0.0057141846,0.00075277034,-0.0006962563,0.0010253955410409487,0,0,0.0068870457,0.0050179283,0.03739391,-0.008399736136198044,0.009844913147389889,-0.6289334297180176,-0.777351438999176,77.95021619822164,0.01206660270690918,119,0.00075277034,-0.0006962563,0.0010253955410409487,0.0009074819,-0.0007956916,0.0012069169537913225,0.0,0.0,0.0,0.0,4.022287368774414,115.4624252319336
1779210477.5004342,5.782212495803833,hold-xy,7500,11.444266422522317,0.0,0.0,0.0,0.0061342753,0.0057141846,0.00075506326,-0.0006537214,0.000998735285567954,0,0,0.0068893386,0.005060463,0.037388124,-0.00817971583455801,0.009460590779781342,-0.6290624141693115,-0.7772541642189026,77.96863639988102,0.008310556411743164,120,0.00075506326,-0.0006537214,0.000998735285567954,0.00064260693,-0.0004202734,0.0007678368338593374,0.0,0.0,0.0,0.0,4.022287368774414,115.47471618652344
1779210477.582152,5.8639302253723145,hold-xy,7500,11.444266422522317,0.0,0.0,0.0,0.0061342753,0.0057141846,0.00073486473,-0.00065517565,0.0009845208202413362,0,0,0.00686914,0.005059009,0.037405647,-0.008011559024453163,0.009150594472885132,-0.6291373372077942,-0.7771989703178406,77.9792168519388,0.008397340774536133,121,0.00073486473,-0.00065517565,0.0009845208202413362,0.00037559372,-0.0002995359,0.0004804085708778757,0.0,0.0,0.0,0.0,4.022287368774414,115.46996307373047
1779210477.6648996,5.946677923202515,hold-xy,7500,11.444266422522317,0.0,0.0,0.0,0.0061342753,0.0057141846,0.00076174736,-0.0006843265,0.0010239930590367212,0,0,0.0068960227,0.005029858,0.037400223,-0.008118623867630959,0.009009089320898056,-0.6291285157203674,-0.7772067189216614,77.97764108646258,0.017475605010986328,122,0.00076174736,-0.0006843265,0.0010239930590367212,0.00037238825,-0.0003283846,0.0004964972028020338,0.0,0.0,0.0,0.0,4.022287368774414,115.46996307373047
1779210477.746197,6.02797532081604,hold-xy,7500,11.444266422522317,0.0,0.0,0.0,0.0061342753,0.0057141846,0.00075552147,-0.00067552226,0.001013480671271925,0,0,0.006889797,0.0050386623,0.037404865,-0.008013492450118065,0.008639062754809856,-0.629158079624176,-0.7771880626678467,77.9814411816442,0.006772518157958984,123,0.00075552147,-0.00067552226,0.001013480671271925,0.00024037006,-0.00020115983,0.00031343747263421314,0.0,0.0,0.0,0.0,4.022287368774414,115.47675323486328
1779210477.82896,6.110738277435303,hold-xy,7500,11.444266422522317,0.0,0.0,0.0,0.0061342753,0.0057141846,0.0007608561,-0.0007071588,0.0010387375168170166,0,0,0.0068951314,0.005007026,0.03742722,-0.008432218804955482,0.009575704112648964,-0.6290814280509949,-0.7772347331047058,77.97154478375329,0.01817154884338379,124,0.0007608561,-0.0007071588,0.0010387375168170166,0.00019068472,-0.0002738058,0.000333661924866928,0.0,0.0,0.0,0.0,4.022287368774414,115.49066162109375
1779210477.910403,6.192181348800659,hold-xy,7500,11.444266422522317,0.0,0.0,0.0,0.0061342753,0.0057141846,0.0007493878,-0.0006543766,0.0009948823074921998,0,0,0.006883663,0.005059808,0.03741294,-0.0076523832976818085,0.009258080273866653,-0.6291772127151489,-0.7771690487861633,77.98541320482565,0.01843857765197754,125,0.0007493878,-0.0006543766,0.0009948823074921998,9.109621e-05,3.4017867e-06,9.115970694308813e-05,0.0,0.0,0.0,0.0,4.022287368774414,115.49732971191406
1779210477.976303,6.258081436157227,hold-xy,7500,11.444266422522317,0.0,0.0,0.0,0.0061342753,0.0057141846,0.00072172843,-0.0006617508,0.0009791864105338503,0,0,0.006856004,0.005052434,0.037385445,-0.007566302083432674,0.008947746828198433,-0.6292642951011658,-0.7771030068397522,77.99776420457238,0.0014548301696777344,126,0.00072172843,-0.0006617508,0.0009791864105338503,-3.6346333e-05,-2.4309888e-05,4.37267256617581e-05,0.0,0.0,0.0,0.0,4.022287368774414,115.49732971191406
1779210478.062557,6.344335317611694,hold-xy,7500,11.444266422522317,0.0,0.0,0.0,0.0061342753,0.0057141846,0.00076801237,-0.0006565568,0.0010104008358583197,0,0,0.0069022877,0.005057628,0.037417945,-0.008206413127481937,0.009720006957650185,-0.6290398240089417,-0.7772690057754517,77.96575460061628,0.002924680709838867,127,0.00076801237,-0.0006565568,0.0010104008358583197,0.00013832876,1.3614917e-06,0.00013833546585255386,0.0,0.0,0.0,0.0,4.022287368774414,115.49653625488281
1779210478.1641548,6.445933103561401,hold-xy,7500,11.444266422522317,0.0,0.0,0.0,0.0061342753,0.0057141846,0.00069880113,-0.0006226548,0.0009359604691595636,0,0,0.0068330765,0.00509153,0.037406687,-0.007035219110548496,0.009151488542556763,-0.6292052268981934,-0.777153491973877,77.98958555754206,0.004145383834838867,128,0.00069880113,-0.0006226548,0.0009359604691595636,-0.00011002358,0.00010227699,0.00015021907826117542,0.0,0.0,0.0,0.0,4.022287368774414,115.49351501464844
1779210478.2663174,6.548095703125,hold-xy,8000,12.207217517357137,0.0,0.0,0.0,0.0061342753,0.0057141846,0.00060403626,-0.0005674921,0.0008287985712267605,0,0,0.0067383116,0.0051466925,0.037364315,-0.005645619239658117,0.009784633293747902,-0.6292316317558289,-0.7771357297897339,77.99509593767407,0.013170719146728516,129,0.00060403626,-0.0005674921,0.0008287985712267605,-0.0003822591,0.00024927582,0.00045635564393926083,0.0,0.0,0.0,0.0,4.022287368774414,115.52259826660156
1779210478.3479805,6.629758834838867,hold-xy,8000,12.207217517357137,0.0,0.0,0.0,0.0061342753,0.0057141846,0.00059991423,-0.000569677,0.0008273022318489675,0,0,0.0067341896,0.0051445076,0.037322223,-0.005397339817136526,0.009781590662896633,-0.6292279362678528,-0.7771405577659607,77.99463013503613,0.0020368099212646484,130,0.00059991423,-0.000569677,0.0008273022318489675,-0.00028090735,0.00016742965,0.00032701930693666386,0.0,0.0,0.0,0.0,4.022287368774414,115.52529907226562
1779210478.4297833,6.711561679840088,hold-xy,8500,12.970168612191959,0.0,0.0,0.0,0.0061342753,0.0057141846,0.0007201852,-0.00062504504,0.000953597423314612,0,0,0.0068544606,0.0050891396,0.037393566,-0.00720071280375123,0.00846957229077816,-0.6291263103485107,-0.7772236466407776,77.97677635641566,0.0018143653869628906,131,0.0007201852,-0.00062504504,0.000953597423314612,0.00024324507,-8.530287e-05,0.00025776877480525854,0.0,0.0,0.0,0.0,4.022287368774414,115.52507019042969
1779210478.5315611,6.813339471817017,hold-xy,8500,12.970168612191959,0.0,0.0,0.0,0.0061342753,0.0057141846,0.0007252339,-0.0006537591,0.0009764042205431544,0,0,0.0068595093,0.0050604255,0.03740327,-0.007706673815846443,0.009149977006018162,-0.6292744874954224,-0.7770910859107971,77.99955565202484,0.011729001998901367,132,0.0007252339,-0.0006537591,0.0009764042205431544,0.00018675922,-0.00015348435,0.00024173632768301185,0.0,0.0,0.0,0.0,4.0170087814331055,115.51951599121094
1779210478.6127527,6.894531011581421,hold-xy,9000,13.733119707026779,0.0,0.0,0.0,0.0061342753,0.0057141846,0.0007432215,-0.0006874236,0.001012388005966346,0,0,0.006877497,0.005026761,0.037391245,-0.00848934892565012,0.009654258377850056,-0.6292243599891663,-0.7771173715591431,77.99273855326574,0.0001971721649169922,133,0.0007432215,-0.0006874236,0.001012388005966346,0.00018892897,-0.00021635824,0.00028723691676111896,0.0,0.0,0.0,0.0,4.022287368774414,115.48726654052734
1779210478.6940353,6.975813627243042,hold-xy,9000,13.733119707026779,0.0,0.0,0.0,0.0061342753,0.0057141846,0.00076029263,-0.00066844886,0.001012358022565718,0,0,0.006894568,0.0050457357,0.037405428,-0.008448288775980473,0.009392883628606796,-0.6291671991348267,-0.7771673202514648,77.98386771778652,0.000225067138671875,134,0.00076029263,-0.00066844886,0.001012358022565718,0.00019527852,-8.139415e-05,0.0002115625451626065,0.0,0.0,0.0,0.0,4.0170087814331055,115.51590728759766
1779210478.7818077,7.063585996627808,hold-xy,9500,14.4960708018616,0.0,0.0,0.0,0.0061342753,0.0057141846,0.00073527545,-0.00067807874,0.0010002103541064,0,0,0.006869551,0.005036106,0.03742218,-0.008585928939282894,0.009631087072193623,-0.6291801333427429,-0.777152419090271,77.98613707533629,0.0004992485046386719,135,0.00073527545,-0.00067807874,0.0010002103541064,5.091996e-05,-8.999331e-05,0.00010340037619526379,0.0,0.0,0.0,0.0,4.0170087814331055,115.51590728759766
1779210478.8684351,7.1502134799957275,hold-xy,9500,14.4960708018616,0.0,0.0,0.0,0.0061342753,0.0057141846,0.00075440574,-0.0006818981,0.0010169134592918066,0,0,0.006888681,0.0050322865,0.03742996,-0.008708245120942593,0.009565520100295544,-0.6291473507881165,-0.7771784067153931,77.9811386547151,0.014777898788452148,136,0.00075440574,-0.0006818981,0.0010169134592918066,0.000114969225,-7.8832556e-05,0.000139400483228967,0.0,0.0,0.0,0.0,4.0170087814331055,115.52106475830078
1779210478.9292078,7.210986137390137,hold-xy,10000,15.259021896696423,0.0,0.0,0.0,0.0061342753,0.0057141846,0.0007555466,-0.00069348095,0.0010255566796739792,0,0,0.006889822,0.0050207037,0.037392646,-0.008182240650057793,0.008850529789924622,-0.6289408206939697,-0.7773597240447998,77.94968250871085,0.0040972232818603516,137,0.0007555466,-0.00069348095,0.0010255566796739792,8.526845e-05,-0.00010381394,0.00013434300525166264,0.0,0.0,0.0,0.0,4.0170087814331055,115.53115844726562
1779210479.0115545,7.293332815170288,hold-xy,10000,15.259021896696423,0.0,0.0,0.0,0.0061342753,0.0057141846,0.00076336693,-0.0007026475,0.001037517504629154,0,0,0.0068976423,0.005011537,0.037416693,-0.008602635934948921,0.009604665450751781,-0.6291828751564026,-0.7771503329277039,77.98648803123169,0.014748334884643555,138,0.00076336693,-0.0007026475,0.001037517504629154,9.241093e-05,-0.00011102586,0.0001444524929930999,0.0,0.0,0.0,0.0,4.0170087814331055,115.50704956054688
1779210479.1134455,7.39522385597229,hold-xy,10500,16.021972991531243,0.0,0.0,0.0,0.0061342753,0.0057141846,0.00075914897,-0.0006736624,0.0010149523437219532,0,0,0.0068934243,0.005040522,0.037412774,-0.008423654362559319,0.009487055242061615,-0.6289940476417542,-0.7773066163063049,77.95850827792867,0.014420032501220703,139,0.00075914897,-0.0006736624,0.0010149523437219532,5.2308504e-05,7.3492265e-06,5.282225615322258e-05,0.0,0.0,0.0,0.0,4.011730194091797,115.45561981201172
1779210479.1951272,7.476905584335327,hold-xy,10500,16.021972991531243,0.0,0.0,0.0,0.0061342753,0.0057141846,0.00076130684,-0.00069086486,0.0010280478641198519,0,0,0.006895582,0.0050233197,0.0374195,-0.008931392803788185,0.010587447322905064,-0.6290684938430786,-0.777226448059082,77.97131273248414,0.003964424133300781,140,0.00076130684,-0.00069086486,0.0010280478641198519,4.364201e-05,-5.0866904e-05,6.70228820523088e-05,0.0,0.0,0.0,0.0,4.011730194091797,115.42549133300781
1779210479.297956,7.5797343254089355,hold-xy,10500,16.021972991531243,0.0,0.0,0.0,0.0061342753,0.0057141846,0.00076950993,-0.00067235297,0.0010218630313200859,0,0,0.0069037853,0.0050418316,0.037423465,-0.008600265718996525,0.009644711390137672,-0.6292628645896912,-0.7770851254463196,77.99835714320638,0.014529705047607422,141,0.00076950993,-0.00067235297,0.0010218630313200859,5.7222227e-05,2.4585686e-05,6.228032616925574e-05,0.0,0.0,0.0,0.0,4.011730194091797,115.40654754638672
1779210479.3801374,7.6619157791137695,hold-xy,10500,16.021972991531243,0.0,0.0,0.0,0.0061342753,0.0057141846,0.0007722387,-0.0006821314,0.0010303668734308398,0,0,0.006906514,0.005032053,0.037428457,-0.008435002528131008,0.009243215434253216,-0.6289997696876526,-0.7773047089576721,77.95892752257147,0.004453182220458984,142,0.0007722387,-0.0006821314,0.0010303668734308398,4.8928858e-05,-1.4587016e-05,5.1056971315980975e-05,0.0,0.0,0.0,0.0,4.011730194091797,115.47213745117188
1779210479.4635515,7.745329856872559,hold-xy,10500,16.021972991531243,0.0,0.0,0.0,0.0061342753,0.0057141846,0.0007644901,-0.00067875255,0.0010223258563893383,0,0,0.0068987655,0.005035432,0.037422676,-0.00842329766601324,0.009094000793993473,-0.6292031407356262,-0.7771420478820801,77.98867174807958,0.0048675537109375,143,0.0007644901,-0.00067875255,0.0010223258563893383,6.2430972e-06,2.0018015e-06,6.556178074855845e-06,0.0,0.0,0.0,0.0,4.011730194091797,115.47213745117188
1779210479.5475192,7.8292975425720215,hold-xy,10500,16.021972991531243,0.0,0.0,0.0,0.0061342753,0.0057141846,0.00076370407,-0.0006931601,0.001031365484440304,0,0,0.0068979794,0.0050210245,0.03743362,-0.008617840707302094,0.009914210997521877,-0.6290491819381714,-0.7772545218467712,77.96732249854496,0.004339456558227539,144,0.00076370407,-0.0006931601,0.001031365484440304,1.5793673e-06,-4.9752394e-05,4.977745554188773e-05,0.0,0.0,0.0,0.0,4.011730194091797,115.52063751220703
1779210479.6312027,7.912981033325195,hold-xy,10500,16.021972991531243,0.0,0.0,0.0,0.0061342753,0.0057141846,0.0007436592,-0.00065799244,0.0009929668133956914,0,0,0.0068779346,0.005056192,0.03743319,-0.008278746157884598,0.00958874449133873,-0.6290715336799622,-0.7772442102432251,77.97016840399601,0.0166170597076416,145,0.0007436592,-0.00065799244,0.0009929668133956914,-8.310958e-05,0.00011292448,0.00014021105553275242,0.0,0.0,0.0,0.0,4.011730194091797,115.51873779296875
1779210479.7127132,7.9944915771484375,hold-xy,10500,16.021972991531243,0.0,0.0,0.0,0.0061342753,0.0057141846,0.0007068347,-0.00063707866,0.0009515695293054286,0,0,0.00684111,0.005077106,0.037403677,-0.007133009843528271,0.008565126918256283,-0.6291285157203674,-0.7772213816642761,77.97727423981574,0.016429901123046875,146,0.0007068347,-0.00063707866,0.0009515695293054286,-0.00019339898,0.00015584409,0.0002483758232147903,0.0,0.0,0.0,0.0,4.011730194091797,115.49315643310547
1779210479.7965672,8.078345537185669,hold-xy,10500,16.021972991531243,0.0,0.0,0.0,0.0061342753,0.0057141846,0.00052451063,-0.00045833178,0.000696548233442393,0,0,0.006658786,0.005255853,0.037333317,-0.003822644241154194,0.009431088343262672,-0.629425585269928,-0.7769941091537476,78.02362756934609,0.01861739158630371,147,0.00052451063,-0.00045833178,0.000696548233442393,-0.0008051429,0.0007657137,0.0011111132545980724,0.0,0.0,0.0,0.0,4.011730194091797,115.44979858398438
1779210479.8778074,8.15958571434021,hold-xy,11000,16.784924086366065,0.0,0.0,0.0,0.0061342753,0.0057141846,0.00028321985,-0.00037860125,0.00047281327267872773,0,0,0.006417495,0.0053355834,0.037307665,-0.0009175597806461155,0.010315284132957458,-0.6298940777778625,-0.7766119837760925,78.09529522640115,0.0069692134857177734,148,0.00028321985,-0.00037860125,0.00047281327267872773,-0.0013428929,0.00079350395,0.0015598108027397265,0.0,0.0,0.0,0.0,4.006451606750488,115.44586944580078
1779210479.9586668,8.240445137023926,hold-xy,11000,16.784924086366065,0.0,0.0,0.0,0.0061342753,0.0057141846,0.00033169985,-0.00036672223,0.0004944795007986737,0,0,0.006465975,0.0053474624,0.037296407,-0.0003550639667082578,0.007038368843495846,-0.6295896768569946,-0.7768958806991577,78.04472916400154,0.016382694244384766,149,0.00033169985,-0.00036672223,0.0004944795007986737,-0.0007364585,0.00060533255,0.0009533092873068839,0.0,0.0,0.0,0.0,4.006451606750488,115.44586944580078
1779210480.021729,8.303507328033447,hold-xy,11000,16.784924086366065,0.0,0.0,0.0,0.0061342753,0.0057141846,0.0001911316,-0.0005147215,0.0005490624069043939,0,0,0.006325407,0.005199463,0.037384674,-6.553361345140729e-06,0.007256072945892811,-0.6309822797775269,-0.7757633328437805,78.25066770007848,0.007878780364990234,150,0.0001911316,-0.0005147215,0.0005490624069043939,-0.001104773,-0.00019666963,0.0011221419086677752,0.0,0.0,0.0,0.0,4.006451606750488,115.42769622802734
1779210480.103621,8.385399341583252,hold-xy,11500,17.547875181200887,0.0,0.0,0.0,0.0061342753,0.0057141846,0.0001834333,-0.00045212358,0.0004879175203716797,0,0,0.0063177086,0.005262061,0.03734355,-0.00018205944797955453,0.01055094599723816,-0.6310834288597107,-0.7756432294845581,78.27159355684675,0.014746427536010742,151,0.0001834333,-0.00045212358,0.0004879175203716797,-0.00080412434,0.0001126416,0.000811975417114932,0.0,0.0,0.0,0.0,4.006451606750488,115.43488311767578
1779210480.1884565,8.470234870910645,hold-xy,11500,17.547875181200887,0.0,0.0,0.0,0.0061342753,0.0057141846,0.00023041107,-0.00044125784,0.0004977928717986988,0,0,0.0063646864,0.0052729268,0.037323236,-0.0011425389675423503,0.011868721805512905,-0.6304965019226074,-0.7761005759239197,78.18765479470105,0.0066301822662353516,152,0.00023041107,-0.00044125784,0.0004977928717986988,-0.00041126722,0.00011391808,0.00042675290662464696,0.0,0.0,0.0,0.0,4.006451606750488,115.40174865722656
1779210480.2909884,8.572766780853271,hold-xy,12000,18.310826276035705,0.0,0.0,0.0,0.0061342753,0.0057141846,0.00036285724,-0.00036027655,0.0005113360436805536,0,0,0.0064971326,0.005353908,0.037302736,-0.001555505208671093,0.009512844495475292,-0.6295028924942017,-0.7769384384155273,78.03581307661885,0.006605625152587891,153,0.00036285724,-0.00036027655,0.0005113360436805536,9.954689e-05,0.00031663058,0.0003319104004933018,0.0,0.0,0.0,0.0,4.00117301940918,115.33070373535156
1779210480.39333,8.675108432769775,hold-xy,12000,18.310826276035705,0.0,0.0,0.0,0.0061342753,0.0057141846,0.00023118313,-0.00038221013,0.0004466880724990304,0,0,0.0063654585,0.0053319745,0.037341367,-0.00029724722844548523,0.00920318253338337,-0.6300364136695862,-0.7765110731124878,78.1142406613313,0.01775956153869629,154,0.00023118313,-0.00038221013,0.0004466880724990304,-0.00036351406,0.00014948176,0.0003930486832735413,0.0,0.0,0.0,0.0,4.00117301940918,115.32575988769531
1779210480.474618,8.756396293640137,hold-xy,12500,19.073777370870527,0.0,0.0,0.0,0.0061342753,0.0057141846,0.00023302436,-0.0005397061,0.000587863106864883,0,0,0.0063672997,0.0051744785,0.03734676,-0.000754301086999476,0.008963346481323242,-0.6310195922851562,-0.7757147550582886,78.25886164923367,0.014801979064941406,155,0.00023302436,-0.0005397061,0.000587863106864883,-0.00024790317,-0.0004562096,0.0005192139771060262,0.0,0.0,0.0,0.0,4.00117301940918,115.32575988769531
1779210480.5763443,8.85812258720398,hold-xy,13000,19.83672846570535,0.0,0.0,0.0,0.0061342753,0.0057141846,0.00033036992,-0.00038666744,0.0005085823169206607,0,0,0.0064646453,0.005327517,0.037306786,-0.0006420993013307452,0.00790353026241064,-0.6296921968460083,-0.7768043279647827,78.06111385806533,0.012228965759277344,156,0.00033036992,-0.00038666744,0.0005085823169206607,0.00010646648,0.00012084411,0.00016105406640912225,0.0,0.0,0.0,0.0,3.995894432067871,115.2934799194336
1779210480.657839,8.939617395401001,hold-xy,13000,19.83672846570535,0.0,0.0,0.0,0.0061342753,0.0057141846,0.00018623099,-0.000495784,0.0005296071758027919,0,0,0.0063205063,0.0052184006,0.037368122,-0.0007063613156788051,0.010426932945847511,-0.6311294436454773,-0.775607168674469,78.27799359016073,0.01146697998046875,157,0.00018623099,-0.000495784,0.0005296071758027919,-0.0004511648,-0.00031336976,0.0005493180101920924,0.0,0.0,0.0,0.0,3.995894432067871,115.27328491210938
1779210480.7597544,9.041532754898071,hold-xy,13000,19.83672846570535,0.0,0.0,0.0,0.0061342753,0.0057141846,0.00029734056,-0.000404255,0.0005018301627701104,0,0,0.006431616,0.0053099296,0.037352912,-0.0008601463050581515,0.008901749737560749,-0.6299874186515808,-0.7765538692474365,78.10632744164364,0.019858837127685547,158,0.00029734056,-0.000404255,0.0005018301627701104,4.059638e-05,7.424326e-05,8.461753982493395e-05,0.0,0.0,0.0,0.0,3.995894432067871,115.29766082763672
1779210480.8414164,9.123194694519043,hold-xy,13500,20.59967956054017,0.0,0.0,0.0,0.0061342753,0.0057141846,0.00020971708,-0.00040193927,0.00045336125047975786,0,0,0.0063439924,0.0053122453,0.037406266,0.00033405618160031736,0.0073574804700911045,-0.6305209994316101,-0.7761372923851013,78.18275575808937,0.006108283996582031,159,0.00020971708,-0.00040193927,0.00045336125047975786,-0.00024709202,5.925151e-05,0.00025409684475519195,0.0,0.0,0.0,0.0,3.995894432067871,115.29180145263672
1779210480.9431238,9.224902153015137,hold-xy,13500,20.59967956054017,0.0,0.0,0.0,0.0061342753,0.0057141846,0.0001234198,-0.00016453536,0.00020568017036538868,0,0,0.006257695,0.0055496492,0.037304636,0.0031094185542315245,0.008650862611830235,-0.6299746036529541,-0.7765613198280334,78.10471498102929,0.005873441696166992,160,0.0001234198,-0.00016453536,0.00020568017036538868,-0.00042692362,0.00074011803,0.0008544229009437002,0.0,0.0,0.0,0.0,3.9906158447265625,115.24695587158203
1779210481.045409,9.327187299728394,hold-xy,14000,21.36263065537499,0.0,0.0,0.0,0.0061342753,0.0057141846,0.00017599482,-0.00021229172,0.00027575706107258157,0,0,0.00631027,0.005501893,0.037279323,0.0029945664573460817,0.0063332016579806805,-0.6298782825469971,-0.776662290096283,78.08676150155587,0.01604151725769043,161,0.00017599482,-0.00021229172,0.00027575706107258157,-0.00012762412,0.00036255328,0.0003843602364104672,0.0,0.0,0.0,0.0,3.9906158447265625,115.23977661132812
1779210481.129623,9.411401271820068,hold-xy,14000,21.36263065537499,0.0,0.0,0.0,0.0061342753,0.0057141846,0.00020867214,-0.00043312088,0.0004807678872128072,0,0,0.0063429475,0.0052810637,0.037363503,3.1332372600445524e-05,0.009310309775173664,-0.630952000617981,-0.775766134262085,78.24969980195281,0.014589548110961914,162,0.00020867214,-0.00043312088,0.0004807678872128072,2.5098263e-05,-0.000519551,0.0005201568365055077,0.0,0.0,0.0,0.0,3.9906158447265625,115.24275970458984
1779210481.1931393,9.474917650222778,hold-xy,14000,21.36263065537499,0.0,0.0,0.0,0.0061342753,0.0057141846,0.0002481062,-0.0003876933,0.0004602855454139028,0,0,0.0063823815,0.0053264913,0.03734622,-0.0003850423381663859,0.009355143643915653,-0.6299712061882019,-0.7765620350837708,78.1048848579496,0.004884243011474609,163,0.0002481062,-0.0003876933,0.0004602855454139028,0.00017913594,-0.00017756218,0.00025222610970161626,0.0,0.0,0.0,0.0,3.985337257385254,115.1773681640625
1779210481.294363,9.576141357421875,hold-xy,14500,22.12558175020981,0.0,0.0,0.0,0.0061342753,0.0057141846,0.0003908081,-0.0003340384,0.0005141134429534818,0,0,0.0065250834,0.005380146,0.037248183,-0.0014815531903877854,0.010718245059251785,-0.6294643878936768,-0.776953935623169,78.03260741371604,0.013599395751953125,164,0.0003908081,-0.0003340384,0.0005141134429534818,0.0005881693,4.9706257e-05,0.0005902659257434826,0.0,0.0,0.0,0.0,3.985337257385254,115.13126373291016
1779210481.3555067,9.637284994125366,hold-xy,14500,22.12558175020981,0.0,0.0,0.0,0.0061342753,0.0057141846,0.0002590986,-0.00037101004,0.0004525268479043737,0,0,0.006393374,0.0053431746,0.037352983,-0.00019637930381577462,0.009035801514983177,-0.6299534440040588,-0.776580274105072,78.10170536639406,0.0028324127197265625,165,0.0002590986,-0.00037101004,0.0004525268479043737,-0.00013775317,-0.00011944562,0.00018232715948857838,0.0,0.0,0.0,0.0,3.985337257385254,115.13126373291016
1779210481.440081,9.721859216690063,hold-xy,14500,22.12558175020981,0.0,0.0,0.0,0.0061342753,0.0057141846,0.00020470656,-0.00024567777,0.00031978484629980176,0,0,0.006338982,0.005468507,0.037283804,0.002276411047205329,0.007109091151505709,-0.6298633217811584,-0.7766700983047485,78.08559339370656,0.015845060348510742,166,0.00020470656,-0.00024567777,0.00031978484629980176,-0.00032444915,0.00044180528,0.000548141554096298,0.0,0.0,0.0,0.0,3.9800586700439453,115.13218688964844
1779210481.5228496,9.804627895355225,hold-xy,15000,22.888532845044633,0.0,0.0,0.0,0.0061342753,0.0057141846,0.00018868782,-0.00036916416,0.00041459049167868437,0,0,0.006322963,0.0053450204,0.03736644,-0.00044243832235224545,0.01111523061990738,-0.63046795129776,-0.7761356234550476,78.1818745863279,0.006907224655151367,167,0.00018868782,-0.00036916416,0.00041459049167868437,-0.00027951662,-9.4697985e-05,0.0002951224417592503,0.0,0.0,0.0,0.0,3.985337257385254,115.16513061523438
1779210481.6243517,9.906130075454712,hold-xy,15000,22.888532845044633,0.0,0.0,0.0,0.0061342753,0.0057141846,0.00033813156,-0.00035760365,0.0004921517368229765,0,0,0.006472407,0.005356581,0.03732949,-0.0005340141360647976,0.008070199750363827,-0.6294569373130798,-0.7769932746887207,78.02670385207048,0.017034530639648438,168,0.00033813156,-0.00035760365,0.0004921517368229765,0.00029498886,-2.833338e-05,0.0002963464295501567,0.0,0.0,0.0,0.0,3.9800586700439453,115.12185668945312
1779210481.7056665,9.987444877624512,hold-xy,15500,23.651483939879455,0.0,0.0,0.0,0.0061342753,0.0057141846,0.00020858645,-0.000428278,0.0004763720747688057,0,0,0.006342862,0.0052859066,0.037341915,-0.001486274297349155,0.014208261854946613,-0.6303920149803162,-0.7761454582214355,78.1783019612074,0.006527900695800781,169,0.00020858645,-0.000428278,0.0004763720747688057,-0.00021675904,-0.00025074137,0.0003314448961563445,0.0,0.0,0.0,0.0,3.9800586700439453,115.0916748046875
1779210481.8075454,10.08932375907898,hold-xy,15500,23.651483939879455,0.0,0.0,0.0,0.0061342753,0.0057141846,0.00012674369,-0.00017456058,0.0002157205651538942,0,0,0.006261019,0.005539624,0.037152093,0.0059849778190255165,0.00505187688395381,-0.6301862597465515,-0.7764045000076294,78.13071957270655,0.01575160026550293,170,0.00012674369,-0.00017456058,0.0002157205651538942,-0.0004167228,0.00064597017,0.0007687231718269054,0.0,0.0,0.0,0.0,3.9747800827026367,115.0640869140625
1779210481.8931453,10.174923658370972,hold-xy,15500,23.651483939879455,0.0,0.0,0.0,0.0061342753,0.0057141846,0.00017908122,-0.00024039345,0.00029976506235930404,0,0,0.0063133566,0.005473791,0.03730812,-0.0007965680561028421,0.013662298209965229,-0.6300961971282959,-0.7763965725898743,78.13332688329048,0.006016254425048828,171,0.00017908122,-0.00024039345,0.00029976506235930404,-0.00012701072,0.0002450169,0.00027598008718450397,0.0,0.0,0.0,0.0,3.9747800827026367,115.04340362548828
1779210481.9987147,10.280493021011353,hold-xy,16000,24.414435034714273,0.0,0.0,0.0,0.0061342753,0.0057141846,0.00020354707,-0.00021318952,0.0002947561357868525,0,0,0.0063378224,0.005500995,0.037199784,0.0020693016704171896,0.00883506704121828,-0.6297875046730042,-0.7767145037651062,78.07728853260271,0.018410444259643555,172,0.00020354707,-0.00021318952,0.0002947561357868525,-1.0133794e-05,0.00025910148,0.0002592995789842053,0.0,0.0,0.0,0.0,3.9747800827026367,115.05197143554688
1779210482.0801878,10.361966133117676,hold-xy,16500,25.177386129549095,0.0,0.0,0.0,0.0061342753,0.0057141846,0.00036100578,-0.00040561706,0.0005430012843137661,0,0,0.006495281,0.0053085675,0.037305515,-0.0016843258636072278,0.010377810336649418,-0.629722535610199,-0.7767490148544312,78.06990917437888,0.0076563358306884766,173,0.00036100578,-0.00040561706,0.0005430012843137661,0.00050509366,-0.00044456418,0.0006728721436733981,0.0,0.0,0.0,0.0,3.969501495361328,115.05635833740234
1779210482.161719,10.4434974193573,hold-xy,16500,25.177386129549095,0.0,0.0,0.0,0.0061342753,0.0057141846,0.00035382994,-0.00034595467,0.0004948537710683479,0,0,0.0064881053,0.00536823,0.03727763,-0.0015236145118251443,0.010636269114911556,-0.6291335821151733,-0.7772229313850403,77.98363576237458,0.017611980438232422,174,0.00035382994,-0.00034595467,0.0004948537710683479,0.00032348896,-6.1127765e-05,0.000329213768527659,0.0,0.0,0.0,0.0,3.969501495361328,115.05635833740234
1779210482.2465441,10.528322458267212,hold-xy,17000,25.940337224383917,0.0,0.0,0.0,0.0061342753,0.0057141846,0.00018041395,-0.00027779303,0.00033123731389208985,0,0,0.0063146893,0.0054363916,0.03731647,0.00019055820303037763,0.011341135017573833,-0.6301215291023254,-0.7764136791229248,78.13142301102575,0.020030736923217773,175,0.00018041395,-0.00027779303,0.00033123731389208985,-0.0004048785,0.00020535296,0.000453978431621456,0.0,0.0,0.0,0.0,3.9642229080200195,114.99324798583984
1779210482.314429,10.5962073802948,hold-xy,17000,25.940337224383917,0.0,0.0,0.0,0.0061342753,0.0057141846,0.00019994099,-0.00016193371,0.00025729152532714305,0,0,0.0063342163,0.005552251,0.03733728,0.0010826962534338236,0.008452797308564186,-0.6294810771942139,-0.7769690752029419,78.03122333249411,0.009575605392456055,176,0.00019994099,-0.00016193371,0.00025729152532714305,-0.00020863693,0.00058742554,0.000623376413387106,0.0,0.0,0.0,0.0,3.9642229080200195,114.93842315673828
1779210482.3767152,10.658493518829346,hold-xy,17000,25.940337224383917,0.0,0.0,0.0,0.0061342753,0.0057141846,0.00021372736,-0.00041456427,0.00046641496415751827,0,0,0.0063480027,0.0052996203,0.037363544,-0.00037293400964699686,0.010118144564330578,-0.6304593682289124,-0.7761562466621399,78.17846126022707,0.00030040740966796875,177,0.00021372736,-0.00041456427,0.00046641496415751827,-8.8250534e-05,-0.000647882,0.000653864833147516,0.0,0.0,0.0,0.0,3.958944320678711,114.93842315673828
